{
  "status": "OK",
  "results": [ {
    "types": [ "locality", "political" ],
    "formatted_address": "Agoura Hills, CA, USA",
    "address_components": [ {
      "long_name": "Agoura Hills",
      "short_name": "Agoura Hills",
      "types": [ "locality", "political" ]
    }, {
      "long_name": "Los Angeles",
      "short_name": "Los Angeles",
      "types": [ "administrative_area_level_2", "political" ]
    }, {
      "long_name": "California",
      "short_name": "CA",
      "types": [ "administrative_area_level_1", "political" ]
    }, {
      "long_name": "United States",
      "short_name": "US",
      "types": [ "country", "political" ]
    } ],
    "geometry": {
      "location": {
        "lat": 34.1363945,
        "lng": -118.7745348
      },
      "location_type": "APPROXIMATE",
      "viewport": {
        "southwest": {
          "lat": 34.0994444,
          "lng": -118.8385645
        },
        "northeast": {
          "lat": 34.1733285,
          "lng": -118.7105051
        }
      },
      "bounds": {
        "southwest": {
          "lat": 34.1249380,
          "lng": -118.8003590
        },
        "northeast": {
          "lat": 34.1685150,
          "lng": -118.7193970
        }
      }
    }
  } ]
}
