{
  "status": "OK",
  "results": [ {
    "types": [ "locality", "political" ],
    "formatted_address": "Albany, CA, USA",
    "address_components": [ {
      "long_name": "Albany",
      "short_name": "Albany",
      "types": [ "locality", "political" ]
    }, {
      "long_name": "Alameda",
      "short_name": "Alameda",
      "types": [ "administrative_area_level_2", "political" ]
    }, {
      "long_name": "California",
      "short_name": "CA",
      "types": [ "administrative_area_level_1", "political" ]
    }, {
      "long_name": "United States",
      "short_name": "US",
      "types": [ "country", "political" ]
    } ],
    "geometry": {
      "location": {
        "lat": 37.8868700,
        "lng": -122.2977475
      },
      "location_type": "APPROXIMATE",
      "viewport": {
        "southwest": {
          "lat": 37.8516369,
          "lng": -122.3617772
        },
        "northeast": {
          "lat": 37.9220862,
          "lng": -122.2337178
        }
      },
      "bounds": {
        "southwest": {
          "lat": 37.8667260,
          "lng": -122.3737820
        },
        "northeast": {
          "lat": 37.8989250,
          "lng": -122.2819800
        }
      }
    }
  } ]
}
