{
  "status": "OK",
  "results": [ {
    "types": [ "locality", "political" ],
    "formatted_address": "American Canyon, CA, USA",
    "address_components": [ {
      "long_name": "American Canyon",
      "short_name": "American Canyon",
      "types": [ "locality", "political" ]
    }, {
      "long_name": "Napa",
      "short_name": "Napa",
      "types": [ "administrative_area_level_2", "political" ]
    }, {
      "long_name": "California",
      "short_name": "CA",
      "types": [ "administrative_area_level_1", "political" ]
    }, {
      "long_name": "United States",
      "short_name": "US",
      "types": [ "country", "political" ]
    } ],
    "geometry": {
      "location": {
        "lat": 38.1749178,
        "lng": -122.2608044
      },
      "location_type": "APPROXIMATE",
      "viewport": {
        "southwest": {
          "lat": 38.1398229,
          "lng": -122.3248341
        },
        "northeast": {
          "lat": 38.2099958,
          "lng": -122.1967747
        }
      },
      "bounds": {
        "southwest": {
          "lat": 38.1549350,
          "lng": -122.2838440
        },
        "northeast": {
          "lat": 38.2260370,
          "lng": -122.2263480
        }
      }
    }
  } ]
}
