{
  "status": "OK",
  "results": [ {
    "types": [ "locality", "political" ],
    "formatted_address": "Arcata, CA, USA",
    "address_components": [ {
      "long_name": "Arcata",
      "short_name": "Arcata",
      "types": [ "locality", "political" ]
    }, {
      "long_name": "Humboldt",
      "short_name": "Humboldt",
      "types": [ "administrative_area_level_2", "political" ]
    }, {
      "long_name": "California",
      "short_name": "CA",
      "types": [ "administrative_area_level_1", "political" ]
    }, {
      "long_name": "United States",
      "short_name": "US",
      "types": [ "country", "political" ]
    } ],
    "geometry": {
      "location": {
        "lat": 40.8665166,
        "lng": -124.0828396
      },
      "location_type": "APPROXIMATE",
      "viewport": {
        "southwest": {
          "lat": 40.7989776,
          "lng": -124.2108990
        },
        "northeast": {
          "lat": 40.9339868,
          "lng": -123.9547802
        }
      },
      "bounds": {
        "southwest": {
          "lat": 40.7803660,
          "lng": -124.1189510
        },
        "northeast": {
          "lat": 40.9104759,
          "lng": -123.9874970
        }
      }
    }
  } ]
}
