{
  "status": "OK",
  "results": [ {
    "types": [ "locality", "political" ],
    "formatted_address": "Arvin, CA, USA",
    "address_components": [ {
      "long_name": "Arvin",
      "short_name": "Arvin",
      "types": [ "locality", "political" ]
    }, {
      "long_name": "Kern",
      "short_name": "Kern",
      "types": [ "administrative_area_level_2", "political" ]
    }, {
      "long_name": "California",
      "short_name": "CA",
      "types": [ "administrative_area_level_1", "political" ]
    }, {
      "long_name": "United States",
      "short_name": "US",
      "types": [ "country", "political" ]
    } ],
    "geometry": {
      "location": {
        "lat": 35.2091290,
        "lng": -118.8284310
      },
      "location_type": "APPROXIMATE",
      "viewport": {
        "southwest": {
          "lat": 35.1908936,
          "lng": -118.8604458
        },
        "northeast": {
          "lat": 35.2273603,
          "lng": -118.7964162
        }
      },
      "bounds": {
        "southwest": {
          "lat": 35.1728219,
          "lng": -118.8510500
        },
        "northeast": {
          "lat": 35.2200459,
          "lng": -118.8058830
        }
      }
    }
  } ]
}
