{
  "status": "OK",
  "results": [ {
    "types": [ "locality", "political" ],
    "formatted_address": "Atwater, CA, USA",
    "address_components": [ {
      "long_name": "Atwater",
      "short_name": "Atwater",
      "types": [ "locality", "political" ]
    }, {
      "long_name": "Merced",
      "short_name": "Merced",
      "types": [ "administrative_area_level_2", "political" ]
    }, {
      "long_name": "California",
      "short_name": "CA",
      "types": [ "administrative_area_level_1", "political" ]
    }, {
      "long_name": "United States",
      "short_name": "US",
      "types": [ "country", "political" ]
    } ],
    "geometry": {
      "location": {
        "lat": 37.3477174,
        "lng": -120.6090840
      },
      "location_type": "APPROXIMATE",
      "viewport": {
        "southwest": {
          "lat": 37.3299748,
          "lng": -120.6410988
        },
        "northeast": {
          "lat": 37.3654558,
          "lng": -120.5770692
        }
      },
      "bounds": {
        "southwest": {
          "lat": 37.3317849,
          "lng": -120.6300700
        },
        "northeast": {
          "lat": 37.3749430,
          "lng": -120.5668050
        }
      }
    }
  } ]
}
