{
  "status": "OK",
  "results": [ {
    "types": [ "locality", "political" ],
    "formatted_address": "Auburn, CA, USA",
    "address_components": [ {
      "long_name": "Auburn",
      "short_name": "Auburn",
      "types": [ "locality", "political" ]
    }, {
      "long_name": "Placer",
      "short_name": "Placer",
      "types": [ "administrative_area_level_2", "political" ]
    }, {
      "long_name": "California",
      "short_name": "CA",
      "types": [ "administrative_area_level_1", "political" ]
    }, {
      "long_name": "United States",
      "short_name": "US",
      "types": [ "country", "political" ]
    } ],
    "geometry": {
      "location": {
        "lat": 38.8965654,
        "lng": -121.0768901
      },
      "location_type": "APPROXIMATE",
      "viewport": {
        "southwest": {
          "lat": 38.8618207,
          "lng": -121.1409198
        },
        "northeast": {
          "lat": 38.9312931,
          "lng": -121.0128604
        }
      },
      "bounds": {
        "southwest": {
          "lat": 38.8586509,
          "lng": -121.1123210
        },
        "northeast": {
          "lat": 38.9565690,
          "lng": -121.0526920
        }
      }
    }
  } ]
}
