{
  "status": "OK",
  "results": [ {
    "types": [ "locality", "political" ],
    "formatted_address": "Azusa, CA, USA",
    "address_components": [ {
      "long_name": "Azusa",
      "short_name": "Azusa",
      "types": [ "locality", "political" ]
    }, {
      "long_name": "Los Angeles",
      "short_name": "Los Angeles",
      "types": [ "administrative_area_level_2", "political" ]
    }, {
      "long_name": "California",
      "short_name": "CA",
      "types": [ "administrative_area_level_1", "political" ]
    }, {
      "long_name": "United States",
      "short_name": "US",
      "types": [ "country", "political" ]
    } ],
    "geometry": {
      "location": {
        "lat": 34.1336186,
        "lng": -117.9075627
      },
      "location_type": "APPROXIMATE",
      "viewport": {
        "southwest": {
          "lat": 34.1151449,
          "lng": -117.9395775
        },
        "northeast": {
          "lat": 34.1520882,
          "lng": -117.8755479
        }
      },
      "bounds": {
        "southwest": {
          "lat": 34.1067339,
          "lng": -117.9435920
        },
        "northeast": {
          "lat": 34.1682060,
          "lng": -117.8813450
        }
      }
    }
  } ]
}
