{
  "status": "OK",
  "results": [ {
    "types": [ "locality", "political" ],
    "formatted_address": "Beaumont, CA, USA",
    "address_components": [ {
      "long_name": "Beaumont",
      "short_name": "Beaumont",
      "types": [ "locality", "political" ]
    }, {
      "long_name": "Riverside",
      "short_name": "Riverside",
      "types": [ "administrative_area_level_2", "political" ]
    }, {
      "long_name": "California",
      "short_name": "CA",
      "types": [ "administrative_area_level_1", "political" ]
    }, {
      "long_name": "United States",
      "short_name": "US",
      "types": [ "country", "political" ]
    } ],
    "geometry": {
      "location": {
        "lat": 33.9294606,
        "lng": -116.9772480
      },
      "location_type": "APPROXIMATE",
      "viewport": {
        "southwest": {
          "lat": 33.8553639,
          "lng": -117.1053074
        },
        "northeast": {
          "lat": 34.0034929,
          "lng": -116.8491886
        }
      },
      "bounds": {
        "southwest": {
          "lat": 33.8276270,
          "lng": -117.0710850
        },
        "northeast": {
          "lat": 33.9650959,
          "lng": -116.9109660
        }
      }
    }
  } ]
}
