{
  "status": "OK",
  "results": [ {
    "types": [ "locality", "political" ],
    "formatted_address": "Blue Lake, CA, USA",
    "address_components": [ {
      "long_name": "Blue Lake",
      "short_name": "Blue Lake",
      "types": [ "locality", "political" ]
    }, {
      "long_name": "Humboldt",
      "short_name": "Humboldt",
      "types": [ "administrative_area_level_2", "political" ]
    }, {
      "long_name": "California",
      "short_name": "CA",
      "types": [ "administrative_area_level_1", "political" ]
    }, {
      "long_name": "United States",
      "short_name": "US",
      "types": [ "country", "political" ]
    } ],
    "geometry": {
      "location": {
        "lat": 40.8829072,
        "lng": -123.9839488
      },
      "location_type": "APPROXIMATE",
      "viewport": {
        "southwest": {
          "lat": 40.8744707,
          "lng": -123.9999562
        },
        "northeast": {
          "lat": 40.8913426,
          "lng": -123.9679414
        }
      },
      "bounds": {
        "southwest": {
          "lat": 40.8741590,
          "lng": -124.0042540
        },
        "northeast": {
          "lat": 40.8873530,
          "lng": -123.9747300
        }
      }
    }
  } ]
}
