{
  "status": "OK",
  "results": [ {
    "types": [ "locality", "political" ],
    "formatted_address": "Broadmoor, CA, USA",
    "address_components": [ {
      "long_name": "Broadmoor",
      "short_name": "Broadmoor",
      "types": [ "locality", "political" ]
    }, {
      "long_name": "San Mateo",
      "short_name": "San Mateo",
      "types": [ "administrative_area_level_2", "political" ]
    }, {
      "long_name": "California",
      "short_name": "CA",
      "types": [ "administrative_area_level_1", "political" ]
    }, {
      "long_name": "United States",
      "short_name": "US",
      "types": [ "country", "political" ]
    } ],
    "geometry": {
      "location": {
        "lat": 37.6866000,
        "lng": -122.4827509
      },
      "location_type": "APPROXIMATE",
      "viewport": {
        "southwest": {
          "lat": 37.6777694,
          "lng": -122.4987583
        },
        "northeast": {
          "lat": 37.6954295,
          "lng": -122.4667435
        }
      },
      "bounds": {
        "southwest": {
          "lat": 37.6856329,
          "lng": -122.4888840
        },
        "northeast": {
          "lat": 37.6962319,
          "lng": -122.4715380
        }
      }
    }
  } ]
}
