{
  "status": "OK",
  "results": [ {
    "types": [ "locality", "political" ],
    "formatted_address": "Burlingame, CA, USA",
    "address_components": [ {
      "long_name": "Burlingame",
      "short_name": "Burlingame",
      "types": [ "locality", "political" ]
    }, {
      "long_name": "San Mateo",
      "short_name": "San Mateo",
      "types": [ "administrative_area_level_2", "political" ]
    }, {
      "long_name": "California",
      "short_name": "CA",
      "types": [ "administrative_area_level_1", "political" ]
    }, {
      "long_name": "United States",
      "short_name": "US",
      "types": [ "country", "political" ]
    } ],
    "geometry": {
      "location": {
        "lat": 37.5841026,
        "lng": -122.3660825
      },
      "location_type": "APPROXIMATE",
      "viewport": {
        "southwest": {
          "lat": 37.5664160,
          "lng": -122.3980973
        },
        "northeast": {
          "lat": 37.6017850,
          "lng": -122.3340677
        }
      },
      "bounds": {
        "southwest": {
          "lat": 37.5679359,
          "lng": -122.4039880
        },
        "northeast": {
          "lat": 37.6075350,
          "lng": -122.3312810
        }
      }
    }
  } ]
}
