{
  "status": "OK",
  "results": [ {
    "types": [ "locality", "political" ],
    "formatted_address": "Calexico, CA, USA",
    "address_components": [ {
      "long_name": "Calexico",
      "short_name": "Calexico",
      "types": [ "locality", "political" ]
    }, {
      "long_name": "Imperial",
      "short_name": "Imperial",
      "types": [ "administrative_area_level_2", "political" ]
    }, {
      "long_name": "California",
      "short_name": "CA",
      "types": [ "administrative_area_level_1", "political" ]
    }, {
      "long_name": "United States",
      "short_name": "US",
      "types": [ "country", "political" ]
    } ],
    "geometry": {
      "location": {
        "lat": 32.6789476,
        "lng": -115.4988834
      },
      "location_type": "APPROXIMATE",
      "viewport": {
        "southwest": {
          "lat": 32.6601621,
          "lng": -115.5308982
        },
        "northeast": {
          "lat": 32.6977292,
          "lng": -115.4668686
        }
      },
      "bounds": {
        "southwest": {
          "lat": 32.6620950,
          "lng": -115.5335140
        },
        "northeast": {
          "lat": 32.7095939,
          "lng": -115.4559080
        }
      }
    }
  } ]
}
