{
  "status": "OK",
  "results": [ {
    "types": [ "locality", "political" ],
    "formatted_address": "Campbell, CA, USA",
    "address_components": [ {
      "long_name": "Campbell",
      "short_name": "Campbell",
      "types": [ "locality", "political" ]
    }, {
      "long_name": "Santa Clara",
      "short_name": "Santa Clara",
      "types": [ "administrative_area_level_2", "political" ]
    }, {
      "long_name": "California",
      "short_name": "CA",
      "types": [ "administrative_area_level_1", "political" ]
    }, {
      "long_name": "United States",
      "short_name": "US",
      "types": [ "country", "political" ]
    } ],
    "geometry": {
      "location": {
        "lat": 37.2871651,
        "lng": -121.9499568
      },
      "location_type": "APPROXIMATE",
      "viewport": {
        "southwest": {
          "lat": 37.2694082,
          "lng": -121.9819716
        },
        "northeast": {
          "lat": 37.3049178,
          "lng": -121.9179420
        }
      },
      "bounds": {
        "southwest": {
          "lat": 37.2541430,
          "lng": -121.9920690
        },
        "northeast": {
          "lat": 37.3069420,
          "lng": -121.9188640
        }
      }
    }
  } ]
}
