{
  "status": "OK",
  "results": [ {
    "types": [ "locality", "political" ],
    "formatted_address": "Canyon Lake, CA, USA",
    "address_components": [ {
      "long_name": "Canyon Lake",
      "short_name": "Canyon Lake",
      "types": [ "locality", "political" ]
    }, {
      "long_name": "Riverside",
      "short_name": "Riverside",
      "types": [ "administrative_area_level_2", "political" ]
    }, {
      "long_name": "California",
      "short_name": "CA",
      "types": [ "administrative_area_level_1", "political" ]
    }, {
      "long_name": "United States",
      "short_name": "US",
      "types": [ "country", "political" ]
    } ],
    "geometry": {
      "location": {
        "lat": 33.6850215,
        "lng": -117.2730931
      },
      "location_type": "APPROXIMATE",
      "viewport": {
        "southwest": {
          "lat": 33.6664504,
          "lng": -117.3051079
        },
        "northeast": {
          "lat": 33.7035886,
          "lng": -117.2410783
        }
      },
      "bounds": {
        "southwest": {
          "lat": 33.6703390,
          "lng": -117.2840190
        },
        "northeast": {
          "lat": 33.7142659,
          "lng": -117.2346290
        }
      }
    }
  } ]
}
