{
  "status": "OK",
  "results": [ {
    "types": [ "locality", "political" ],
    "formatted_address": "Chino, CA, USA",
    "address_components": [ {
      "long_name": "Chino",
      "short_name": "Chino",
      "types": [ "locality", "political" ]
    }, {
      "long_name": "San Bernardino",
      "short_name": "San Bernardino",
      "types": [ "administrative_area_level_2", "political" ]
    }, {
      "long_name": "California",
      "short_name": "CA",
      "types": [ "administrative_area_level_1", "political" ]
    }, {
      "long_name": "United States",
      "short_name": "US",
      "types": [ "country", "political" ]
    } ],
    "geometry": {
      "location": {
        "lat": 34.0122346,
        "lng": -117.6889440
      },
      "location_type": "APPROXIMATE",
      "viewport": {
        "southwest": {
          "lat": 33.9382099,
          "lng": -117.8170034
        },
        "northeast": {
          "lat": 34.0861948,
          "lng": -117.5608846
        }
      },
      "bounds": {
        "southwest": {
          "lat": 33.9250140,
          "lng": -117.7358890
        },
        "northeast": {
          "lat": 34.0478109,
          "lng": -117.5995850
        }
      }
    }
  } ]
}
