{
  "status": "OK",
  "results": [ {
    "types": [ "locality", "political" ],
    "formatted_address": "Colton, CA, USA",
    "address_components": [ {
      "long_name": "Colton",
      "short_name": "Colton",
      "types": [ "locality", "political" ]
    }, {
      "long_name": "San Bernardino",
      "short_name": "San Bernardino",
      "types": [ "administrative_area_level_2", "political" ]
    }, {
      "long_name": "California",
      "short_name": "CA",
      "types": [ "administrative_area_level_1", "political" ]
    }, {
      "long_name": "United States",
      "short_name": "US",
      "types": [ "country", "political" ]
    } ],
    "geometry": {
      "location": {
        "lat": 34.0739016,
        "lng": -117.3136547
      },
      "location_type": "APPROXIMATE",
      "viewport": {
        "southwest": {
          "lat": 34.0369242,
          "lng": -117.3776844
        },
        "northeast": {
          "lat": 34.1108629,
          "lng": -117.2496250
        }
      },
      "bounds": {
        "southwest": {
          "lat": 34.0187150,
          "lng": -117.3681780
        },
        "northeast": {
          "lat": 34.0956110,
          "lng": -117.2695310
        }
      }
    }
  } ]
}
