{
  "status": "OK",
  "results": [ {
    "types": [ "locality", "political" ],
    "formatted_address": "Compton, CA, USA",
    "address_components": [ {
      "long_name": "Compton",
      "short_name": "Compton",
      "types": [ "locality", "political" ]
    }, {
      "long_name": "Los Angeles",
      "short_name": "Los Angeles",
      "types": [ "administrative_area_level_2", "political" ]
    }, {
      "long_name": "California",
      "short_name": "CA",
      "types": [ "administrative_area_level_1", "political" ]
    }, {
      "long_name": "United States",
      "short_name": "US",
      "types": [ "country", "political" ]
    } ],
    "geometry": {
      "location": {
        "lat": 33.8958492,
        "lng": -118.2200712
      },
      "location_type": "APPROXIMATE",
      "viewport": {
        "southwest": {
          "lat": 33.8587943,
          "lng": -118.2841009
        },
        "northeast": {
          "lat": 33.9328880,
          "lng": -118.1560415
        }
      },
      "bounds": {
        "southwest": {
          "lat": 33.8630859,
          "lng": -118.2636590
        },
        "northeast": {
          "lat": 33.9234180,
          "lng": -118.1799620
        }
      }
    }
  } ]
}
