{
  "status": "OK",
  "results": [ {
    "types": [ "locality", "political" ],
    "formatted_address": "Corning, CA, USA",
    "address_components": [ {
      "long_name": "Corning",
      "short_name": "Corning",
      "types": [ "locality", "political" ]
    }, {
      "long_name": "Tehama",
      "short_name": "Tehama",
      "types": [ "administrative_area_level_2", "political" ]
    }, {
      "long_name": "California",
      "short_name": "CA",
      "types": [ "administrative_area_level_1", "political" ]
    }, {
      "long_name": "United States",
      "short_name": "US",
      "types": [ "country", "political" ]
    } ],
    "geometry": {
      "location": {
        "lat": 39.9276572,
        "lng": -122.1791556
      },
      "location_type": "APPROXIMATE",
      "viewport": {
        "southwest": {
          "lat": 39.9105419,
          "lng": -122.2111704
        },
        "northeast": {
          "lat": 39.9447682,
          "lng": -122.1471408
        }
      },
      "bounds": {
        "southwest": {
          "lat": 39.9024710,
          "lng": -122.2044190
        },
        "northeast": {
          "lat": 39.9497450,
          "lng": -122.1598360
        }
      }
    }
  } ]
}
