{
  "status": "OK",
  "results": [ {
    "types": [ "locality", "political" ],
    "formatted_address": "Costa Mesa, CA, USA",
    "address_components": [ {
      "long_name": "Costa Mesa",
      "short_name": "Costa Mesa",
      "types": [ "locality", "political" ]
    }, {
      "long_name": "Orange",
      "short_name": "Orange",
      "types": [ "administrative_area_level_2", "political" ]
    }, {
      "long_name": "California",
      "short_name": "CA",
      "types": [ "administrative_area_level_1", "political" ]
    }, {
      "long_name": "United States",
      "short_name": "US",
      "types": [ "country", "political" ]
    } ],
    "geometry": {
      "location": {
        "lat": 33.6411316,
        "lng": -117.9186689
      },
      "location_type": "APPROXIMATE",
      "viewport": {
        "southwest": {
          "lat": 33.6039664,
          "lng": -117.9826986
        },
        "northeast": {
          "lat": 33.6782807,
          "lng": -117.8546392
        }
      },
      "bounds": {
        "southwest": {
          "lat": 33.6249210,
          "lng": -117.9542670
        },
        "northeast": {
          "lat": 33.7024180,
          "lng": -117.8651980
        }
      }
    }
  } ]
}
