{
  "status": "OK",
  "results": [ {
    "types": [ "locality", "political" ],
    "formatted_address": "Cudahy, CA, USA",
    "address_components": [ {
      "long_name": "Cudahy",
      "short_name": "Cudahy",
      "types": [ "locality", "political" ]
    }, {
      "long_name": "Los Angeles",
      "short_name": "Los Angeles",
      "types": [ "administrative_area_level_2", "political" ]
    }, {
      "long_name": "California",
      "short_name": "CA",
      "types": [ "administrative_area_level_1", "political" ]
    }, {
      "long_name": "United States",
      "short_name": "US",
      "types": [ "country", "political" ]
    } ],
    "geometry": {
      "location": {
        "lat": 33.9605701,
        "lng": -118.1853486
      },
      "location_type": "APPROXIMATE",
      "viewport": {
        "southwest": {
          "lat": 33.9513149,
          "lng": -118.2013560
        },
        "northeast": {
          "lat": 33.9698243,
          "lng": -118.1693412
        }
      },
      "bounds": {
        "southwest": {
          "lat": 33.9540280,
          "lng": -118.2018980
        },
        "northeast": {
          "lat": 33.9712130,
          "lng": -118.1692470
        }
      }
    }
  } ]
}
