{
  "status": "OK",
  "results": [ {
    "types": [ "locality", "political" ],
    "formatted_address": "Dixon, CA, USA",
    "address_components": [ {
      "long_name": "Dixon",
      "short_name": "Dixon",
      "types": [ "locality", "political" ]
    }, {
      "long_name": "Solano",
      "short_name": "Solano",
      "types": [ "administrative_area_level_2", "political" ]
    }, {
      "long_name": "California",
      "short_name": "CA",
      "types": [ "administrative_area_level_1", "political" ]
    }, {
      "long_name": "United States",
      "short_name": "US",
      "types": [ "country", "political" ]
    } ],
    "geometry": {
      "location": {
        "lat": 38.4454641,
        "lng": -121.8232958
      },
      "location_type": "APPROXIMATE",
      "viewport": {
        "southwest": {
          "lat": 38.4104999,
          "lng": -121.8873255
        },
        "northeast": {
          "lat": 38.4804114,
          "lng": -121.7592661
        }
      },
      "bounds": {
        "southwest": {
          "lat": 38.3801030,
          "lng": -121.8685690
        },
        "northeast": {
          "lat": 38.4890810,
          "lng": -121.7862210
        }
      }
    }
  } ]
}
