{
  "status": "OK",
  "results": [ {
    "types": [ "locality", "political" ],
    "formatted_address": "Downey, CA, USA",
    "address_components": [ {
      "long_name": "Downey",
      "short_name": "Downey",
      "types": [ "locality", "political" ]
    }, {
      "long_name": "Los Angeles",
      "short_name": "Los Angeles",
      "types": [ "administrative_area_level_2", "political" ]
    }, {
      "long_name": "California",
      "short_name": "CA",
      "types": [ "administrative_area_level_1", "political" ]
    }, {
      "long_name": "United States",
      "short_name": "US",
      "types": [ "country", "political" ]
    } ],
    "geometry": {
      "location": {
        "lat": 33.9400143,
        "lng": -118.1325688
      },
      "location_type": "APPROXIMATE",
      "viewport": {
        "southwest": {
          "lat": 33.9029786,
          "lng": -118.1965985
        },
        "northeast": {
          "lat": 33.9770339,
          "lng": -118.0685391
        }
      },
      "bounds": {
        "southwest": {
          "lat": 33.9024549,
          "lng": -118.1705840
        },
        "northeast": {
          "lat": 33.9728990,
          "lng": -118.0902620
        }
      }
    }
  } ]
}
