{
  "status": "OK",
  "results": [ {
    "types": [ "locality", "political" ],
    "formatted_address": "Dunsmuir, CA, USA",
    "address_components": [ {
      "long_name": "Dunsmuir",
      "short_name": "Dunsmuir",
      "types": [ "locality", "political" ]
    }, {
      "long_name": "Siskiyou",
      "short_name": "Siskiyou",
      "types": [ "administrative_area_level_2", "political" ]
    }, {
      "long_name": "California",
      "short_name": "CA",
      "types": [ "administrative_area_level_1", "political" ]
    }, {
      "long_name": "United States",
      "short_name": "US",
      "types": [ "country", "political" ]
    } ],
    "geometry": {
      "location": {
        "lat": 41.2082089,
        "lng": -122.2719529
      },
      "location_type": "APPROXIMATE",
      "viewport": {
        "southwest": {
          "lat": 41.1410194,
          "lng": -122.4000123
        },
        "northeast": {
          "lat": 41.2753295,
          "lng": -122.1438935
        }
      },
      "bounds": {
        "southwest": {
          "lat": 41.2025390,
          "lng": -122.2849150
        },
        "northeast": {
          "lat": 41.2690200,
          "lng": -122.2547840
        }
      }
    }
  } ]
}
