{
  "status": "OK",
  "results": [ {
    "types": [ "locality", "political" ],
    "formatted_address": "Elk Grove, CA, USA",
    "address_components": [ {
      "long_name": "Elk Grove",
      "short_name": "Elk Grove",
      "types": [ "locality", "political" ]
    }, {
      "long_name": "Sacramento",
      "short_name": "Sacramento",
      "types": [ "administrative_area_level_2", "political" ]
    }, {
      "long_name": "California",
      "short_name": "CA",
      "types": [ "administrative_area_level_1", "political" ]
    }, {
      "long_name": "United States",
      "short_name": "US",
      "types": [ "country", "political" ]
    } ],
    "geometry": {
      "location": {
        "lat": 38.4087993,
        "lng": -121.3716178
      },
      "location_type": "APPROXIMATE",
      "viewport": {
        "southwest": {
          "lat": 38.3388184,
          "lng": -121.4996772
        },
        "northeast": {
          "lat": 38.4787125,
          "lng": -121.2435584
        }
      },
      "bounds": {
        "southwest": {
          "lat": 38.3613680,
          "lng": -121.4883650
        },
        "northeast": {
          "lat": 38.4527010,
          "lng": -121.2690250
        }
      }
    }
  } ]
}
