{
  "status": "OK",
  "results": [ {
    "types": [ "locality", "political" ],
    "formatted_address": "Grass Valley, CA, USA",
    "address_components": [ {
      "long_name": "Grass Valley",
      "short_name": "Grass Valley",
      "types": [ "locality", "political" ]
    }, {
      "long_name": "Nevada",
      "short_name": "Nevada",
      "types": [ "administrative_area_level_2", "political" ]
    }, {
      "long_name": "California",
      "short_name": "CA",
      "types": [ "administrative_area_level_1", "political" ]
    }, {
      "long_name": "United States",
      "short_name": "US",
      "types": [ "country", "political" ]
    } ],
    "geometry": {
      "location": {
        "lat": 39.2190608,
        "lng": -121.0610606
      },
      "location_type": "APPROXIMATE",
      "viewport": {
        "southwest": {
          "lat": 39.2017697,
          "lng": -121.0930754
        },
        "northeast": {
          "lat": 39.2363476,
          "lng": -121.0290458
        }
      },
      "bounds": {
        "southwest": {
          "lat": 39.1935609,
          "lng": -121.0835970
        },
        "northeast": {
          "lat": 39.2440150,
          "lng": -121.0238110
        }
      }
    }
  } ]
}
