{
  "status": "OK",
  "results": [ {
    "types": [ "locality", "political" ],
    "formatted_address": "Guadalupe, CA, USA",
    "address_components": [ {
      "long_name": "Guadalupe",
      "short_name": "Guadalupe",
      "types": [ "locality", "political" ]
    }, {
      "long_name": "Santa Barbara",
      "short_name": "Santa Barbara",
      "types": [ "administrative_area_level_2", "political" ]
    }, {
      "long_name": "California",
      "short_name": "CA",
      "types": [ "administrative_area_level_1", "political" ]
    }, {
      "long_name": "United States",
      "short_name": "US",
      "types": [ "country", "political" ]
    } ],
    "geometry": {
      "location": {
        "lat": 34.9716440,
        "lng": -120.5718363
      },
      "location_type": "APPROXIMATE",
      "viewport": {
        "southwest": {
          "lat": 34.9533554,
          "lng": -120.6038511
        },
        "northeast": {
          "lat": 34.9899285,
          "lng": -120.5398215
        }
      },
      "bounds": {
        "southwest": {
          "lat": 34.9453199,
          "lng": -120.5913090
        },
        "northeast": {
          "lat": 34.9748710,
          "lng": -120.5577270
        }
      }
    }
  } ]
}
