{
  "status": "OK",
  "results": [ {
    "types": [ "locality", "political" ],
    "formatted_address": "Highland, CA, USA",
    "address_components": [ {
      "long_name": "Highland",
      "short_name": "Highland",
      "types": [ "locality", "political" ]
    }, {
      "long_name": "San Bernardino",
      "short_name": "San Bernardino",
      "types": [ "administrative_area_level_2", "political" ]
    }, {
      "long_name": "California",
      "short_name": "CA",
      "types": [ "administrative_area_level_1", "political" ]
    }, {
      "long_name": "United States",
      "short_name": "US",
      "types": [ "country", "political" ]
    } ],
    "geometry": {
      "location": {
        "lat": 34.1283442,
        "lng": -117.2086513
      },
      "location_type": "APPROXIMATE",
      "viewport": {
        "southwest": {
          "lat": 34.0544208,
          "lng": -117.3367107
        },
        "northeast": {
          "lat": 34.2022030,
          "lng": -117.0805919
        }
      },
      "bounds": {
        "southwest": {
          "lat": 34.0769090,
          "lng": -117.2610750
        },
        "northeast": {
          "lat": 34.1423000,
          "lng": -117.0630320
        }
      }
    }
  } ]
}
