{
  "status": "OK",
  "results": [ {
    "types": [ "locality", "political" ],
    "formatted_address": "King City, CA, USA",
    "address_components": [ {
      "long_name": "King City",
      "short_name": "King City",
      "types": [ "locality", "political" ]
    }, {
      "long_name": "Monterey",
      "short_name": "Monterey",
      "types": [ "administrative_area_level_2", "political" ]
    }, {
      "long_name": "California",
      "short_name": "CA",
      "types": [ "administrative_area_level_1", "political" ]
    }, {
      "long_name": "United States",
      "short_name": "US",
      "types": [ "country", "political" ]
    } ],
    "geometry": {
      "location": {
        "lat": 36.2127439,
        "lng": -121.1260287
      },
      "location_type": "APPROXIMATE",
      "viewport": {
        "southwest": {
          "lat": 36.1947367,
          "lng": -121.1580435
        },
        "northeast": {
          "lat": 36.2307470,
          "lng": -121.0940139
        }
      },
      "bounds": {
        "southwest": {
          "lat": 36.1923100,
          "lng": -121.1655500
        },
        "northeast": {
          "lat": 36.2393700,
          "lng": -121.1069650
        }
      }
    }
  } ]
}
