{
  "status": "OK",
  "results": [ {
    "types": [ "locality", "political" ],
    "formatted_address": "Kingsburg, CA, USA",
    "address_components": [ {
      "long_name": "Kingsburg",
      "short_name": "Kingsburg",
      "types": [ "locality", "political" ]
    }, {
      "long_name": "Fresno",
      "short_name": "Fresno",
      "types": [ "administrative_area_level_2", "political" ]
    }, {
      "long_name": "California",
      "short_name": "CA",
      "types": [ "administrative_area_level_1", "political" ]
    }, {
      "long_name": "United States",
      "short_name": "US",
      "types": [ "country", "political" ]
    } ],
    "geometry": {
      "location": {
        "lat": 36.5138398,
        "lng": -119.5540175
      },
      "location_type": "APPROXIMATE",
      "viewport": {
        "southwest": {
          "lat": 36.4959021,
          "lng": -119.5860323
        },
        "northeast": {
          "lat": 36.5317734,
          "lng": -119.5220027
        }
      },
      "bounds": {
        "southwest": {
          "lat": 36.5031500,
          "lng": -119.5789440
        },
        "northeast": {
          "lat": 36.5346339,
          "lng": -119.5386650
        }
      }
    }
  } ]
}
