{
  "status": "OK",
  "results": [ {
    "types": [ "locality", "political" ],
    "formatted_address": "La Canada Flintridge, CA, USA",
    "address_components": [ {
      "long_name": "La Canada Flintridge",
      "short_name": "La Canada Flintridge",
      "types": [ "locality", "political" ]
    }, {
      "long_name": "Los Angeles",
      "short_name": "Los Angeles",
      "types": [ "administrative_area_level_2", "political" ]
    }, {
      "long_name": "California",
      "short_name": "CA",
      "types": [ "administrative_area_level_1", "political" ]
    }, {
      "long_name": "United States",
      "short_name": "US",
      "types": [ "country", "political" ]
    } ],
    "geometry": {
      "location": {
        "lat": 34.2105500,
        "lng": -118.2004410
      },
      "location_type": "APPROXIMATE",
      "viewport": {
        "southwest": {
          "lat": 34.1920932,
          "lng": -118.2324558
        },
        "northeast": {
          "lat": 34.2290028,
          "lng": -118.1684262
        }
      },
      "bounds": {
        "southwest": {
          "lat": 34.1781359,
          "lng": -118.2320350
        },
        "northeast": {
          "lat": 34.2432380,
          "lng": -118.1689050
        }
      }
    }
  } ]
}
