{
  "status": "OK",
  "results": [ {
    "types": [ "locality", "political" ],
    "formatted_address": "La Habra Heights, CA, USA",
    "address_components": [ {
      "long_name": "La Habra Heights",
      "short_name": "La Habra Heights",
      "types": [ "locality", "political" ]
    }, {
      "long_name": "Los Angeles",
      "short_name": "Los Angeles",
      "types": [ "administrative_area_level_2", "political" ]
    }, {
      "long_name": "California",
      "short_name": "CA",
      "types": [ "administrative_area_level_1", "political" ]
    }, {
      "long_name": "United States",
      "short_name": "US",
      "types": [ "country", "political" ]
    } ],
    "geometry": {
      "location": {
        "lat": 33.9608461,
        "lng": -117.9506186
      },
      "location_type": "APPROXIMATE",
      "viewport": {
        "southwest": {
          "lat": 33.9423348,
          "lng": -117.9826334
        },
        "northeast": {
          "lat": 33.9793534,
          "lng": -117.9186038
        }
      },
      "bounds": {
        "southwest": {
          "lat": 33.9456289,
          "lng": -117.9929970
        },
        "northeast": {
          "lat": 33.9764760,
          "lng": -117.9180790
        }
      }
    }
  } ]
}
