{
  "status": "OK",
  "results": [ {
    "types": [ "locality", "political" ],
    "formatted_address": "La Verne, CA, USA",
    "address_components": [ {
      "long_name": "La Verne",
      "short_name": "La Verne",
      "types": [ "locality", "political" ]
    }, {
      "long_name": "Los Angeles",
      "short_name": "Los Angeles",
      "types": [ "administrative_area_level_2", "political" ]
    }, {
      "long_name": "California",
      "short_name": "CA",
      "types": [ "administrative_area_level_1", "political" ]
    }, {
      "long_name": "United States",
      "short_name": "US",
      "types": [ "country", "political" ]
    } ],
    "geometry": {
      "location": {
        "lat": 34.1008426,
        "lng": -117.7678355
      },
      "location_type": "APPROXIMATE",
      "viewport": {
        "southwest": {
          "lat": 34.0638769,
          "lng": -117.8318652
        },
        "northeast": {
          "lat": 34.1377921,
          "lng": -117.7038058
        }
      },
      "bounds": {
        "southwest": {
          "lat": 34.0861660,
          "lng": -117.8013920
        },
        "northeast": {
          "lat": 34.1636020,
          "lng": -117.7476670
        }
      }
    }
  } ]
}
