{
  "status": "OK",
  "results": [ {
    "types": [ "locality", "political" ],
    "formatted_address": "Lincoln, CA, USA",
    "address_components": [ {
      "long_name": "Lincoln",
      "short_name": "Lincoln",
      "types": [ "locality", "political" ]
    }, {
      "long_name": "Placer",
      "short_name": "Placer",
      "types": [ "administrative_area_level_2", "political" ]
    }, {
      "long_name": "California",
      "short_name": "CA",
      "types": [ "administrative_area_level_1", "political" ]
    }, {
      "long_name": "United States",
      "short_name": "US",
      "types": [ "country", "political" ]
    } ],
    "geometry": {
      "location": {
        "lat": 38.8915650,
        "lng": -121.2930079
      },
      "location_type": "APPROXIMATE",
      "viewport": {
        "southwest": {
          "lat": 38.8568179,
          "lng": -121.3570376
        },
        "northeast": {
          "lat": 38.9262951,
          "lng": -121.2289782
        }
      },
      "bounds": {
        "southwest": {
          "lat": 38.8391800,
          "lng": -121.3585050
        },
        "northeast": {
          "lat": 38.9263289,
          "lng": -121.2282290
        }
      }
    }
  } ]
}
