{
  "status": "OK",
  "results": [ {
    "types": [ "locality", "political" ],
    "formatted_address": "Livingston, CA, USA",
    "address_components": [ {
      "long_name": "Livingston",
      "short_name": "Livingston",
      "types": [ "locality", "political" ]
    }, {
      "long_name": "Merced",
      "short_name": "Merced",
      "types": [ "administrative_area_level_2", "political" ]
    }, {
      "long_name": "California",
      "short_name": "CA",
      "types": [ "administrative_area_level_1", "political" ]
    }, {
      "long_name": "United States",
      "short_name": "US",
      "types": [ "country", "political" ]
    } ],
    "geometry": {
      "location": {
        "lat": 37.3868826,
        "lng": -120.7235329
      },
      "location_type": "APPROXIMATE",
      "viewport": {
        "southwest": {
          "lat": 37.3691493,
          "lng": -120.7555477
        },
        "northeast": {
          "lat": 37.4046117,
          "lng": -120.6915181
        }
      },
      "bounds": {
        "southwest": {
          "lat": 37.3712620,
          "lng": -120.7601700
        },
        "northeast": {
          "lat": 37.4081590,
          "lng": -120.7004040
        }
      }
    }
  } ]
}
