{
  "status": "OK",
  "results": [ {
    "types": [ "locality", "political" ],
    "formatted_address": "Los Banos, CA, USA",
    "address_components": [ {
      "long_name": "Los Banos",
      "short_name": "Los Banos",
      "types": [ "locality", "political" ]
    }, {
      "long_name": "Merced",
      "short_name": "Merced",
      "types": [ "administrative_area_level_2", "political" ]
    }, {
      "long_name": "California",
      "short_name": "CA",
      "types": [ "administrative_area_level_1", "political" ]
    }, {
      "long_name": "United States",
      "short_name": "US",
      "types": [ "country", "political" ]
    } ],
    "geometry": {
      "location": {
        "lat": 37.0582786,
        "lng": -120.8499151
      },
      "location_type": "APPROXIMATE",
      "viewport": {
        "southwest": {
          "lat": 37.0226529,
          "lng": -120.9139448
        },
        "northeast": {
          "lat": 37.0938876,
          "lng": -120.7858854
        }
      },
      "bounds": {
        "southwest": {
          "lat": 37.0416370,
          "lng": -120.8931120
        },
        "northeast": {
          "lat": 37.0894879,
          "lng": -120.7869880
        }
      }
    }
  } ]
}
