{
  "status": "OK",
  "results": [ {
    "types": [ "locality", "political" ],
    "formatted_address": "Lynwood, CA, USA",
    "address_components": [ {
      "long_name": "Lynwood",
      "short_name": "Lynwood",
      "types": [ "locality", "political" ]
    }, {
      "long_name": "Los Angeles",
      "short_name": "Los Angeles",
      "types": [ "administrative_area_level_2", "political" ]
    }, {
      "long_name": "California",
      "short_name": "CA",
      "types": [ "administrative_area_level_1", "political" ]
    }, {
      "long_name": "United States",
      "short_name": "US",
      "types": [ "country", "political" ]
    } ],
    "geometry": {
      "location": {
        "lat": 33.9302930,
        "lng": -118.2114603
      },
      "location_type": "APPROXIMATE",
      "viewport": {
        "southwest": {
          "lat": 33.9117750,
          "lng": -118.2434751
        },
        "northeast": {
          "lat": 33.9488069,
          "lng": -118.1794455
        }
      },
      "bounds": {
        "southwest": {
          "lat": 33.9049860,
          "lng": -118.2303240
        },
        "northeast": {
          "lat": 33.9454409,
          "lng": -118.1769110
        }
      }
    }
  } ]
}
