{
  "status": "OK",
  "results": [ {
    "types": [ "locality", "political" ],
    "formatted_address": "Maywood, CA, USA",
    "address_components": [ {
      "long_name": "Maywood",
      "short_name": "Maywood",
      "types": [ "locality", "political" ]
    }, {
      "long_name": "Los Angeles",
      "short_name": "Los Angeles",
      "types": [ "administrative_area_level_2", "political" ]
    }, {
      "long_name": "California",
      "short_name": "CA",
      "types": [ "administrative_area_level_1", "political" ]
    }, {
      "long_name": "United States",
      "short_name": "US",
      "types": [ "country", "political" ]
    } ],
    "geometry": {
      "location": {
        "lat": 33.9866807,
        "lng": -118.1853490
      },
      "location_type": "APPROXIMATE",
      "viewport": {
        "southwest": {
          "lat": 33.9774284,
          "lng": -118.2013564
        },
        "northeast": {
          "lat": 33.9959320,
          "lng": -118.1693416
        }
      },
      "bounds": {
        "southwest": {
          "lat": 33.9800080,
          "lng": -118.2045130
        },
        "northeast": {
          "lat": 33.9966700,
          "lng": -118.1699450
        }
      }
    }
  } ]
}
