{
  "status": "OK",
  "results": [ {
    "types": [ "locality", "political" ],
    "formatted_address": "Millbrae, CA, USA",
    "address_components": [ {
      "long_name": "Millbrae",
      "short_name": "Millbrae",
      "types": [ "locality", "political" ]
    }, {
      "long_name": "San Mateo",
      "short_name": "San Mateo",
      "types": [ "administrative_area_level_2", "political" ]
    }, {
      "long_name": "California",
      "short_name": "CA",
      "types": [ "administrative_area_level_1", "political" ]
    }, {
      "long_name": "United States",
      "short_name": "US",
      "types": [ "country", "political" ]
    } ],
    "geometry": {
      "location": {
        "lat": 37.5985468,
        "lng": -122.3871942
      },
      "location_type": "APPROXIMATE",
      "viewport": {
        "southwest": {
          "lat": 37.5808636,
          "lng": -122.4192090
        },
        "northeast": {
          "lat": 37.6162258,
          "lng": -122.3551794
        }
      },
      "bounds": {
        "southwest": {
          "lat": 37.5819750,
          "lng": -122.4250840
        },
        "northeast": {
          "lat": 37.6151349,
          "lng": -122.3743820
        }
      }
    }
  } ]
}
