{
  "status": "OK",
  "results": [ {
    "types": [ "locality", "political" ],
    "formatted_address": "Mission Viejo, CA, USA",
    "address_components": [ {
      "long_name": "Mission Viejo",
      "short_name": "Mission Viejo",
      "types": [ "locality", "political" ]
    }, {
      "long_name": "Orange",
      "short_name": "Orange",
      "types": [ "administrative_area_level_2", "political" ]
    }, {
      "long_name": "California",
      "short_name": "CA",
      "types": [ "administrative_area_level_1", "political" ]
    }, {
      "long_name": "United States",
      "short_name": "US",
      "types": [ "country", "political" ]
    } ],
    "geometry": {
      "location": {
        "lat": 33.6000232,
        "lng": -117.6719953
      },
      "location_type": "APPROXIMATE",
      "viewport": {
        "southwest": {
          "lat": 33.5628403,
          "lng": -117.7360250
        },
        "northeast": {
          "lat": 33.6371901,
          "lng": -117.6079656
        }
      },
      "bounds": {
        "southwest": {
          "lat": 33.5349150,
          "lng": -117.6952520
        },
        "northeast": {
          "lat": 33.6735000,
          "lng": -117.6194850
        }
      }
    }
  } ]
}
