{
  "status": "OK",
  "results": [ {
    "types": [ "locality", "political" ],
    "formatted_address": "Monterey Park, CA, USA",
    "address_components": [ {
      "long_name": "Monterey Park",
      "short_name": "Monterey Park",
      "types": [ "locality", "political" ]
    }, {
      "long_name": "Los Angeles",
      "short_name": "Los Angeles",
      "types": [ "administrative_area_level_2", "political" ]
    }, {
      "long_name": "California",
      "short_name": "CA",
      "types": [ "administrative_area_level_1", "political" ]
    }, {
      "long_name": "United States",
      "short_name": "US",
      "types": [ "country", "political" ]
    } ],
    "geometry": {
      "location": {
        "lat": 34.0625106,
        "lng": -118.1228476
      },
      "location_type": "APPROXIMATE",
      "viewport": {
        "southwest": {
          "lat": 34.0255282,
          "lng": -118.1868773
        },
        "northeast": {
          "lat": 34.0994769,
          "lng": -118.0588179
        }
      },
      "bounds": {
        "southwest": {
          "lat": 34.0271810,
          "lng": -118.1698490
        },
        "northeast": {
          "lat": 34.0716750,
          "lng": -118.0936350
        }
      }
    }
  } ]
}
