{
  "status": "OK",
  "results": [ {
    "types": [ "locality", "political" ],
    "formatted_address": "National City, CA, USA",
    "address_components": [ {
      "long_name": "National City",
      "short_name": "National City",
      "types": [ "locality", "political" ]
    }, {
      "long_name": "San Diego",
      "short_name": "San Diego",
      "types": [ "administrative_area_level_2", "political" ]
    }, {
      "long_name": "California",
      "short_name": "CA",
      "types": [ "administrative_area_level_1", "political" ]
    }, {
      "long_name": "United States",
      "short_name": "US",
      "types": [ "country", "political" ]
    } ],
    "geometry": {
      "location": {
        "lat": 32.6781085,
        "lng": -117.0991967
      },
      "location_type": "APPROXIMATE",
      "viewport": {
        "southwest": {
          "lat": 32.6405331,
          "lng": -117.1632264
        },
        "northeast": {
          "lat": 32.7156681,
          "lng": -117.0351670
        }
      },
      "bounds": {
        "southwest": {
          "lat": 32.6029539,
          "lng": -117.1359640
        },
        "northeast": {
          "lat": 32.6932909,
          "lng": -117.0492780
        }
      }
    }
  } ]
}
