{
  "status": "OK",
  "results": [ {
    "types": [ "locality", "political" ],
    "formatted_address": "Norco, CA, USA",
    "address_components": [ {
      "long_name": "Norco",
      "short_name": "Norco",
      "types": [ "locality", "political" ]
    }, {
      "long_name": "Riverside",
      "short_name": "Riverside",
      "types": [ "administrative_area_level_2", "political" ]
    }, {
      "long_name": "California",
      "short_name": "CA",
      "types": [ "administrative_area_level_1", "political" ]
    }, {
      "long_name": "United States",
      "short_name": "US",
      "types": [ "country", "political" ]
    } ],
    "geometry": {
      "location": {
        "lat": 33.9311257,
        "lng": -117.5486610
      },
      "location_type": "APPROXIMATE",
      "viewport": {
        "southwest": {
          "lat": 33.8940861,
          "lng": -117.6126907
        },
        "northeast": {
          "lat": 33.9681492,
          "lng": -117.4846313
        }
      },
      "bounds": {
        "southwest": {
          "lat": 33.8940149,
          "lng": -117.6085010
        },
        "northeast": {
          "lat": 33.9617150,
          "lng": -117.5116930
        }
      }
    }
  } ]
}
