{
  "status": "OK",
  "results": [ {
    "types": [ "locality", "political" ],
    "formatted_address": "Novato, CA, USA",
    "address_components": [ {
      "long_name": "Novato",
      "short_name": "Novato",
      "types": [ "locality", "political" ]
    }, {
      "long_name": "Marin",
      "short_name": "Marin",
      "types": [ "administrative_area_level_2", "political" ]
    }, {
      "long_name": "California",
      "short_name": "CA",
      "types": [ "administrative_area_level_1", "political" ]
    }, {
      "long_name": "United States",
      "short_name": "US",
      "types": [ "country", "political" ]
    } ],
    "geometry": {
      "location": {
        "lat": 38.1074198,
        "lng": -122.5697032
      },
      "location_type": "APPROXIMATE",
      "viewport": {
        "southwest": {
          "lat": 38.0722925,
          "lng": -122.6337329
        },
        "northeast": {
          "lat": 38.1425302,
          "lng": -122.5056735
        }
      },
      "bounds": {
        "southwest": {
          "lat": 38.0393569,
          "lng": -122.6235770
        },
        "northeast": {
          "lat": 38.1478190,
          "lng": -122.4812870
        }
      }
    }
  } ]
}
