{
  "status": "OK",
  "results": [ {
    "types": [ "locality", "political" ],
    "formatted_address": "Pacific Grove, CA, USA",
    "address_components": [ {
      "long_name": "Pacific Grove",
      "short_name": "Pacific Grove",
      "types": [ "locality", "political" ]
    }, {
      "long_name": "Monterey",
      "short_name": "Monterey",
      "types": [ "administrative_area_level_2", "political" ]
    }, {
      "long_name": "California",
      "short_name": "CA",
      "types": [ "administrative_area_level_1", "political" ]
    }, {
      "long_name": "United States",
      "short_name": "US",
      "types": [ "country", "political" ]
    } ],
    "geometry": {
      "location": {
        "lat": 36.6177374,
        "lng": -121.9166215
      },
      "location_type": "APPROXIMATE",
      "viewport": {
        "southwest": {
          "lat": 36.5998238,
          "lng": -121.9486363
        },
        "northeast": {
          "lat": 36.6356469,
          "lng": -121.8846067
        }
      },
      "bounds": {
        "southwest": {
          "lat": 36.5978060,
          "lng": -121.9481240
        },
        "northeast": {
          "lat": 36.6426590,
          "lng": -121.9008650
        }
      }
    }
  } ]
}
