{
  "status": "OK",
  "results": [ {
    "types": [ "locality", "political" ],
    "formatted_address": "Pomona, CA, USA",
    "address_components": [ {
      "long_name": "Pomona",
      "short_name": "Pomona",
      "types": [ "locality", "political" ]
    }, {
      "long_name": "Los Angeles",
      "short_name": "Los Angeles",
      "types": [ "administrative_area_level_2", "political" ]
    }, {
      "long_name": "California",
      "short_name": "CA",
      "types": [ "administrative_area_level_1", "political" ]
    }, {
      "long_name": "United States",
      "short_name": "US",
      "types": [ "country", "political" ]
    } ],
    "geometry": {
      "location": {
        "lat": 34.0607600,
        "lng": -117.7558860
      },
      "location_type": "APPROXIMATE",
      "viewport": {
        "southwest": {
          "lat": 34.0237769,
          "lng": -117.8199157
        },
        "northeast": {
          "lat": 34.0977270,
          "lng": -117.6918563
        }
      },
      "bounds": {
        "southwest": {
          "lat": 34.0185120,
          "lng": -117.8288170
        },
        "northeast": {
          "lat": 34.1129360,
          "lng": -117.7110670
        }
      }
    }
  } ]
}
