{
  "status": "OK",
  "results": [ {
    "types": [ "locality", "political" ],
    "formatted_address": "Reedley, CA, USA",
    "address_components": [ {
      "long_name": "Reedley",
      "short_name": "Reedley",
      "types": [ "locality", "political" ]
    }, {
      "long_name": "Fresno",
      "short_name": "Fresno",
      "types": [ "administrative_area_level_2", "political" ]
    }, {
      "long_name": "California",
      "short_name": "CA",
      "types": [ "administrative_area_level_1", "political" ]
    }, {
      "long_name": "United States",
      "short_name": "US",
      "types": [ "country", "political" ]
    } ],
    "geometry": {
      "location": {
        "lat": 36.5963395,
        "lng": -119.4504029
      },
      "location_type": "APPROXIMATE",
      "viewport": {
        "southwest": {
          "lat": 36.5604982,
          "lng": -119.5144326
        },
        "northeast": {
          "lat": 36.6321642,
          "lng": -119.3863732
        }
      },
      "bounds": {
        "southwest": {
          "lat": 36.5748690,
          "lng": -119.4699850
        },
        "northeast": {
          "lat": 36.6767500,
          "lng": -119.4220760
        }
      }
    }
  } ]
}
