{
  "status": "OK",
  "results": [ {
    "types": [ "locality", "political" ],
    "formatted_address": "Ripon, CA, USA",
    "address_components": [ {
      "long_name": "Ripon",
      "short_name": "Ripon",
      "types": [ "locality", "political" ]
    }, {
      "long_name": "San Joaquin",
      "short_name": "San Joaquin",
      "types": [ "administrative_area_level_2", "political" ]
    }, {
      "long_name": "California",
      "short_name": "CA",
      "types": [ "administrative_area_level_1", "political" ]
    }, {
      "long_name": "United States",
      "short_name": "US",
      "types": [ "country", "political" ]
    } ],
    "geometry": {
      "location": {
        "lat": 37.7415949,
        "lng": -121.1243828
      },
      "location_type": "APPROXIMATE",
      "viewport": {
        "southwest": {
          "lat": 37.7239458,
          "lng": -121.1563976
        },
        "northeast": {
          "lat": 37.7592398,
          "lng": -121.0923680
        }
      },
      "bounds": {
        "southwest": {
          "lat": 37.7175900,
          "lng": -121.1512700
        },
        "northeast": {
          "lat": 37.7686620,
          "lng": -121.0984740
        }
      }
    }
  } ]
}
