{
  "status": "OK",
  "results": [ {
    "types": [ "locality", "political" ],
    "formatted_address": "Riverbank, CA, USA",
    "address_components": [ {
      "long_name": "Riverbank",
      "short_name": "Riverbank",
      "types": [ "locality", "political" ]
    }, {
      "long_name": "Stanislaus",
      "short_name": "Stanislaus",
      "types": [ "administrative_area_level_2", "political" ]
    }, {
      "long_name": "California",
      "short_name": "CA",
      "types": [ "administrative_area_level_1", "political" ]
    }, {
      "long_name": "United States",
      "short_name": "US",
      "types": [ "country", "political" ]
    } ],
    "geometry": {
      "location": {
        "lat": 37.7360396,
        "lng": -120.9354895
      },
      "location_type": "APPROXIMATE",
      "viewport": {
        "southwest": {
          "lat": 37.7183892,
          "lng": -120.9675043
        },
        "northeast": {
          "lat": 37.7536858,
          "lng": -120.9034747
        }
      },
      "bounds": {
        "southwest": {
          "lat": 37.7103780,
          "lng": -120.9700980
        },
        "northeast": {
          "lat": 37.7422940,
          "lng": -120.9130190
        }
      }
    }
  } ]
}
