{
  "status": "OK",
  "results": [ {
    "types": [ "locality", "political" ],
    "formatted_address": "Rocklin, CA, USA",
    "address_components": [ {
      "long_name": "Rocklin",
      "short_name": "Rocklin",
      "types": [ "locality", "political" ]
    }, {
      "long_name": "Placer",
      "short_name": "Placer",
      "types": [ "administrative_area_level_2", "political" ]
    }, {
      "long_name": "California",
      "short_name": "CA",
      "types": [ "administrative_area_level_1", "political" ]
    }, {
      "long_name": "United States",
      "short_name": "US",
      "types": [ "country", "political" ]
    } ],
    "geometry": {
      "location": {
        "lat": 38.7907339,
        "lng": -121.2357828
      },
      "location_type": "APPROXIMATE",
      "viewport": {
        "southwest": {
          "lat": 38.7559375,
          "lng": -121.2998125
        },
        "northeast": {
          "lat": 38.8255133,
          "lng": -121.1717531
        }
      },
      "bounds": {
        "southwest": {
          "lat": 38.7711910,
          "lng": -121.3015910
        },
        "northeast": {
          "lat": 38.8526029,
          "lng": -121.1887220
        }
      }
    }
  } ]
}
