{
  "status": "OK",
  "results": [ {
    "types": [ "locality", "political" ],
    "formatted_address": "San Rafael, CA, USA",
    "address_components": [ {
      "long_name": "San Rafael",
      "short_name": "San Rafael",
      "types": [ "locality", "political" ]
    }, {
      "long_name": "Marin",
      "short_name": "Marin",
      "types": [ "administrative_area_level_2", "political" ]
    }, {
      "long_name": "California",
      "short_name": "CA",
      "types": [ "administrative_area_level_1", "political" ]
    }, {
      "long_name": "United States",
      "short_name": "US",
      "types": [ "country", "political" ]
    } ],
    "geometry": {
      "location": {
        "lat": 37.9735346,
        "lng": -122.5310874
      },
      "location_type": "APPROXIMATE",
      "viewport": {
        "southwest": {
          "lat": 37.9383430,
          "lng": -122.5951171
        },
        "northeast": {
          "lat": 38.0087093,
          "lng": -122.4670577
        }
      },
      "bounds": {
        "southwest": {
          "lat": 37.9368240,
          "lng": -122.5923520
        },
        "northeast": {
          "lat": 38.0278209,
          "lng": -122.4349830
        }
      }
    }
  } ]
}
