{
  "status": "OK",
  "results": [ {
    "types": [ "locality", "political" ],
    "formatted_address": "San Marcos, CA, USA",
    "address_components": [ {
      "long_name": "San Marcos",
      "short_name": "San Marcos",
      "types": [ "locality", "political" ]
    }, {
      "long_name": "San Diego",
      "short_name": "San Diego",
      "types": [ "administrative_area_level_2", "political" ]
    }, {
      "long_name": "California",
      "short_name": "CA",
      "types": [ "administrative_area_level_1", "political" ]
    }, {
      "long_name": "United States",
      "short_name": "US",
      "types": [ "country", "political" ]
    } ],
    "geometry": {
      "location": {
        "lat": 33.1433723,
        "lng": -117.1661449
      },
      "location_type": "APPROXIMATE",
      "viewport": {
        "southwest": {
          "lat": 33.1059938,
          "lng": -117.2301746
        },
        "northeast": {
          "lat": 33.1807349,
          "lng": -117.1021152
        }
      },
      "bounds": {
        "southwest": {
          "lat": 33.0805520,
          "lng": -117.2301680
        },
        "northeast": {
          "lat": 33.1883380,
          "lng": -117.1104480
        }
      }
    }
  } ]
}
