{
  "status": "OK",
  "results": [ {
    "types": [ "locality", "political" ],
    "formatted_address": "San Clemente, CA, USA",
    "address_components": [ {
      "long_name": "San Clemente",
      "short_name": "San Clemente",
      "types": [ "locality", "political" ]
    }, {
      "long_name": "Orange",
      "short_name": "Orange",
      "types": [ "administrative_area_level_2", "political" ]
    }, {
      "long_name": "California",
      "short_name": "CA",
      "types": [ "administrative_area_level_1", "political" ]
    }, {
      "long_name": "United States",
      "short_name": "US",
      "types": [ "country", "political" ]
    } ],
    "geometry": {
      "location": {
        "lat": 33.4269728,
        "lng": -117.6119925
      },
      "location_type": "APPROXIMATE",
      "viewport": {
        "southwest": {
          "lat": 33.3897155,
          "lng": -117.6760222
        },
        "northeast": {
          "lat": 33.4642141,
          "lng": -117.5479628
        }
      },
      "bounds": {
        "southwest": {
          "lat": 33.3836290,
          "lng": -117.6663840
        },
        "northeast": {
          "lat": 33.4868270,
          "lng": -117.5704030
        }
      }
    }
  } ]
}
