{
  "status": "OK",
  "results": [ {
    "types": [ "locality", "political" ],
    "formatted_address": "Sanger, CA, USA",
    "address_components": [ {
      "long_name": "Sanger",
      "short_name": "Sanger",
      "types": [ "locality", "political" ]
    }, {
      "long_name": "Fresno",
      "short_name": "Fresno",
      "types": [ "administrative_area_level_2", "political" ]
    }, {
      "long_name": "California",
      "short_name": "CA",
      "types": [ "administrative_area_level_1", "political" ]
    }, {
      "long_name": "United States",
      "short_name": "US",
      "types": [ "country", "political" ]
    } ],
    "geometry": {
      "location": {
        "lat": 36.7080060,
        "lng": -119.5559652
      },
      "location_type": "APPROXIMATE",
      "viewport": {
        "southwest": {
          "lat": 36.6901134,
          "lng": -119.5879800
        },
        "northeast": {
          "lat": 36.7258945,
          "lng": -119.5239504
        }
      },
      "bounds": {
        "southwest": {
          "lat": 36.6772650,
          "lng": -119.5832570
        },
        "northeast": {
          "lat": 36.7212500,
          "lng": -119.5274930
        }
      }
    }
  } ]
}
