{
  "status": "OK",
  "results": [ {
    "types": [ "locality", "political" ],
    "formatted_address": "Santee, CA, USA",
    "address_components": [ {
      "long_name": "Santee",
      "short_name": "Santee",
      "types": [ "locality", "political" ]
    }, {
      "long_name": "San Diego",
      "short_name": "San Diego",
      "types": [ "administrative_area_level_2", "political" ]
    }, {
      "long_name": "California",
      "short_name": "CA",
      "types": [ "administrative_area_level_1", "political" ]
    }, {
      "long_name": "United States",
      "short_name": "US",
      "types": [ "country", "political" ]
    } ],
    "geometry": {
      "location": {
        "lat": 32.8383828,
        "lng": -116.9739167
      },
      "location_type": "APPROXIMATE",
      "viewport": {
        "southwest": {
          "lat": 32.8008750,
          "lng": -117.0379464
        },
        "northeast": {
          "lat": 32.8758748,
          "lng": -116.9098870
        }
      },
      "bounds": {
        "southwest": {
          "lat": 32.8149910,
          "lng": -117.0384470
        },
        "northeast": {
          "lat": 32.9034739,
          "lng": -116.9380790
        }
      }
    }
  } ]
}
