{
  "status": "OK",
  "results": [ {
    "types": [ "locality", "political" ],
    "formatted_address": "Santa Clarita, CA, USA",
    "address_components": [ {
      "long_name": "Santa Clarita",
      "short_name": "Santa Clarita",
      "types": [ "locality", "political" ]
    }, {
      "long_name": "Los Angeles",
      "short_name": "Los Angeles",
      "types": [ "administrative_area_level_2", "political" ]
    }, {
      "long_name": "California",
      "short_name": "CA",
      "types": [ "administrative_area_level_1", "political" ]
    }, {
      "long_name": "United States",
      "short_name": "US",
      "types": [ "country", "political" ]
    } ],
    "geometry": {
      "location": {
        "lat": 34.3916641,
        "lng": -118.5425860
      },
      "location_type": "APPROXIMATE",
      "viewport": {
        "southwest": {
          "lat": 34.3179715,
          "lng": -118.6706454
        },
        "northeast": {
          "lat": 34.4652919,
          "lng": -118.4145266
        }
      },
      "bounds": {
        "southwest": {
          "lat": 34.3404979,
          "lng": -118.6131920
        },
        "northeast": {
          "lat": 34.4772130,
          "lng": -118.3760710
        }
      }
    }
  } ]
}
