{
  "status": "OK",
  "results": [ {
    "types": [ "locality", "political" ],
    "formatted_address": "Saratoga, CA, USA",
    "address_components": [ {
      "long_name": "Saratoga",
      "short_name": "Saratoga",
      "types": [ "locality", "political" ]
    }, {
      "long_name": "Santa Clara",
      "short_name": "Santa Clara",
      "types": [ "administrative_area_level_2", "political" ]
    }, {
      "long_name": "California",
      "short_name": "CA",
      "types": [ "administrative_area_level_1", "political" ]
    }, {
      "long_name": "United States",
      "short_name": "US",
      "types": [ "country", "political" ]
    } ],
    "geometry": {
      "location": {
        "lat": 37.2638324,
        "lng": -122.0230146
      },
      "location_type": "APPROXIMATE",
      "viewport": {
        "southwest": {
          "lat": 37.2283034,
          "lng": -122.0870443
        },
        "northeast": {
          "lat": 37.2993446,
          "lng": -121.9589849
        }
      },
      "bounds": {
        "southwest": {
          "lat": 37.2360150,
          "lng": -122.0676960
        },
        "northeast": {
          "lat": 37.2963419,
          "lng": -121.9893690
        }
      }
    }
  } ]
}
