{
  "status": "OK",
  "results": [ {
    "types": [ "locality", "political" ],
    "formatted_address": "Sierra Madre, CA, USA",
    "address_components": [ {
      "long_name": "Sierra Madre",
      "short_name": "Sierra Madre",
      "types": [ "locality", "political" ]
    }, {
      "long_name": "Los Angeles",
      "short_name": "Los Angeles",
      "types": [ "administrative_area_level_2", "political" ]
    }, {
      "long_name": "California",
      "short_name": "CA",
      "types": [ "administrative_area_level_1", "political" ]
    }, {
      "long_name": "United States",
      "short_name": "US",
      "types": [ "country", "political" ]
    } ],
    "geometry": {
      "location": {
        "lat": 34.1616729,
        "lng": -118.0528456
      },
      "location_type": "APPROXIMATE",
      "viewport": {
        "southwest": {
          "lat": 34.1524396,
          "lng": -118.0688530
        },
        "northeast": {
          "lat": 34.1709051,
          "lng": -118.0368382
        }
      },
      "bounds": {
        "southwest": {
          "lat": 34.1568210,
          "lng": -118.0682050
        },
        "northeast": {
          "lat": 34.1794050,
          "lng": -118.0294730
        }
      }
    }
  } ]
}
