{
  "status": "OK",
  "results": [ {
    "types": [ "locality", "political" ],
    "formatted_address": "Stockton, CA, USA",
    "address_components": [ {
      "long_name": "Stockton",
      "short_name": "Stockton",
      "types": [ "locality", "political" ]
    }, {
      "long_name": "San Joaquin",
      "short_name": "San Joaquin",
      "types": [ "administrative_area_level_2", "political" ]
    }, {
      "long_name": "California",
      "short_name": "CA",
      "types": [ "administrative_area_level_1", "political" ]
    }, {
      "long_name": "United States",
      "short_name": "US",
      "types": [ "country", "political" ]
    } ],
    "geometry": {
      "location": {
        "lat": 37.9577016,
        "lng": -121.2907796
      },
      "location_type": "APPROXIMATE",
      "viewport": {
        "southwest": {
          "lat": 37.8872864,
          "lng": -121.4188390
        },
        "northeast": {
          "lat": 38.0280493,
          "lng": -121.1627202
        }
      },
      "bounds": {
        "southwest": {
          "lat": 37.8877470,
          "lng": -121.4197360
        },
        "northeast": {
          "lat": 38.0583000,
          "lng": -121.1840190
        }
      }
    }
  } ]
}
