{
  "status": "OK",
  "results": [ {
    "types": [ "locality", "political" ],
    "formatted_address": "Temecula, CA, USA",
    "address_components": [ {
      "long_name": "Temecula",
      "short_name": "Temecula",
      "types": [ "locality", "political" ]
    }, {
      "long_name": "Riverside",
      "short_name": "Riverside",
      "types": [ "administrative_area_level_2", "political" ]
    }, {
      "long_name": "California",
      "short_name": "CA",
      "types": [ "administrative_area_level_1", "political" ]
    }, {
      "long_name": "United States",
      "short_name": "US",
      "types": [ "country", "political" ]
    } ],
    "geometry": {
      "location": {
        "lat": 33.4936391,
        "lng": -117.1483648
      },
      "location_type": "APPROXIMATE",
      "viewport": {
        "southwest": {
          "lat": 33.4564104,
          "lng": -117.2123945
        },
        "northeast": {
          "lat": 33.5308518,
          "lng": -117.0843351
        }
      },
      "bounds": {
        "southwest": {
          "lat": 33.4479290,
          "lng": -117.1902670
        },
        "northeast": {
          "lat": 33.5548129,
          "lng": -117.0542220
        }
      }
    }
  } ]
}
