{
  "status": "OK",
  "results": [ {
    "types": [ "locality", "political" ],
    "formatted_address": "Temple City, CA, USA",
    "address_components": [ {
      "long_name": "Temple City",
      "short_name": "Temple City",
      "types": [ "locality", "political" ]
    }, {
      "long_name": "Los Angeles",
      "short_name": "Los Angeles",
      "types": [ "administrative_area_level_2", "political" ]
    }, {
      "long_name": "California",
      "short_name": "CA",
      "types": [ "administrative_area_level_1", "political" ]
    }, {
      "long_name": "United States",
      "short_name": "US",
      "types": [ "country", "political" ]
    } ],
    "geometry": {
      "location": {
        "lat": 34.1072305,
        "lng": -118.0578456
      },
      "location_type": "APPROXIMATE",
      "viewport": {
        "southwest": {
          "lat": 34.0887511,
          "lng": -118.0898604
        },
        "northeast": {
          "lat": 34.1257059,
          "lng": -118.0258308
        }
      },
      "bounds": {
        "southwest": {
          "lat": 34.0853589,
          "lng": -118.0813780
        },
        "northeast": {
          "lat": 34.1209960,
          "lng": -118.0283520
        }
      }
    }
  } ]
}
