{
  "status": "OK",
  "results": [ {
    "types": [ "locality", "political" ],
    "formatted_address": "Ukiah, CA, USA",
    "address_components": [ {
      "long_name": "Ukiah",
      "short_name": "Ukiah",
      "types": [ "locality", "political" ]
    }, {
      "long_name": "Mendocino",
      "short_name": "Mendocino",
      "types": [ "administrative_area_level_2", "political" ]
    }, {
      "long_name": "California",
      "short_name": "CA",
      "types": [ "administrative_area_level_1", "political" ]
    }, {
      "long_name": "United States",
      "short_name": "US",
      "types": [ "country", "political" ]
    } ],
    "geometry": {
      "location": {
        "lat": 39.1501709,
        "lng": -123.2077831
      },
      "location_type": "APPROXIMATE",
      "viewport": {
        "southwest": {
          "lat": 39.1328629,
          "lng": -123.2397979
        },
        "northeast": {
          "lat": 39.1674747,
          "lng": -123.1757683
        }
      },
      "bounds": {
        "southwest": {
          "lat": 39.1109790,
          "lng": -123.2322770
        },
        "northeast": {
          "lat": 39.1743910,
          "lng": -123.1802370
        }
      }
    }
  } ]
}
