{
  "status": "OK",
  "results": [ {
    "types": [ "locality", "political" ],
    "formatted_address": "Upland, CA, USA",
    "address_components": [ {
      "long_name": "Upland",
      "short_name": "Upland",
      "types": [ "locality", "political" ]
    }, {
      "long_name": "San Bernardino",
      "short_name": "San Bernardino",
      "types": [ "administrative_area_level_2", "political" ]
    }, {
      "long_name": "California",
      "short_name": "CA",
      "types": [ "administrative_area_level_1", "political" ]
    }, {
      "long_name": "United States",
      "short_name": "US",
      "types": [ "country", "political" ]
    } ],
    "geometry": {
      "location": {
        "lat": 34.0975100,
        "lng": -117.6483876
      },
      "location_type": "APPROXIMATE",
      "viewport": {
        "southwest": {
          "lat": 34.0605429,
          "lng": -117.7124173
        },
        "northeast": {
          "lat": 34.1344610,
          "lng": -117.5843579
        }
      },
      "bounds": {
        "southwest": {
          "lat": 34.0865110,
          "lng": -117.7045950
        },
        "northeast": {
          "lat": 34.1515080,
          "lng": -117.6192860
        }
      }
    }
  } ]
}
