{
  "status": "OK",
  "results": [ {
    "types": [ "locality", "political" ],
    "formatted_address": "Vista, CA, USA",
    "address_components": [ {
      "long_name": "Vista",
      "short_name": "Vista",
      "types": [ "locality", "political" ]
    }, {
      "long_name": "San Diego",
      "short_name": "San Diego",
      "types": [ "administrative_area_level_2", "political" ]
    }, {
      "long_name": "California",
      "short_name": "CA",
      "types": [ "administrative_area_level_1", "political" ]
    }, {
      "long_name": "United States",
      "short_name": "US",
      "types": [ "country", "political" ]
    } ],
    "geometry": {
      "location": {
        "lat": 33.2000368,
        "lng": -117.2425355
      },
      "location_type": "APPROXIMATE",
      "viewport": {
        "southwest": {
          "lat": 33.1626824,
          "lng": -117.3065652
        },
        "northeast": {
          "lat": 33.2373752,
          "lng": -117.1785058
        }
      },
      "bounds": {
        "southwest": {
          "lat": 33.1311810,
          "lng": -117.2882540
        },
        "northeast": {
          "lat": 33.2388149,
          "lng": -117.1926870
        }
      }
    }
  } ]
}
