{
  "status": "OK",
  "results": [ {
    "types": [ "locality", "political" ],
    "formatted_address": "Westminster, CA, USA",
    "address_components": [ {
      "long_name": "Westminster",
      "short_name": "Westminster",
      "types": [ "locality", "political" ]
    }, {
      "long_name": "Orange",
      "short_name": "Orange",
      "types": [ "administrative_area_level_2", "political" ]
    }, {
      "long_name": "California",
      "short_name": "CA",
      "types": [ "administrative_area_level_1", "political" ]
    }, {
      "long_name": "United States",
      "short_name": "US",
      "types": [ "country", "political" ]
    } ],
    "geometry": {
      "location": {
        "lat": 33.7591830,
        "lng": -118.0067271
      },
      "location_type": "APPROXIMATE",
      "viewport": {
        "southwest": {
          "lat": 33.7220688,
          "lng": -118.0707568
        },
        "northeast": {
          "lat": 33.7962811,
          "lng": -117.9426974
        }
      },
      "bounds": {
        "southwest": {
          "lat": 33.7200170,
          "lng": -118.0430950
        },
        "northeast": {
          "lat": 33.7736159,
          "lng": -117.9446670
        }
      }
    }
  } ]
}
