{
  "status": "OK",
  "results": [ {
    "types": [ "locality", "political" ],
    "formatted_address": "Windsor, CA, USA",
    "address_components": [ {
      "long_name": "Windsor",
      "short_name": "Windsor",
      "types": [ "locality", "political" ]
    }, {
      "long_name": "Sonoma",
      "short_name": "Sonoma",
      "types": [ "administrative_area_level_2", "political" ]
    }, {
      "long_name": "California",
      "short_name": "CA",
      "types": [ "administrative_area_level_1", "political" ]
    }, {
      "long_name": "United States",
      "short_name": "US",
      "types": [ "country", "political" ]
    } ],
    "geometry": {
      "location": {
        "lat": 38.5471327,
        "lng": -122.8163802
      },
      "location_type": "APPROXIMATE",
      "viewport": {
        "southwest": {
          "lat": 38.5122178,
          "lng": -122.8804099
        },
        "northeast": {
          "lat": 38.5820307,
          "lng": -122.7523505
        }
      },
      "bounds": {
        "southwest": {
          "lat": 38.4915490,
          "lng": -122.8610580
        },
        "northeast": {
          "lat": 38.5675120,
          "lng": -122.7598350
        }
      }
    }
  } ]
}
