{
  "status": "OK",
  "results": [ {
    "types": [ "locality", "political" ],
    "formatted_address": "Abbotsford, WI, USA",
    "address_components": [ {
      "long_name": "Abbotsford",
      "short_name": "Abbotsford",
      "types": [ "locality", "political" ]
    }, {
      "long_name": "Marathon",
      "short_name": "Marathon",
      "types": [ "administrative_area_level_2", "political" ]
    }, {
      "long_name": "Wisconsin",
      "short_name": "WI",
      "types": [ "administrative_area_level_1", "political" ]
    }, {
      "long_name": "United States",
      "short_name": "US",
      "types": [ "country", "political" ]
    } ],
    "geometry": {
      "location": {
        "lat": 44.9463560,
        "lng": -90.3159690
      },
      "location_type": "APPROXIMATE",
      "viewport": {
        "southwest": {
          "lat": 44.9305593,
          "lng": -90.3479838
        },
        "northeast": {
          "lat": 44.9621484,
          "lng": -90.2839542
        }
      },
      "bounds": {
        "southwest": {
          "lat": 44.9245139,
          "lng": -90.3467690
        },
        "northeast": {
          "lat": 44.9678420,
          "lng": -90.2794840
        }
      }
    }
  } ]
}
