{
  "status": "OK",
  "results": [ {
    "types": [ "locality", "political" ],
    "formatted_address": "Albany, WI, USA",
    "address_components": [ {
      "long_name": "Albany",
      "short_name": "Albany",
      "types": [ "locality", "political" ]
    }, {
      "long_name": "Green",
      "short_name": "Green",
      "types": [ "administrative_area_level_2", "political" ]
    }, {
      "long_name": "Wisconsin",
      "short_name": "WI",
      "types": [ "administrative_area_level_1", "political" ]
    }, {
      "long_name": "United States",
      "short_name": "US",
      "types": [ "country", "political" ]
    } ],
    "geometry": {
      "location": {
        "lat": 42.7077845,
        "lng": -89.4370629
      },
      "location_type": "APPROXIMATE",
      "viewport": {
        "southwest": {
          "lat": 42.6995848,
          "lng": -89.4530703
        },
        "northeast": {
          "lat": 42.7159831,
          "lng": -89.4210555
        }
      },
      "bounds": {
        "southwest": {
          "lat": 42.6973110,
          "lng": -89.4468249
        },
        "northeast": {
          "lat": 42.7190049,
          "lng": -89.4271110
        }
      }
    }
  } ]
}
