{
  "status": "OK",
  "results": [ {
    "types": [ "locality", "political" ],
    "formatted_address": "Beaver Dam, WI, USA",
    "address_components": [ {
      "long_name": "Beaver Dam",
      "short_name": "Beaver Dam",
      "types": [ "locality", "political" ]
    }, {
      "long_name": "Dodge",
      "short_name": "Dodge",
      "types": [ "administrative_area_level_2", "political" ]
    }, {
      "long_name": "Wisconsin",
      "short_name": "WI",
      "types": [ "administrative_area_level_1", "political" ]
    }, {
      "long_name": "United States",
      "short_name": "US",
      "types": [ "country", "political" ]
    } ],
    "geometry": {
      "location": {
        "lat": 43.4577692,
        "lng": -88.8373290
      },
      "location_type": "APPROXIMATE",
      "viewport": {
        "southwest": {
          "lat": 43.4253630,
          "lng": -88.9013587
        },
        "northeast": {
          "lat": 43.4901580,
          "lng": -88.7732993
        }
      },
      "bounds": {
        "southwest": {
          "lat": 43.4283820,
          "lng": -88.8657750
        },
        "northeast": {
          "lat": 43.5172190,
          "lng": -88.7854040
        }
      }
    }
  } ]
}
