{
  "status": "OK",
  "results": [ {
    "types": [ "locality", "political" ],
    "formatted_address": "Blair, WI, USA",
    "address_components": [ {
      "long_name": "Blair",
      "short_name": "Blair",
      "types": [ "locality", "political" ]
    }, {
      "long_name": "Trempealeau",
      "short_name": "Trempealeau",
      "types": [ "administrative_area_level_2", "political" ]
    }, {
      "long_name": "Wisconsin",
      "short_name": "WI",
      "types": [ "administrative_area_level_1", "political" ]
    }, {
      "long_name": "United States",
      "short_name": "US",
      "types": [ "country", "political" ]
    } ],
    "geometry": {
      "location": {
        "lat": 44.2944029,
        "lng": -91.2351602
      },
      "location_type": "APPROXIMATE",
      "viewport": {
        "southwest": {
          "lat": 44.2864159,
          "lng": -91.2511676
        },
        "northeast": {
          "lat": 44.3023888,
          "lng": -91.2191528
        }
      },
      "bounds": {
        "southwest": {
          "lat": 44.2872319,
          "lng": -91.2417689
        },
        "northeast": {
          "lat": 44.3017250,
          "lng": -91.2113560
        }
      }
    }
  } ]
}
