{
  "status": "OK",
  "results": [ {
    "types": [ "locality", "political" ],
    "formatted_address": "Brillion, WI, USA",
    "address_components": [ {
      "long_name": "Brillion",
      "short_name": "Brillion",
      "types": [ "locality", "political" ]
    }, {
      "long_name": "Calumet",
      "short_name": "Calumet",
      "types": [ "administrative_area_level_2", "political" ]
    }, {
      "long_name": "Wisconsin",
      "short_name": "WI",
      "types": [ "administrative_area_level_1", "political" ]
    }, {
      "long_name": "United States",
      "short_name": "US",
      "types": [ "country", "political" ]
    } ],
    "geometry": {
      "location": {
        "lat": 44.1772137,
        "lng": -88.0642658
      },
      "location_type": "APPROXIMATE",
      "viewport": {
        "southwest": {
          "lat": 44.1612068,
          "lng": -88.0962806
        },
        "northeast": {
          "lat": 44.1932163,
          "lng": -88.0322510
        }
      },
      "bounds": {
        "southwest": {
          "lat": 44.1535299,
          "lng": -88.0993259
        },
        "northeast": {
          "lat": 44.1915220,
          "lng": -88.0482639
        }
      }
    }
  } ]
}
