{
  "status": "OK",
  "results": [ {
    "types": [ "locality", "political" ],
    "formatted_address": "Brookfield, WI, USA",
    "address_components": [ {
      "long_name": "Brookfield",
      "short_name": "Brookfield",
      "types": [ "locality", "political" ]
    }, {
      "long_name": "Waukesha",
      "short_name": "Waukesha",
      "types": [ "administrative_area_level_2", "political" ]
    }, {
      "long_name": "Wisconsin",
      "short_name": "WI",
      "types": [ "administrative_area_level_1", "political" ]
    }, {
      "long_name": "United States",
      "short_name": "US",
      "types": [ "country", "political" ]
    } ],
    "geometry": {
      "location": {
        "lat": 43.0605671,
        "lng": -88.1064787
      },
      "location_type": "APPROXIMATE",
      "viewport": {
        "southwest": {
          "lat": 43.0279489,
          "lng": -88.1705084
        },
        "northeast": {
          "lat": 43.0931680,
          "lng": -88.0424490
        }
      },
      "bounds": {
        "southwest": {
          "lat": 43.0163320,
          "lng": -88.1858840
        },
        "northeast": {
          "lat": 43.1052029,
          "lng": -88.0661430
        }
      }
    }
  } ]
}
