{
  "status": "OK",
  "results": [ {
    "types": [ "locality", "political" ],
    "formatted_address": "Caledonia, WI, USA",
    "address_components": [ {
      "long_name": "Caledonia",
      "short_name": "Caledonia",
      "types": [ "locality", "political" ]
    }, {
      "long_name": "Racine",
      "short_name": "Racine",
      "types": [ "administrative_area_level_2", "political" ]
    }, {
      "long_name": "Wisconsin",
      "short_name": "WI",
      "types": [ "administrative_area_level_1", "political" ]
    }, {
      "long_name": "United States",
      "short_name": "US",
      "types": [ "country", "political" ]
    } ],
    "geometry": {
      "location": {
        "lat": 42.8077958,
        "lng": -87.9242480
      },
      "location_type": "APPROXIMATE",
      "viewport": {
        "southwest": {
          "lat": 42.7422738,
          "lng": -88.0523074
        },
        "northeast": {
          "lat": 42.8732485,
          "lng": -87.7961886
        }
      },
      "bounds": {
        "southwest": {
          "lat": 42.7552630,
          "lng": -87.9541490
        },
        "northeast": {
          "lat": 42.8435470,
          "lng": -87.7472200
        }
      }
    }
  } ]
}
