{
  "status": "OK",
  "results": [ {
    "types": [ "locality", "political" ],
    "formatted_address": "Cedarburg, WI, USA",
    "address_components": [ {
      "long_name": "Cedarburg",
      "short_name": "Cedarburg",
      "types": [ "locality", "political" ]
    }, {
      "long_name": "Ozaukee",
      "short_name": "Ozaukee",
      "types": [ "administrative_area_level_2", "political" ]
    }, {
      "long_name": "Wisconsin",
      "short_name": "WI",
      "types": [ "administrative_area_level_1", "political" ]
    }, {
      "long_name": "United States",
      "short_name": "US",
      "types": [ "country", "political" ]
    } ],
    "geometry": {
      "location": {
        "lat": 43.2966716,
        "lng": -87.9875898
      },
      "location_type": "APPROXIMATE",
      "viewport": {
        "southwest": {
          "lat": 43.2804276,
          "lng": -88.0196046
        },
        "northeast": {
          "lat": 43.3129113,
          "lng": -87.9555750
        }
      },
      "bounds": {
        "southwest": {
          "lat": 43.2742049,
          "lng": -88.0143760
        },
        "northeast": {
          "lat": 43.3284249,
          "lng": -87.9503270
        }
      }
    }
  } ]
}
