{
  "status": "OK",
  "results": [ {
    "types": [ "locality", "political" ],
    "formatted_address": "Combined Locks, WI, USA",
    "address_components": [ {
      "long_name": "Combined Locks",
      "short_name": "Combined Locks",
      "types": [ "locality", "political" ]
    }, {
      "long_name": "Outagamie",
      "short_name": "Outagamie",
      "types": [ "administrative_area_level_2", "political" ]
    }, {
      "long_name": "Wisconsin",
      "short_name": "WI",
      "types": [ "administrative_area_level_1", "political" ]
    }, {
      "long_name": "United States",
      "short_name": "US",
      "types": [ "country", "political" ]
    } ],
    "geometry": {
      "location": {
        "lat": 44.2658204,
        "lng": -88.3142730
      },
      "location_type": "APPROXIMATE",
      "viewport": {
        "southwest": {
          "lat": 44.2498375,
          "lng": -88.3462878
        },
        "northeast": {
          "lat": 44.2817989,
          "lng": -88.2822582
        }
      },
      "bounds": {
        "southwest": {
          "lat": 44.2493810,
          "lng": -88.3242640
        },
        "northeast": {
          "lat": 44.2777869,
          "lng": -88.2913349
        }
      }
    }
  } ]
}
