{
  "status": "OK",
  "results": [ {
    "types": [ "locality", "political" ],
    "formatted_address": "Coon Valley, WI, USA",
    "address_components": [ {
      "long_name": "Coon Valley",
      "short_name": "Coon Valley",
      "types": [ "locality", "political" ]
    }, {
      "long_name": "Vernon",
      "short_name": "Vernon",
      "types": [ "administrative_area_level_2", "political" ]
    }, {
      "long_name": "Wisconsin",
      "short_name": "WI",
      "types": [ "administrative_area_level_1", "political" ]
    }, {
      "long_name": "United States",
      "short_name": "US",
      "types": [ "country", "political" ]
    } ],
    "geometry": {
      "location": {
        "lat": 43.7021922,
        "lng": -91.0131863
      },
      "location_type": "APPROXIMATE",
      "viewport": {
        "southwest": {
          "lat": 43.6941251,
          "lng": -91.0291937
        },
        "northeast": {
          "lat": 43.7102582,
          "lng": -90.9971789
        }
      },
      "bounds": {
        "southwest": {
          "lat": 43.6952069,
          "lng": -91.0252890
        },
        "northeast": {
          "lat": 43.7097089,
          "lng": -91.0004550
        }
      }
    }
  } ]
}
