{
  "status": "OK",
  "results": [ {
    "types": [ "locality", "political" ],
    "formatted_address": "Darien, WI, USA",
    "address_components": [ {
      "long_name": "Darien",
      "short_name": "Darien",
      "types": [ "locality", "political" ]
    }, {
      "long_name": "Walworth",
      "short_name": "Walworth",
      "types": [ "administrative_area_level_2", "political" ]
    }, {
      "long_name": "Wisconsin",
      "short_name": "WI",
      "types": [ "administrative_area_level_1", "political" ]
    }, {
      "long_name": "United States",
      "short_name": "US",
      "types": [ "country", "political" ]
    } ],
    "geometry": {
      "location": {
        "lat": 42.6016813,
        "lng": -88.7076041
      },
      "location_type": "APPROXIMATE",
      "viewport": {
        "southwest": {
          "lat": 42.5934676,
          "lng": -88.7236115
        },
        "northeast": {
          "lat": 42.6098939,
          "lng": -88.6915967
        }
      },
      "bounds": {
        "southwest": {
          "lat": 42.5915080,
          "lng": -88.7275679
        },
        "northeast": {
          "lat": 42.6115299,
          "lng": -88.6918209
        }
      }
    }
  } ]
}
