{
  "status": "OK",
  "results": [ {
    "types": [ "locality", "political" ],
    "formatted_address": "Delavan, WI, USA",
    "address_components": [ {
      "long_name": "Delavan",
      "short_name": "Delavan",
      "types": [ "locality", "political" ]
    }, {
      "long_name": "Walworth",
      "short_name": "Walworth",
      "types": [ "administrative_area_level_2", "political" ]
    }, {
      "long_name": "Wisconsin",
      "short_name": "WI",
      "types": [ "administrative_area_level_1", "political" ]
    }, {
      "long_name": "United States",
      "short_name": "US",
      "types": [ "country", "political" ]
    } ],
    "geometry": {
      "location": {
        "lat": 42.6330703,
        "lng": -88.6437138
      },
      "location_type": "APPROXIMATE",
      "viewport": {
        "southwest": {
          "lat": 42.6002256,
          "lng": -88.7077435
        },
        "northeast": {
          "lat": 42.6658976,
          "lng": -88.5796841
        }
      },
      "bounds": {
        "southwest": {
          "lat": 42.6040050,
          "lng": -88.6786410
        },
        "northeast": {
          "lat": 42.6509340,
          "lng": -88.5822309
        }
      }
    }
  } ]
}
