{
  "status": "OK",
  "results": [ {
    "types": [ "locality", "political" ],
    "formatted_address": "Edgerton, WI, USA",
    "address_components": [ {
      "long_name": "Edgerton",
      "short_name": "Edgerton",
      "types": [ "locality", "political" ]
    }, {
      "long_name": "Rock",
      "short_name": "Rock",
      "types": [ "administrative_area_level_2", "political" ]
    }, {
      "long_name": "Wisconsin",
      "short_name": "WI",
      "types": [ "administrative_area_level_1", "political" ]
    }, {
      "long_name": "United States",
      "short_name": "US",
      "types": [ "country", "political" ]
    } ],
    "geometry": {
      "location": {
        "lat": 42.8352835,
        "lng": -89.0676125
      },
      "location_type": "APPROXIMATE",
      "viewport": {
        "southwest": {
          "lat": 42.8189168,
          "lng": -89.0996273
        },
        "northeast": {
          "lat": 42.8516459,
          "lng": -89.0355977
        }
      },
      "bounds": {
        "southwest": {
          "lat": 42.8195950,
          "lng": -89.1021710
        },
        "northeast": {
          "lat": 42.8606560,
          "lng": -89.0425770
        }
      }
    }
  } ]
}
