{
  "status": "OK",
  "results": [ {
    "types": [ "locality", "political" ],
    "formatted_address": "Eleva, WI, USA",
    "address_components": [ {
      "long_name": "Eleva",
      "short_name": "Eleva",
      "types": [ "locality", "political" ]
    }, {
      "long_name": "Trempealeau",
      "short_name": "Trempealeau",
      "types": [ "administrative_area_level_2", "political" ]
    }, {
      "long_name": "Wisconsin",
      "short_name": "WI",
      "types": [ "administrative_area_level_1", "political" ]
    }, {
      "long_name": "United States",
      "short_name": "US",
      "types": [ "country", "political" ]
    } ],
    "geometry": {
      "location": {
        "lat": 44.5757974,
        "lng": -91.4701575
      },
      "location_type": "APPROXIMATE",
      "viewport": {
        "southwest": {
          "lat": 44.5678488,
          "lng": -91.4861649
        },
        "northeast": {
          "lat": 44.5837449,
          "lng": -91.4541501
        }
      },
      "bounds": {
        "southwest": {
          "lat": 44.5671309,
          "lng": -91.4806519
        },
        "northeast": {
          "lat": 44.5831979,
          "lng": -91.4598630
        }
      }
    }
  } ]
}
