{
  "status": "OK",
  "results": [ {
    "types": [ "locality", "political" ],
    "formatted_address": "Elm Grove, WI, USA",
    "address_components": [ {
      "long_name": "Elm Grove",
      "short_name": "Elm Grove",
      "types": [ "locality", "political" ]
    }, {
      "long_name": "Waukesha",
      "short_name": "Waukesha",
      "types": [ "administrative_area_level_2", "political" ]
    }, {
      "long_name": "Wisconsin",
      "short_name": "WI",
      "types": [ "administrative_area_level_1", "political" ]
    }, {
      "long_name": "United States",
      "short_name": "US",
      "types": [ "country", "political" ]
    } ],
    "geometry": {
      "location": {
        "lat": 43.0430678,
        "lng": -88.0789780
      },
      "location_type": "APPROXIMATE",
      "viewport": {
        "southwest": {
          "lat": 43.0267562,
          "lng": -88.1109928
        },
        "northeast": {
          "lat": 43.0593751,
          "lng": -88.0469632
        }
      },
      "bounds": {
        "southwest": {
          "lat": 43.0358070,
          "lng": -88.1072440
        },
        "northeast": {
          "lat": 43.0604049,
          "lng": -88.0667850
        }
      }
    }
  } ]
}
