{
  "status": "OK",
  "results": [ {
    "types": [ "locality", "political" ],
    "formatted_address": "Fitchburg, WI, USA",
    "address_components": [ {
      "long_name": "Fitchburg",
      "short_name": "Fitchburg",
      "types": [ "locality", "political" ]
    }, {
      "long_name": "Dane",
      "short_name": "Dane",
      "types": [ "administrative_area_level_2", "political" ]
    }, {
      "long_name": "Wisconsin",
      "short_name": "WI",
      "types": [ "administrative_area_level_1", "political" ]
    }, {
      "long_name": "United States",
      "short_name": "US",
      "types": [ "country", "political" ]
    } ],
    "geometry": {
      "location": {
        "lat": 42.9608322,
        "lng": -89.4698430
      },
      "location_type": "APPROXIMATE",
      "viewport": {
        "southwest": {
          "lat": 42.8954724,
          "lng": -89.5979024
        },
        "northeast": {
          "lat": 43.0261226,
          "lng": -89.3417836
        }
      },
      "bounds": {
        "southwest": {
          "lat": 42.9429070,
          "lng": -89.4872560
        },
        "northeast": {
          "lat": 43.0330630,
          "lng": -89.3647570
        }
      }
    }
  } ]
}
