{
  "status": "OK",
  "results": [ {
    "types": [ "locality", "political" ],
    "formatted_address": "Greenfield, WI, USA",
    "address_components": [ {
      "long_name": "Greenfield",
      "short_name": "Greenfield",
      "types": [ "locality", "political" ]
    }, {
      "long_name": "Milwaukee",
      "short_name": "Milwaukee",
      "types": [ "administrative_area_level_2", "political" ]
    }, {
      "long_name": "Wisconsin",
      "short_name": "WI",
      "types": [ "administrative_area_level_1", "political" ]
    }, {
      "long_name": "United States",
      "short_name": "US",
      "types": [ "country", "political" ]
    } ],
    "geometry": {
      "location": {
        "lat": 42.9614039,
        "lng": -88.0125865
      },
      "location_type": "APPROXIMATE",
      "viewport": {
        "southwest": {
          "lat": 42.9287330,
          "lng": -88.0766162
        },
        "northeast": {
          "lat": 42.9940575,
          "lng": -87.9485568
        }
      },
      "bounds": {
        "southwest": {
          "lat": 42.9302149,
          "lng": -88.0692880
        },
        "northeast": {
          "lat": 42.9884140,
          "lng": -87.9483839
        }
      }
    }
  } ]
}
