{
  "status": "OK",
  "results": [ {
    "types": [ "locality", "political" ],
    "formatted_address": "Green Bay, WI, USA",
    "address_components": [ {
      "long_name": "Green Bay",
      "short_name": "Green Bay",
      "types": [ "locality", "political" ]
    }, {
      "long_name": "Brown",
      "short_name": "Brown",
      "types": [ "administrative_area_level_2", "political" ]
    }, {
      "long_name": "Wisconsin",
      "short_name": "WI",
      "types": [ "administrative_area_level_1", "political" ]
    }, {
      "long_name": "United States",
      "short_name": "US",
      "types": [ "country", "political" ]
    } ],
    "geometry": {
      "location": {
        "lat": 44.5191590,
        "lng": -88.0198260
      },
      "location_type": "APPROXIMATE",
      "viewport": {
        "southwest": {
          "lat": 44.4554776,
          "lng": -88.1478854
        },
        "northeast": {
          "lat": 44.5827708,
          "lng": -87.8917666
        }
      },
      "bounds": {
        "southwest": {
          "lat": 44.4712320,
          "lng": -88.1398160
        },
        "northeast": {
          "lat": 44.5746589,
          "lng": -87.8411730
        }
      }
    }
  } ]
}
