{
  "status": "OK",
  "results": [ {
    "types": [ "locality", "political" ],
    "formatted_address": "Hillsboro, WI, USA",
    "address_components": [ {
      "long_name": "Hillsboro",
      "short_name": "Hillsboro",
      "types": [ "locality", "political" ]
    }, {
      "long_name": "Vernon",
      "short_name": "Vernon",
      "types": [ "administrative_area_level_2", "political" ]
    }, {
      "long_name": "Wisconsin",
      "short_name": "WI",
      "types": [ "administrative_area_level_1", "political" ]
    }, {
      "long_name": "United States",
      "short_name": "US",
      "types": [ "country", "political" ]
    } ],
    "geometry": {
      "location": {
        "lat": 43.6521958,
        "lng": -90.3440178
      },
      "location_type": "APPROXIMATE",
      "viewport": {
        "southwest": {
          "lat": 43.6441220,
          "lng": -90.3600252
        },
        "northeast": {
          "lat": 43.6602685,
          "lng": -90.3280104
        }
      },
      "bounds": {
        "southwest": {
          "lat": 43.6474170,
          "lng": -90.3526170
        },
        "northeast": {
          "lat": 43.6613769,
          "lng": -90.3223589
        }
      }
    }
  } ]
}
