{
  "status": "OK",
  "results": [ {
    "types": [ "locality", "political" ],
    "formatted_address": "Iron Ridge, WI, USA",
    "address_components": [ {
      "long_name": "Iron Ridge",
      "short_name": "Iron Ridge",
      "types": [ "locality", "political" ]
    }, {
      "long_name": "Dodge",
      "short_name": "Dodge",
      "types": [ "administrative_area_level_2", "political" ]
    }, {
      "long_name": "Wisconsin",
      "short_name": "WI",
      "types": [ "administrative_area_level_1", "political" ]
    }, {
      "long_name": "United States",
      "short_name": "US",
      "types": [ "country", "political" ]
    } ],
    "geometry": {
      "location": {
        "lat": 43.3997196,
        "lng": -88.5326008
      },
      "location_type": "APPROXIMATE",
      "viewport": {
        "southwest": {
          "lat": 43.3916119,
          "lng": -88.5486082
        },
        "northeast": {
          "lat": 43.4078262,
          "lng": -88.5165934
        }
      },
      "bounds": {
        "southwest": {
          "lat": 43.3920929,
          "lng": -88.5420010
        },
        "northeast": {
          "lat": 43.4053890,
          "lng": -88.5220219
        }
      }
    }
  } ]
}
