{
  "status": "OK",
  "results": [ {
    "types": [ "locality", "political" ],
    "formatted_address": "Kewaskum, WI, USA",
    "address_components": [ {
      "long_name": "Kewaskum",
      "short_name": "Kewaskum",
      "types": [ "locality", "political" ]
    }, {
      "long_name": "Washington",
      "short_name": "Washington",
      "types": [ "administrative_area_level_2", "political" ]
    }, {
      "long_name": "Wisconsin",
      "short_name": "WI",
      "types": [ "administrative_area_level_1", "political" ]
    }, {
      "long_name": "United States",
      "short_name": "US",
      "types": [ "country", "political" ]
    } ],
    "geometry": {
      "location": {
        "lat": 43.5208302,
        "lng": -88.2289851
      },
      "location_type": "APPROXIMATE",
      "viewport": {
        "southwest": {
          "lat": 43.5046462,
          "lng": -88.2609999
        },
        "northeast": {
          "lat": 43.5370099,
          "lng": -88.1969703
        }
      },
      "bounds": {
        "southwest": {
          "lat": 43.4978500,
          "lng": -88.2687140
        },
        "northeast": {
          "lat": 43.5461419,
          "lng": -88.2117030
        }
      }
    }
  } ]
}
