{
  "status": "OK",
  "results": [ {
    "types": [ "locality", "political" ],
    "formatted_address": "Kiel, WI, USA",
    "address_components": [ {
      "long_name": "Kiel",
      "short_name": "Kiel",
      "types": [ "locality", "political" ]
    }, {
      "long_name": "Manitowoc",
      "short_name": "Manitowoc",
      "types": [ "administrative_area_level_2", "political" ]
    }, {
      "long_name": "Wisconsin",
      "short_name": "WI",
      "types": [ "administrative_area_level_1", "political" ]
    }, {
      "long_name": "United States",
      "short_name": "US",
      "types": [ "country", "political" ]
    } ],
    "geometry": {
      "location": {
        "lat": 43.9124930,
        "lng": -88.0356515
      },
      "location_type": "APPROXIMATE",
      "viewport": {
        "southwest": {
          "lat": 43.8964144,
          "lng": -88.0676663
        },
        "northeast": {
          "lat": 43.9285673,
          "lng": -88.0036367
        }
      },
      "bounds": {
        "southwest": {
          "lat": 43.9053539,
          "lng": -88.0539769
        },
        "northeast": {
          "lat": 43.9292139,
          "lng": -87.9975970
        }
      }
    }
  } ]
}
