{
  "status": "OK",
  "results": [ {
    "types": [ "locality", "political" ],
    "formatted_address": "Lake Delton, WI, USA",
    "address_components": [ {
      "long_name": "Lake Delton",
      "short_name": "Lake Delton",
      "types": [ "locality", "political" ]
    }, {
      "long_name": "Sauk",
      "short_name": "Sauk",
      "types": [ "administrative_area_level_2", "political" ]
    }, {
      "long_name": "Wisconsin",
      "short_name": "WI",
      "types": [ "administrative_area_level_1", "political" ]
    }, {
      "long_name": "United States",
      "short_name": "US",
      "types": [ "country", "political" ]
    } ],
    "geometry": {
      "location": {
        "lat": 43.6010909,
        "lng": -89.7937357
      },
      "location_type": "APPROXIMATE",
      "viewport": {
        "southwest": {
          "lat": 43.5687616,
          "lng": -89.8577654
        },
        "northeast": {
          "lat": 43.6334028,
          "lng": -89.7297060
        }
      },
      "bounds": {
        "southwest": {
          "lat": 43.5613570,
          "lng": -89.8278680
        },
        "northeast": {
          "lat": 43.6156800,
          "lng": -89.7385290
        }
      }
    }
  } ]
}
