{
  "status": "OK",
  "results": [ {
    "types": [ "locality", "political" ],
    "formatted_address": "Luxemburg, WI, USA",
    "address_components": [ {
      "long_name": "Luxemburg",
      "short_name": "Luxemburg",
      "types": [ "locality", "political" ]
    }, {
      "long_name": "Kewaunee",
      "short_name": "Kewaunee",
      "types": [ "administrative_area_level_2", "political" ]
    }, {
      "long_name": "Wisconsin",
      "short_name": "WI",
      "types": [ "administrative_area_level_1", "political" ]
    }, {
      "long_name": "United States",
      "short_name": "US",
      "types": [ "country", "political" ]
    } ],
    "geometry": {
      "location": {
        "lat": 44.5386065,
        "lng": -87.7039813
      },
      "location_type": "APPROXIMATE",
      "viewport": {
        "southwest": {
          "lat": 44.5226980,
          "lng": -87.7359961
        },
        "northeast": {
          "lat": 44.5545107,
          "lng": -87.6719665
        }
      },
      "bounds": {
        "southwest": {
          "lat": 44.5236049,
          "lng": -87.7236849
        },
        "northeast": {
          "lat": 44.5613430,
          "lng": -87.6825370
        }
      }
    }
  } ]
}
