{
  "status": "OK",
  "results": [ {
    "types": [ "locality", "political" ],
    "formatted_address": "Medford, WI, USA",
    "address_components": [ {
      "long_name": "Medford",
      "short_name": "Medford",
      "types": [ "locality", "political" ]
    }, {
      "long_name": "Taylor",
      "short_name": "Taylor",
      "types": [ "administrative_area_level_2", "political" ]
    }, {
      "long_name": "Wisconsin",
      "short_name": "WI",
      "types": [ "administrative_area_level_1", "political" ]
    }, {
      "long_name": "United States",
      "short_name": "US",
      "types": [ "country", "political" ]
    } ],
    "geometry": {
      "location": {
        "lat": 45.1385798,
        "lng": -90.3401404
      },
      "location_type": "APPROXIMATE",
      "viewport": {
        "southwest": {
          "lat": 45.1228361,
          "lng": -90.3721552
        },
        "northeast": {
          "lat": 45.1543192,
          "lng": -90.3081256
        }
      },
      "bounds": {
        "southwest": {
          "lat": 45.1121300,
          "lng": -90.3747000
        },
        "northeast": {
          "lat": 45.1625790,
          "lng": -90.3228570
        }
      }
    }
  } ]
}
