{
  "status": "OK",
  "results": [ {
    "types": [ "locality", "political" ],
    "formatted_address": "Mineral Point, WI, USA",
    "address_components": [ {
      "long_name": "Mineral Point",
      "short_name": "Mineral Point",
      "types": [ "locality", "political" ]
    }, {
      "long_name": "Iowa",
      "short_name": "Iowa",
      "types": [ "administrative_area_level_2", "political" ]
    }, {
      "long_name": "Wisconsin",
      "short_name": "WI",
      "types": [ "administrative_area_level_1", "political" ]
    }, {
      "long_name": "United States",
      "short_name": "US",
      "types": [ "country", "political" ]
    } ],
    "geometry": {
      "location": {
        "lat": 42.8599970,
        "lng": -90.1798473
      },
      "location_type": "APPROXIMATE",
      "viewport": {
        "southwest": {
          "lat": 42.8436368,
          "lng": -90.2118621
        },
        "northeast": {
          "lat": 42.8763528,
          "lng": -90.1478325
        }
      },
      "bounds": {
        "southwest": {
          "lat": 42.8433280,
          "lng": -90.2099719
        },
        "northeast": {
          "lat": 42.8839350,
          "lng": -90.1577260
        }
      }
    }
  } ]
}
