{
  "status": "OK",
  "results": [ {
    "types": [ "locality", "political" ],
    "formatted_address": "Mount Horeb, WI, USA",
    "address_components": [ {
      "long_name": "Mount Horeb",
      "short_name": "Mount Horeb",
      "types": [ "locality", "political" ]
    }, {
      "long_name": "Dane",
      "short_name": "Dane",
      "types": [ "administrative_area_level_2", "political" ]
    }, {
      "long_name": "Wisconsin",
      "short_name": "WI",
      "types": [ "administrative_area_level_1", "political" ]
    }, {
      "long_name": "United States",
      "short_name": "US",
      "types": [ "country", "political" ]
    } ],
    "geometry": {
      "location": {
        "lat": 43.0086080,
        "lng": -89.7384562
      },
      "location_type": "APPROXIMATE",
      "viewport": {
        "southwest": {
          "lat": 42.9922872,
          "lng": -89.7704710
        },
        "northeast": {
          "lat": 43.0249244,
          "lng": -89.7064414
        }
      },
      "bounds": {
        "southwest": {
          "lat": 42.9846560,
          "lng": -89.7529400
        },
        "northeast": {
          "lat": 43.0212189,
          "lng": -89.6946619
        }
      }
    }
  } ]
}
