{
  "status": "OK",
  "results": [ {
    "types": [ "locality", "political" ],
    "formatted_address": "Neshkoro, WI 54960, USA",
    "address_components": [ {
      "long_name": "Neshkoro",
      "short_name": "Neshkoro",
      "types": [ "locality", "political" ]
    }, {
      "long_name": "Marquette",
      "short_name": "Marquette",
      "types": [ "administrative_area_level_2", "political" ]
    }, {
      "long_name": "Wisconsin",
      "short_name": "WI",
      "types": [ "administrative_area_level_1", "political" ]
    }, {
      "long_name": "United States",
      "short_name": "US",
      "types": [ "country", "political" ]
    }, {
      "long_name": "54960",
      "short_name": "54960",
      "types": [ "postal_code" ]
    } ],
    "geometry": {
      "location": {
        "lat": 43.9658121,
        "lng": -89.2176187
      },
      "location_type": "APPROXIMATE",
      "viewport": {
        "southwest": {
          "lat": 43.9497479,
          "lng": -89.2496335
        },
        "northeast": {
          "lat": 43.9818719,
          "lng": -89.1856039
        }
      },
      "bounds": {
        "southwest": {
          "lat": 43.9516889,
          "lng": -89.2287790
        },
        "northeast": {
          "lat": 43.9827830,
          "lng": -89.1982220
        }
      }
    }
  } ]
}
