{
  "status": "OK",
  "results": [ {
    "types": [ "locality", "political" ],
    "formatted_address": "New Holstein, WI, USA",
    "address_components": [ {
      "long_name": "New Holstein",
      "short_name": "New Holstein",
      "types": [ "locality", "political" ]
    }, {
      "long_name": "Calumet",
      "short_name": "Calumet",
      "types": [ "administrative_area_level_2", "political" ]
    }, {
      "long_name": "Wisconsin",
      "short_name": "WI",
      "types": [ "administrative_area_level_1", "political" ]
    }, {
      "long_name": "United States",
      "short_name": "US",
      "types": [ "country", "political" ]
    } ],
    "geometry": {
      "location": {
        "lat": 43.9499924,
        "lng": -88.0842642
      },
      "location_type": "APPROXIMATE",
      "viewport": {
        "southwest": {
          "lat": 43.9339239,
          "lng": -88.1162790
        },
        "northeast": {
          "lat": 43.9660565,
          "lng": -88.0522494
        }
      },
      "bounds": {
        "southwest": {
          "lat": 43.9361210,
          "lng": -88.1228029
        },
        "northeast": {
          "lat": 43.9643010,
          "lng": -88.0709359
        }
      }
    }
  } ]
}
