{
  "status": "OK",
  "results": [ {
    "types": [ "locality", "political" ],
    "formatted_address": "North Fond du Lac, WI, USA",
    "address_components": [ {
      "long_name": "North Fond du Lac",
      "short_name": "North Fond du Lac",
      "types": [ "locality", "political" ]
    }, {
      "long_name": "Fond du Lac",
      "short_name": "Fond du Lac",
      "types": [ "administrative_area_level_2", "political" ]
    }, {
      "long_name": "Wisconsin",
      "short_name": "WI",
      "types": [ "administrative_area_level_1", "political" ]
    }, {
      "long_name": "United States",
      "short_name": "US",
      "types": [ "country", "political" ]
    } ],
    "geometry": {
      "location": {
        "lat": 43.8113769,
        "lng": -88.4834419
      },
      "location_type": "APPROXIMATE",
      "viewport": {
        "southwest": {
          "lat": 43.7952710,
          "lng": -88.5154567
        },
        "northeast": {
          "lat": 43.8274784,
          "lng": -88.4514271
        }
      },
      "bounds": {
        "southwest": {
          "lat": 43.7952400,
          "lng": -88.5048540
        },
        "northeast": {
          "lat": 43.8254899,
          "lng": -88.4700529
        }
      }
    }
  } ]
}
