{
  "status": "OK",
  "results": [ {
    "types": [ "locality", "political" ],
    "formatted_address": "Onalaska, WI, USA",
    "address_components": [ {
      "long_name": "Onalaska",
      "short_name": "Onalaska",
      "types": [ "locality", "political" ]
    }, {
      "long_name": "La Crosse",
      "short_name": "La Crosse",
      "types": [ "administrative_area_level_2", "political" ]
    }, {
      "long_name": "Wisconsin",
      "short_name": "WI",
      "types": [ "administrative_area_level_1", "political" ]
    }, {
      "long_name": "United States",
      "short_name": "US",
      "types": [ "country", "political" ]
    } ],
    "geometry": {
      "location": {
        "lat": 43.8844092,
        "lng": -91.2351393
      },
      "location_type": "APPROXIMATE",
      "viewport": {
        "southwest": {
          "lat": 43.8522325,
          "lng": -91.2991690
        },
        "northeast": {
          "lat": 43.9165685,
          "lng": -91.1711096
        }
      },
      "bounds": {
        "southwest": {
          "lat": 43.8617220,
          "lng": -91.2495400
        },
        "northeast": {
          "lat": 43.9238620,
          "lng": -91.1497359
        }
      }
    }
  } ]
}
