{
  "status": "OK",
  "results": [ {
    "types": [ "locality", "political" ],
    "formatted_address": "Oshkosh, WI, USA",
    "address_components": [ {
      "long_name": "Oshkosh",
      "short_name": "Oshkosh",
      "types": [ "locality", "political" ]
    }, {
      "long_name": "Winnebago",
      "short_name": "Winnebago",
      "types": [ "administrative_area_level_2", "political" ]
    }, {
      "long_name": "Wisconsin",
      "short_name": "WI",
      "types": [ "administrative_area_level_1", "political" ]
    }, {
      "long_name": "United States",
      "short_name": "US",
      "types": [ "country", "political" ]
    } ],
    "geometry": {
      "location": {
        "lat": 44.0247062,
        "lng": -88.5426136
      },
      "location_type": "APPROXIMATE",
      "viewport": {
        "southwest": {
          "lat": 43.9604871,
          "lng": -88.6706730
        },
        "northeast": {
          "lat": 44.0888558,
          "lng": -88.4145542
        }
      },
      "bounds": {
        "southwest": {
          "lat": 43.9450390,
          "lng": -88.6226970
        },
        "northeast": {
          "lat": 44.0911110,
          "lng": -88.5078650
        }
      }
    }
  } ]
}
