{
  "status": "OK",
  "results": [ {
    "types": [ "locality", "political" ],
    "formatted_address": "Park Falls, WI, USA",
    "address_components": [ {
      "long_name": "Park Falls",
      "short_name": "Park Falls",
      "types": [ "locality", "political" ]
    }, {
      "long_name": "Price",
      "short_name": "Price",
      "types": [ "administrative_area_level_2", "political" ]
    }, {
      "long_name": "Wisconsin",
      "short_name": "WI",
      "types": [ "administrative_area_level_1", "political" ]
    }, {
      "long_name": "United States",
      "short_name": "US",
      "types": [ "country", "political" ]
    } ],
    "geometry": {
      "location": {
        "lat": 45.9343981,
        "lng": -90.4415527
      },
      "location_type": "APPROXIMATE",
      "viewport": {
        "southwest": {
          "lat": 45.9188756,
          "lng": -90.4735675
        },
        "northeast": {
          "lat": 45.9499163,
          "lng": -90.4095379
        }
      },
      "bounds": {
        "southwest": {
          "lat": 45.9097380,
          "lng": -90.4680150
        },
        "northeast": {
          "lat": 45.9615749,
          "lng": -90.4183520
        }
      }
    }
  } ]
}
