{
  "status": "OK",
  "results": [ {
    "types": [ "locality", "political" ],
    "formatted_address": "Plymouth, WI, USA",
    "address_components": [ {
      "long_name": "Plymouth",
      "short_name": "Plymouth",
      "types": [ "locality", "political" ]
    }, {
      "long_name": "Sheboygan",
      "short_name": "Sheboygan",
      "types": [ "administrative_area_level_2", "political" ]
    }, {
      "long_name": "Wisconsin",
      "short_name": "WI",
      "types": [ "administrative_area_level_1", "political" ]
    }, {
      "long_name": "United States",
      "short_name": "US",
      "types": [ "country", "political" ]
    } ],
    "geometry": {
      "location": {
        "lat": 43.7486054,
        "lng": -87.9770379
      },
      "location_type": "APPROXIMATE",
      "viewport": {
        "southwest": {
          "lat": 43.7163554,
          "lng": -88.0410676
        },
        "northeast": {
          "lat": 43.7808380,
          "lng": -87.9130082
        }
      },
      "bounds": {
        "southwest": {
          "lat": 43.7252219,
          "lng": -88.0063160
        },
        "northeast": {
          "lat": 43.7758810,
          "lng": -87.9212220
        }
      }
    }
  } ]
}
