{
  "status": "OK",
  "results": [ {
    "types": [ "locality", "political" ],
    "formatted_address": "Princeton, WI, USA",
    "address_components": [ {
      "long_name": "Princeton",
      "short_name": "Princeton",
      "types": [ "locality", "political" ]
    }, {
      "long_name": "Green Lake",
      "short_name": "Green Lake",
      "types": [ "administrative_area_level_2", "political" ]
    }, {
      "long_name": "Wisconsin",
      "short_name": "WI",
      "types": [ "administrative_area_level_1", "political" ]
    }, {
      "long_name": "United States",
      "short_name": "US",
      "types": [ "country", "political" ]
    } ],
    "geometry": {
      "location": {
        "lat": 43.8508134,
        "lng": -89.1217828
      },
      "location_type": "APPROXIMATE",
      "viewport": {
        "southwest": {
          "lat": 43.8427663,
          "lng": -89.1377902
        },
        "northeast": {
          "lat": 43.8588594,
          "lng": -89.1057754
        }
      },
      "bounds": {
        "southwest": {
          "lat": 43.8408809,
          "lng": -89.1448109
        },
        "northeast": {
          "lat": 43.8637890,
          "lng": -89.1175750
        }
      }
    }
  } ]
}
