{
  "status": "OK",
  "results": [ {
    "types": [ "locality", "political" ],
    "formatted_address": "Rome, WI, USA",
    "address_components": [ {
      "long_name": "Rome",
      "short_name": "Rome",
      "types": [ "locality", "political" ]
    }, {
      "long_name": "Jefferson",
      "short_name": "Jefferson",
      "types": [ "administrative_area_level_2", "political" ]
    }, {
      "long_name": "Wisconsin",
      "short_name": "WI",
      "types": [ "administrative_area_level_1", "political" ]
    }, {
      "long_name": "United States",
      "short_name": "US",
      "types": [ "country", "political" ]
    } ],
    "geometry": {
      "location": {
        "lat": 42.9802852,
        "lng": -88.6312126
      },
      "location_type": "APPROXIMATE",
      "viewport": {
        "southwest": {
          "lat": 42.9639569,
          "lng": -88.6632274
        },
        "northeast": {
          "lat": 42.9966091,
          "lng": -88.5991978
        }
      },
      "bounds": {
        "southwest": {
          "lat": 42.9670149,
          "lng": -88.6652979
        },
        "northeast": {
          "lat": 43.0024189,
          "lng": -88.6065869
        }
      }
    }
  } ]
}
