{
  "status": "OK",
  "results": [ {
    "types": [ "locality", "political" ],
    "formatted_address": "Sheboygan Falls, WI, USA",
    "address_components": [ {
      "long_name": "Sheboygan Falls",
      "short_name": "Sheboygan Falls",
      "types": [ "locality", "political" ]
    }, {
      "long_name": "Sheboygan",
      "short_name": "Sheboygan",
      "types": [ "administrative_area_level_2", "political" ]
    }, {
      "long_name": "Wisconsin",
      "short_name": "WI",
      "types": [ "administrative_area_level_1", "political" ]
    }, {
      "long_name": "United States",
      "short_name": "US",
      "types": [ "country", "political" ]
    } ],
    "geometry": {
      "location": {
        "lat": 43.7291617,
        "lng": -87.8106439
      },
      "location_type": "APPROXIMATE",
      "viewport": {
        "southwest": {
          "lat": 43.6969013,
          "lng": -87.8746736
        },
        "northeast": {
          "lat": 43.7614048,
          "lng": -87.7466142
        }
      },
      "bounds": {
        "southwest": {
          "lat": 43.7031060,
          "lng": -87.8687740
        },
        "northeast": {
          "lat": 43.7505510,
          "lng": -87.7999310
        }
      }
    }
  } ]
}
