{
  "status": "OK",
  "results": [ {
    "types": [ "locality", "political" ],
    "formatted_address": "Shorewood, WI, USA",
    "address_components": [ {
      "long_name": "Shorewood",
      "short_name": "Shorewood",
      "types": [ "locality", "political" ]
    }, {
      "long_name": "Milwaukee",
      "short_name": "Milwaukee",
      "types": [ "administrative_area_level_2", "political" ]
    }, {
      "long_name": "Wisconsin",
      "short_name": "WI",
      "types": [ "administrative_area_level_1", "political" ]
    }, {
      "long_name": "United States",
      "short_name": "US",
      "types": [ "country", "political" ]
    } ],
    "geometry": {
      "location": {
        "lat": 43.0891787,
        "lng": -87.8875848
      },
      "location_type": "APPROXIMATE",
      "viewport": {
        "southwest": {
          "lat": 43.0810296,
          "lng": -87.9035922
        },
        "northeast": {
          "lat": 43.0973267,
          "lng": -87.8715774
        }
      },
      "bounds": {
        "southwest": {
          "lat": 43.0818120,
          "lng": -87.9068850
        },
        "northeast": {
          "lat": 43.1005110,
          "lng": -87.8705839
        }
      }
    }
  } ]
}
