{
  "status": "OK",
  "results": [ {
    "types": [ "locality", "political" ],
    "formatted_address": "Siren, WI, USA",
    "address_components": [ {
      "long_name": "Siren",
      "short_name": "Siren",
      "types": [ "locality", "political" ]
    }, {
      "long_name": "Burnett",
      "short_name": "Burnett",
      "types": [ "administrative_area_level_2", "political" ]
    }, {
      "long_name": "Wisconsin",
      "short_name": "WI",
      "types": [ "administrative_area_level_1", "political" ]
    }, {
      "long_name": "United States",
      "short_name": "US",
      "types": [ "country", "political" ]
    } ],
    "geometry": {
      "location": {
        "lat": 45.7857818,
        "lng": -92.3810284
      },
      "location_type": "APPROXIMATE",
      "viewport": {
        "southwest": {
          "lat": 45.7702177,
          "lng": -92.4130432
        },
        "northeast": {
          "lat": 45.8013415,
          "lng": -92.3490136
        }
      },
      "bounds": {
        "southwest": {
          "lat": 45.7613489,
          "lng": -92.3967770
        },
        "northeast": {
          "lat": 45.7969049,
          "lng": -92.3691740
        }
      }
    }
  } ]
}
