{
  "status": "OK",
  "results": [ {
    "types": [ "locality", "political" ],
    "formatted_address": "Somerset, WI, USA",
    "address_components": [ {
      "long_name": "Somerset",
      "short_name": "Somerset",
      "types": [ "locality", "political" ]
    }, {
      "long_name": "St. Croix",
      "short_name": "St. Croix",
      "types": [ "administrative_area_level_2", "political" ]
    }, {
      "long_name": "Wisconsin",
      "short_name": "WI",
      "types": [ "administrative_area_level_1", "political" ]
    }, {
      "long_name": "United States",
      "short_name": "US",
      "types": [ "country", "political" ]
    } ],
    "geometry": {
      "location": {
        "lat": 45.1244108,
        "lng": -92.6735365
      },
      "location_type": "APPROXIMATE",
      "viewport": {
        "southwest": {
          "lat": 45.1086631,
          "lng": -92.7055513
        },
        "northeast": {
          "lat": 45.1401541,
          "lng": -92.6415217
        }
      },
      "bounds": {
        "southwest": {
          "lat": 45.1093339,
          "lng": -92.6904990
        },
        "northeast": {
          "lat": 45.1402172,
          "lng": -92.6520010
        }
      }
    }
  } ]
}
