{
  "status": "OK",
  "results": [ {
    "types": [ "locality", "political" ],
    "formatted_address": "South Milwaukee, WI, USA",
    "address_components": [ {
      "long_name": "South Milwaukee",
      "short_name": "South Milwaukee",
      "types": [ "locality", "political" ]
    }, {
      "long_name": "Milwaukee",
      "short_name": "Milwaukee",
      "types": [ "administrative_area_level_2", "political" ]
    }, {
      "long_name": "Wisconsin",
      "short_name": "WI",
      "types": [ "administrative_area_level_1", "political" ]
    }, {
      "long_name": "United States",
      "short_name": "US",
      "types": [ "country", "political" ]
    } ],
    "geometry": {
      "location": {
        "lat": 42.9105722,
        "lng": -87.8606367
      },
      "location_type": "APPROXIMATE",
      "viewport": {
        "southwest": {
          "lat": 42.8942254,
          "lng": -87.8926515
        },
        "northeast": {
          "lat": 42.9269146,
          "lng": -87.8286219
        }
      },
      "bounds": {
        "southwest": {
          "lat": 42.8931160,
          "lng": -87.8821810
        },
        "northeast": {
          "lat": 42.9302160,
          "lng": -87.8392800
        }
      }
    }
  } ]
}
