{
  "status": "OK",
  "results": [ {
    "types": [ "locality", "political" ],
    "formatted_address": "Spooner, WI, USA",
    "address_components": [ {
      "long_name": "Spooner",
      "short_name": "Spooner",
      "types": [ "locality", "political" ]
    }, {
      "long_name": "Washburn",
      "short_name": "Washburn",
      "types": [ "administrative_area_level_2", "political" ]
    }, {
      "long_name": "Wisconsin",
      "short_name": "WI",
      "types": [ "administrative_area_level_1", "political" ]
    }, {
      "long_name": "United States",
      "short_name": "US",
      "types": [ "country", "political" ]
    } ],
    "geometry": {
      "location": {
        "lat": 45.8224475,
        "lng": -91.8893431
      },
      "location_type": "APPROXIMATE",
      "viewport": {
        "southwest": {
          "lat": 45.8068937,
          "lng": -91.9213579
        },
        "northeast": {
          "lat": 45.8379970,
          "lng": -91.8573283
        }
      },
      "bounds": {
        "southwest": {
          "lat": 45.8090890,
          "lng": -91.9234889
        },
        "northeast": {
          "lat": 45.8470930,
          "lng": -91.8603500
        }
      }
    }
  } ]
}
