{
  "status": "OK",
  "results": [ {
    "types": [ "locality", "political" ],
    "formatted_address": "Strum, WI, USA",
    "address_components": [ {
      "long_name": "Strum",
      "short_name": "Strum",
      "types": [ "locality", "political" ]
    }, {
      "long_name": "Trempealeau",
      "short_name": "Trempealeau",
      "types": [ "administrative_area_level_2", "political" ]
    }, {
      "long_name": "Wisconsin",
      "short_name": "WI",
      "types": [ "administrative_area_level_1", "political" ]
    }, {
      "long_name": "United States",
      "short_name": "US",
      "types": [ "country", "political" ]
    } ],
    "geometry": {
      "location": {
        "lat": 44.5496859,
        "lng": -91.3926578
      },
      "location_type": "APPROXIMATE",
      "viewport": {
        "southwest": {
          "lat": 44.5417337,
          "lng": -91.4086652
        },
        "northeast": {
          "lat": 44.5576370,
          "lng": -91.3766504
        }
      },
      "bounds": {
        "southwest": {
          "lat": 44.5445909,
          "lng": -91.4026179
        },
        "northeast": {
          "lat": 44.5601879,
          "lng": -91.3637119
        }
      }
    }
  } ]
}
