{
  "status": "OK",
  "results": [ {
    "types": [ "locality", "political" ],
    "formatted_address": "Sturgeon Bay, WI, USA",
    "address_components": [ {
      "long_name": "Sturgeon Bay",
      "short_name": "Sturgeon Bay",
      "types": [ "locality", "political" ]
    }, {
      "long_name": "Door",
      "short_name": "Door",
      "types": [ "administrative_area_level_2", "political" ]
    }, {
      "long_name": "Wisconsin",
      "short_name": "WI",
      "types": [ "administrative_area_level_1", "political" ]
    }, {
      "long_name": "United States",
      "short_name": "US",
      "types": [ "country", "political" ]
    } ],
    "geometry": {
      "location": {
        "lat": 44.8341639,
        "lng": -87.3770419
      },
      "location_type": "APPROXIMATE",
      "viewport": {
        "southwest": {
          "lat": 44.8025044,
          "lng": -87.4410716
        },
        "northeast": {
          "lat": 44.8658060,
          "lng": -87.3130122
        }
      },
      "bounds": {
        "southwest": {
          "lat": 44.7916640,
          "lng": -87.4172200
        },
        "northeast": {
          "lat": 44.8606369,
          "lng": -87.3108029
        }
      }
    }
  } ]
}
