{
  "status": "OK",
  "results": [ {
    "types": [ "locality", "political" ],
    "formatted_address": "Tomah, WI, USA",
    "address_components": [ {
      "long_name": "Tomah",
      "short_name": "Tomah",
      "types": [ "locality", "political" ]
    }, {
      "long_name": "Monroe",
      "short_name": "Monroe",
      "types": [ "administrative_area_level_2", "political" ]
    }, {
      "long_name": "Wisconsin",
      "short_name": "WI",
      "types": [ "administrative_area_level_1", "political" ]
    }, {
      "long_name": "United States",
      "short_name": "US",
      "types": [ "country", "political" ]
    } ],
    "geometry": {
      "location": {
        "lat": 43.9785759,
        "lng": -90.5040214
      },
      "location_type": "APPROXIMATE",
      "viewport": {
        "southwest": {
          "lat": 43.9464501,
          "lng": -90.5680511
        },
        "northeast": {
          "lat": 44.0106843,
          "lng": -90.4399917
        }
      },
      "bounds": {
        "southwest": {
          "lat": 43.9545710,
          "lng": -90.5379990
        },
        "northeast": {
          "lat": 44.0259840,
          "lng": -90.4596590
        }
      }
    }
  } ]
}
