{
  "status": "OK",
  "results": [ {
    "types": [ "locality", "political" ],
    "formatted_address": "Watertown, WI, USA",
    "address_components": [ {
      "long_name": "Watertown",
      "short_name": "Watertown",
      "types": [ "locality", "political" ]
    }, {
      "long_name": "Jefferson",
      "short_name": "Jefferson",
      "types": [ "administrative_area_level_2", "political" ]
    }, {
      "long_name": "Wisconsin",
      "short_name": "WI",
      "types": [ "administrative_area_level_1", "political" ]
    }, {
      "long_name": "United States",
      "short_name": "US",
      "types": [ "country", "political" ]
    } ],
    "geometry": {
      "location": {
        "lat": 43.1947211,
        "lng": -88.7289918
      },
      "location_type": "APPROXIMATE",
      "viewport": {
        "southwest": {
          "lat": 43.1621743,
          "lng": -88.7930215
        },
        "northeast": {
          "lat": 43.2272505,
          "lng": -88.6649621
        }
      },
      "bounds": {
        "southwest": {
          "lat": 43.1520260,
          "lng": -88.7705759
        },
        "northeast": {
          "lat": 43.2338300,
          "lng": -88.6889180
        }
      }
    }
  } ]
}
