{
  "status": "OK",
  "results": [ {
    "types": [ "locality", "political" ],
    "formatted_address": "West Milwaukee, WI, USA",
    "address_components": [ {
      "long_name": "West Milwaukee",
      "short_name": "West Milwaukee",
      "types": [ "locality", "political" ]
    }, {
      "long_name": "Milwaukee",
      "short_name": "Milwaukee",
      "types": [ "administrative_area_level_2", "political" ]
    }, {
      "long_name": "Wisconsin",
      "short_name": "WI",
      "types": [ "administrative_area_level_1", "political" ]
    }, {
      "long_name": "United States",
      "short_name": "US",
      "types": [ "country", "political" ]
    } ],
    "geometry": {
      "location": {
        "lat": 43.0125142,
        "lng": -87.9725861
      },
      "location_type": "APPROXIMATE",
      "viewport": {
        "southwest": {
          "lat": 43.0043549,
          "lng": -87.9885935
        },
        "northeast": {
          "lat": 43.0206724,
          "lng": -87.9565787
        }
      },
      "bounds": {
        "southwest": {
          "lat": 43.0005139,
          "lng": -87.9827859
        },
        "northeast": {
          "lat": 43.0243130,
          "lng": -87.9610850
        }
      }
    }
  } ]
}
