{
  "status": "OK",
  "results": [ {
    "types": [ "locality", "political" ],
    "formatted_address": "West Salem, WI, USA",
    "address_components": [ {
      "long_name": "West Salem",
      "short_name": "West Salem",
      "types": [ "locality", "political" ]
    }, {
      "long_name": "La Crosse",
      "short_name": "La Crosse",
      "types": [ "administrative_area_level_2", "political" ]
    }, {
      "long_name": "Wisconsin",
      "short_name": "WI",
      "types": [ "administrative_area_level_1", "political" ]
    }, {
      "long_name": "United States",
      "short_name": "US",
      "types": [ "country", "political" ]
    } ],
    "geometry": {
      "location": {
        "lat": 43.8991321,
        "lng": -91.0812465
      },
      "location_type": "APPROXIMATE",
      "viewport": {
        "southwest": {
          "lat": 43.8830499,
          "lng": -91.1132613
        },
        "northeast": {
          "lat": 43.9152100,
          "lng": -91.0492317
        }
      },
      "bounds": {
        "southwest": {
          "lat": 43.8884319,
          "lng": -91.1152300
        },
        "northeast": {
          "lat": 43.9115610,
          "lng": -91.0518829
        }
      }
    }
  } ]
}
