{
  "status": "OK",
  "results": [ {
    "types": [ "locality", "political" ],
    "formatted_address": "Belfast, ME, USA",
    "address_components": [ {
      "long_name": "Belfast",
      "short_name": "Belfast",
      "types": [ "locality", "political" ]
    }, {
      "long_name": "Waldo",
      "short_name": "Waldo",
      "types": [ "administrative_area_level_2", "political" ]
    }, {
      "long_name": "Maine",
      "short_name": "ME",
      "types": [ "administrative_area_level_1", "political" ]
    }, {
      "long_name": "United States",
      "short_name": "US",
      "types": [ "country", "political" ]
    } ],
    "geometry": {
      "location": {
        "lat": 44.4259092,
        "lng": -69.0064234
      },
      "location_type": "APPROXIMATE",
      "viewport": {
        "southwest": {
          "lat": 44.3621261,
          "lng": -69.1344828
        },
        "northeast": {
          "lat": 44.4896228,
          "lng": -68.8783640
        }
      },
      "bounds": {
        "southwest": {
          "lat": 44.3673490,
          "lng": -69.1181910
        },
        "northeast": {
          "lat": 44.4920210,
          "lng": -68.9552640
        }
      }
    }
  } ]
}
