{
  "status": "OK",
  "results": [ {
    "types": [ "locality", "political" ],
    "formatted_address": "Berwick, ME, USA",
    "address_components": [ {
      "long_name": "Berwick",
      "short_name": "Berwick",
      "types": [ "locality", "political" ]
    }, {
      "long_name": "York",
      "short_name": "York",
      "types": [ "administrative_area_level_2", "political" ]
    }, {
      "long_name": "Maine",
      "short_name": "ME",
      "types": [ "administrative_area_level_1", "political" ]
    }, {
      "long_name": "United States",
      "short_name": "US",
      "types": [ "country", "political" ]
    } ],
    "geometry": {
      "location": {
        "lat": 43.2659168,
        "lng": -70.8645039
      },
      "location_type": "APPROXIMATE",
      "viewport": {
        "southwest": {
          "lat": 43.2496646,
          "lng": -70.8965187
        },
        "northeast": {
          "lat": 43.2821647,
          "lng": -70.8324891
        }
      },
      "bounds": {
        "southwest": {
          "lat": 43.2541550,
          "lng": -70.8837109
        },
        "northeast": {
          "lat": 43.2851549,
          "lng": -70.8417920
        }
      }
    }
  } ]
}
