{
  "status": "OK",
  "results": [ {
    "types": [ "locality", "political" ],
    "formatted_address": "Biddeford, ME, USA",
    "address_components": [ {
      "long_name": "Biddeford",
      "short_name": "Biddeford",
      "types": [ "locality", "political" ]
    }, {
      "long_name": "York",
      "short_name": "York",
      "types": [ "administrative_area_level_2", "political" ]
    }, {
      "long_name": "Maine",
      "short_name": "ME",
      "types": [ "administrative_area_level_1", "political" ]
    }, {
      "long_name": "United States",
      "short_name": "US",
      "types": [ "country", "political" ]
    } ],
    "geometry": {
      "location": {
        "lat": 43.4925843,
        "lng": -70.4533844
      },
      "location_type": "APPROXIMATE",
      "viewport": {
        "southwest": {
          "lat": 43.4277919,
          "lng": -70.5814438
        },
        "northeast": {
          "lat": 43.5573073,
          "lng": -70.3253250
        }
      },
      "bounds": {
        "southwest": {
          "lat": 43.3937780,
          "lng": -70.5652060
        },
        "northeast": {
          "lat": 43.5454680,
          "lng": -70.3142470
        }
      }
    }
  } ]
}
