{
  "status": "OK",
  "results": [ {
    "types": [ "locality", "political" ],
    "formatted_address": "Boothbay Harbor, ME, USA",
    "address_components": [ {
      "long_name": "Boothbay Harbor",
      "short_name": "Boothbay Harbor",
      "types": [ "locality", "political" ]
    }, {
      "long_name": "Lincoln",
      "short_name": "Lincoln",
      "types": [ "administrative_area_level_2", "political" ]
    }, {
      "long_name": "Maine",
      "short_name": "ME",
      "types": [ "administrative_area_level_1", "political" ]
    }, {
      "long_name": "United States",
      "short_name": "US",
      "types": [ "country", "political" ]
    } ],
    "geometry": {
      "location": {
        "lat": 43.8523045,
        "lng": -69.6281014
      },
      "location_type": "APPROXIMATE",
      "viewport": {
        "southwest": {
          "lat": 43.8442576,
          "lng": -69.6441088
        },
        "northeast": {
          "lat": 43.8603503,
          "lng": -69.6120940
        }
      },
      "bounds": {
        "southwest": {
          "lat": 43.8464750,
          "lng": -69.6361110
        },
        "northeast": {
          "lat": 43.8653220,
          "lng": -69.6119940
        }
      }
    }
  } ]
}
