{
  "status": "OK",
  "results": [ {
    "types": [ "locality", "political" ],
    "formatted_address": "Brunswick, ME, USA",
    "address_components": [ {
      "long_name": "Brunswick",
      "short_name": "Brunswick",
      "types": [ "locality", "political" ]
    }, {
      "long_name": "Cumberland",
      "short_name": "Cumberland",
      "types": [ "administrative_area_level_2", "political" ]
    }, {
      "long_name": "Maine",
      "short_name": "ME",
      "types": [ "administrative_area_level_1", "political" ]
    }, {
      "long_name": "United States",
      "short_name": "US",
      "types": [ "country", "political" ]
    } ],
    "geometry": {
      "location": {
        "lat": 43.9145244,
        "lng": -69.9653278
      },
      "location_type": "APPROXIMATE",
      "viewport": {
        "southwest": {
          "lat": 43.8501861,
          "lng": -70.0933872
        },
        "northeast": {
          "lat": 43.9787932,
          "lng": -69.8372684
        }
      },
      "bounds": {
        "southwest": {
          "lat": 43.8576709,
          "lng": -70.0290179
        },
        "northeast": {
          "lat": 43.9536040,
          "lng": -69.8570720
        }
      }
    }
  } ]
}
