{
  "status": "OK",
  "results": [ {
    "types": [ "locality", "political" ],
    "formatted_address": "Dixfield, ME, USA",
    "address_components": [ {
      "long_name": "Dixfield",
      "short_name": "Dixfield",
      "types": [ "locality", "political" ]
    }, {
      "long_name": "Oxford",
      "short_name": "Oxford",
      "types": [ "administrative_area_level_2", "political" ]
    }, {
      "long_name": "Maine",
      "short_name": "ME",
      "types": [ "administrative_area_level_1", "political" ]
    }, {
      "long_name": "United States",
      "short_name": "US",
      "types": [ "country", "political" ]
    } ],
    "geometry": {
      "location": {
        "lat": 44.5339528,
        "lng": -70.4558971
      },
      "location_type": "APPROXIMATE",
      "viewport": {
        "southwest": {
          "lat": 44.5180430,
          "lng": -70.4879119
        },
        "northeast": {
          "lat": 44.5498582,
          "lng": -70.4238823
        }
      },
      "bounds": {
        "southwest": {
          "lat": 44.5235140,
          "lng": -70.4614940
        },
        "northeast": {
          "lat": 44.5522930,
          "lng": -70.4320250
        }
      }
    }
  } ]
}
