{
  "status": "OK",
  "results": [ {
    "types": [ "locality", "political" ],
    "formatted_address": "Freeport, ME, USA",
    "address_components": [ {
      "long_name": "Freeport",
      "short_name": "Freeport",
      "types": [ "locality", "political" ]
    }, {
      "long_name": "Cumberland",
      "short_name": "Cumberland",
      "types": [ "administrative_area_level_2", "political" ]
    }, {
      "long_name": "Maine",
      "short_name": "ME",
      "types": [ "administrative_area_level_1", "political" ]
    }, {
      "long_name": "United States",
      "short_name": "US",
      "types": [ "country", "political" ]
    } ],
    "geometry": {
      "location": {
        "lat": 43.8570242,
        "lng": -70.1031057
      },
      "location_type": "APPROXIMATE",
      "viewport": {
        "southwest": {
          "lat": 43.8409306,
          "lng": -70.1351205
        },
        "northeast": {
          "lat": 43.8731134,
          "lng": -70.0710909
        }
      },
      "bounds": {
        "southwest": {
          "lat": 43.8352549,
          "lng": -70.1225429
        },
        "northeast": {
          "lat": 43.8743170,
          "lng": -70.0818690
        }
      }
    }
  } ]
}
