{
  "status": "OK",
  "results": [ {
    "types": [ "locality", "political" ],
    "formatted_address": "Gardiner, ME, USA",
    "address_components": [ {
      "long_name": "Gardiner",
      "short_name": "Gardiner",
      "types": [ "locality", "political" ]
    }, {
      "long_name": "Kennebec",
      "short_name": "Kennebec",
      "types": [ "administrative_area_level_2", "political" ]
    }, {
      "long_name": "Maine",
      "short_name": "ME",
      "types": [ "administrative_area_level_1", "political" ]
    }, {
      "long_name": "United States",
      "short_name": "US",
      "types": [ "country", "political" ]
    } ],
    "geometry": {
      "location": {
        "lat": 44.2300698,
        "lng": -69.7753222
      },
      "location_type": "APPROXIMATE",
      "viewport": {
        "southwest": {
          "lat": 44.1660735,
          "lng": -69.9033816
        },
        "northeast": {
          "lat": 44.2939966,
          "lng": -69.6472628
        }
      },
      "bounds": {
        "southwest": {
          "lat": 44.1532730,
          "lng": -69.8549160
        },
        "northeast": {
          "lat": 44.2386229,
          "lng": -69.7522470
        }
      }
    }
  } ]
}
