{
  "status": "OK",
  "results": [ {
    "types": [ "locality", "political" ],
    "formatted_address": "Hallowell, ME, USA",
    "address_components": [ {
      "long_name": "Hallowell",
      "short_name": "Hallowell",
      "types": [ "locality", "political" ]
    }, {
      "long_name": "Kennebec",
      "short_name": "Kennebec",
      "types": [ "administrative_area_level_2", "political" ]
    }, {
      "long_name": "Maine",
      "short_name": "ME",
      "types": [ "administrative_area_level_1", "political" ]
    }, {
      "long_name": "United States",
      "short_name": "US",
      "types": [ "country", "political" ]
    } ],
    "geometry": {
      "location": {
        "lat": 44.2859022,
        "lng": -69.7908786
      },
      "location_type": "APPROXIMATE",
      "viewport": {
        "southwest": {
          "lat": 44.2539431,
          "lng": -69.8549083
        },
        "northeast": {
          "lat": 44.3178439,
          "lng": -69.7268489
        }
      },
      "bounds": {
        "southwest": {
          "lat": 44.2617020,
          "lng": -69.8526399
        },
        "northeast": {
          "lat": 44.3147030,
          "lng": -69.7783610
        }
      }
    }
  } ]
}
