{
  "status": "OK",
  "results": [ {
    "types": [ "locality", "political" ],
    "formatted_address": "Hampden, ME, USA",
    "address_components": [ {
      "long_name": "Hampden",
      "short_name": "Hampden",
      "types": [ "locality", "political" ]
    }, {
      "long_name": "Penobscot",
      "short_name": "Penobscot",
      "types": [ "administrative_area_level_2", "political" ]
    }, {
      "long_name": "Maine",
      "short_name": "ME",
      "types": [ "administrative_area_level_1", "political" ]
    }, {
      "long_name": "United States",
      "short_name": "US",
      "types": [ "country", "political" ]
    } ],
    "geometry": {
      "location": {
        "lat": 44.7445159,
        "lng": -68.8369820
      },
      "location_type": "APPROXIMATE",
      "viewport": {
        "southwest": {
          "lat": 44.7128072,
          "lng": -68.9010117
        },
        "northeast": {
          "lat": 44.7762072,
          "lng": -68.7729523
        }
      },
      "bounds": {
        "southwest": {
          "lat": 44.6978370,
          "lng": -68.8707470
        },
        "northeast": {
          "lat": 44.7837709,
          "lng": -68.7812800
        }
      }
    }
  } ]
}
