{
  "status": "OK",
  "results": [ {
    "types": [ "locality", "political" ],
    "formatted_address": "Houlton, ME, USA",
    "address_components": [ {
      "long_name": "Houlton",
      "short_name": "Houlton",
      "types": [ "locality", "political" ]
    }, {
      "long_name": "Aroostook",
      "short_name": "Aroostook",
      "types": [ "administrative_area_level_2", "political" ]
    }, {
      "long_name": "Maine",
      "short_name": "ME",
      "types": [ "administrative_area_level_1", "political" ]
    }, {
      "long_name": "United States",
      "short_name": "US",
      "types": [ "country", "political" ]
    } ],
    "geometry": {
      "location": {
        "lat": 46.1261637,
        "lng": -67.8402961
      },
      "location_type": "APPROXIMATE",
      "viewport": {
        "southwest": {
          "lat": 46.1106949,
          "lng": -67.8723109
        },
        "northeast": {
          "lat": 46.1416281,
          "lng": -67.8082813
        }
      },
      "bounds": {
        "southwest": {
          "lat": 46.0950489,
          "lng": -67.8785159
        },
        "northeast": {
          "lat": 46.1432840,
          "lng": -67.8054860
        }
      }
    }
  } ]
}
