{
  "status": "OK",
  "results": [ {
    "types": [ "locality", "political" ],
    "formatted_address": "Limestone, ME, USA",
    "address_components": [ {
      "long_name": "Limestone",
      "short_name": "Limestone",
      "types": [ "locality", "political" ]
    }, {
      "long_name": "Aroostook",
      "short_name": "Aroostook",
      "types": [ "administrative_area_level_2", "political" ]
    }, {
      "long_name": "Maine",
      "short_name": "ME",
      "types": [ "administrative_area_level_1", "political" ]
    }, {
      "long_name": "United States",
      "short_name": "US",
      "types": [ "country", "political" ]
    } ],
    "geometry": {
      "location": {
        "lat": 46.9086553,
        "lng": -67.8258517
      },
      "location_type": "APPROXIMATE",
      "viewport": {
        "southwest": {
          "lat": 46.8934077,
          "lng": -67.8578665
        },
        "northeast": {
          "lat": 46.9238986,
          "lng": -67.7938369
        }
      },
      "bounds": {
        "southwest": {
          "lat": 46.8996209,
          "lng": -67.8523910
        },
        "northeast": {
          "lat": 46.9293550,
          "lng": -67.8073419
        }
      }
    }
  } ]
}
