{
  "status": "OK",
  "results": [ {
    "types": [ "locality", "political" ],
    "formatted_address": "Machias, ME, USA",
    "address_components": [ {
      "long_name": "Machias",
      "short_name": "Machias",
      "types": [ "locality", "political" ]
    }, {
      "long_name": "Washington",
      "short_name": "Washington",
      "types": [ "administrative_area_level_2", "political" ]
    }, {
      "long_name": "Maine",
      "short_name": "ME",
      "types": [ "administrative_area_level_1", "political" ]
    }, {
      "long_name": "United States",
      "short_name": "US",
      "types": [ "country", "political" ]
    } ],
    "geometry": {
      "location": {
        "lat": 44.7150773,
        "lng": -67.4613805
      },
      "location_type": "APPROXIMATE",
      "viewport": {
        "southwest": {
          "lat": 44.6992171,
          "lng": -67.4933953
        },
        "northeast": {
          "lat": 44.7309332,
          "lng": -67.4293657
        }
      },
      "bounds": {
        "southwest": {
          "lat": 44.6861350,
          "lng": -67.4995790
        },
        "northeast": {
          "lat": 44.7198930,
          "lng": -67.4500480
        }
      }
    }
  } ]
}
