{
  "status": "OK",
  "results": [ {
    "types": [ "locality", "political" ],
    "formatted_address": "Madawaska, ME, USA",
    "address_components": [ {
      "long_name": "Madawaska",
      "short_name": "Madawaska",
      "types": [ "locality", "political" ]
    }, {
      "long_name": "Aroostook",
      "short_name": "Aroostook",
      "types": [ "administrative_area_level_2", "political" ]
    }, {
      "long_name": "Maine",
      "short_name": "ME",
      "types": [ "administrative_area_level_1", "political" ]
    }, {
      "long_name": "United States",
      "short_name": "US",
      "types": [ "country", "political" ]
    } ],
    "geometry": {
      "location": {
        "lat": 47.3553178,
        "lng": -68.3217084
      },
      "location_type": "APPROXIMATE",
      "viewport": {
        "southwest": {
          "lat": 47.3250732,
          "lng": -68.3857381
        },
        "northeast": {
          "lat": 47.3855450,
          "lng": -68.2576787
        }
      },
      "bounds": {
        "southwest": {
          "lat": 47.3206170,
          "lng": -68.3611030
        },
        "northeast": {
          "lat": 47.3594079,
          "lng": -68.2941929
        }
      }
    }
  } ]
}
