{
  "status": "OK",
  "results": [ {
    "types": [ "locality", "political" ],
    "formatted_address": "Milo, ME, USA",
    "address_components": [ {
      "long_name": "Milo",
      "short_name": "Milo",
      "types": [ "locality", "political" ]
    }, {
      "long_name": "Piscataquis",
      "short_name": "Piscataquis",
      "types": [ "administrative_area_level_2", "political" ]
    }, {
      "long_name": "Maine",
      "short_name": "ME",
      "types": [ "administrative_area_level_1", "political" ]
    }, {
      "long_name": "United States",
      "short_name": "US",
      "types": [ "country", "political" ]
    } ],
    "geometry": {
      "location": {
        "lat": 45.2536633,
        "lng": -68.9858713
      },
      "location_type": "APPROXIMATE",
      "viewport": {
        "southwest": {
          "lat": 45.2222351,
          "lng": -69.0499010
        },
        "northeast": {
          "lat": 45.2850741,
          "lng": -68.9218416
        }
      },
      "bounds": {
        "southwest": {
          "lat": 45.2233580,
          "lng": -69.0238179
        },
        "northeast": {
          "lat": 45.2709959,
          "lng": -68.9167750
        }
      }
    }
  } ]
}
