{
  "status": "OK",
  "results": [ {
    "types": [ "locality", "political" ],
    "formatted_address": "Oakland, ME, USA",
    "address_components": [ {
      "long_name": "Oakland",
      "short_name": "Oakland",
      "types": [ "locality", "political" ]
    }, {
      "long_name": "Kennebec",
      "short_name": "Kennebec",
      "types": [ "administrative_area_level_2", "political" ]
    }, {
      "long_name": "Maine",
      "short_name": "ME",
      "types": [ "administrative_area_level_1", "political" ]
    }, {
      "long_name": "United States",
      "short_name": "US",
      "types": [ "country", "political" ]
    } ],
    "geometry": {
      "location": {
        "lat": 44.5403436,
        "lng": -69.7219916
      },
      "location_type": "APPROXIMATE",
      "viewport": {
        "southwest": {
          "lat": 44.5085232,
          "lng": -69.7860213
        },
        "northeast": {
          "lat": 44.5721466,
          "lng": -69.6579619
        }
      },
      "bounds": {
        "southwest": {
          "lat": 44.5277780,
          "lng": -69.7428240
        },
        "northeast": {
          "lat": 44.5824340,
          "lng": -69.6760429
        }
      }
    }
  } ]
}
