{
  "status": "OK",
  "results": [ {
    "types": [ "locality", "political" ],
    "formatted_address": "Portland, ME, USA",
    "address_components": [ {
      "long_name": "Portland",
      "short_name": "Portland",
      "types": [ "locality", "political" ]
    }, {
      "long_name": "Cumberland",
      "short_name": "Cumberland",
      "types": [ "administrative_area_level_2", "political" ]
    }, {
      "long_name": "Maine",
      "short_name": "ME",
      "types": [ "administrative_area_level_1", "political" ]
    }, {
      "long_name": "United States",
      "short_name": "US",
      "types": [ "country", "political" ]
    } ],
    "geometry": {
      "location": {
        "lat": 43.6614710,
        "lng": -70.2553259
      },
      "location_type": "APPROXIMATE",
      "viewport": {
        "southwest": {
          "lat": 43.5968599,
          "lng": -70.3833853
        },
        "northeast": {
          "lat": 43.7260126,
          "lng": -70.1272665
        }
      },
      "bounds": {
        "southwest": {
          "lat": 43.6063629,
          "lng": -70.3460949
        },
        "northeast": {
          "lat": 43.7276580,
          "lng": -70.0769349
        }
      }
    }
  } ]
}
