{
  "status": "OK",
  "results": [ {
    "types": [ "locality", "political" ],
    "formatted_address": "Rumford, ME, USA",
    "address_components": [ {
      "long_name": "Rumford",
      "short_name": "Rumford",
      "types": [ "locality", "political" ]
    }, {
      "long_name": "Oxford",
      "short_name": "Oxford",
      "types": [ "administrative_area_level_2", "political" ]
    }, {
      "long_name": "Maine",
      "short_name": "ME",
      "types": [ "administrative_area_level_1", "political" ]
    }, {
      "long_name": "United States",
      "short_name": "US",
      "types": [ "country", "political" ]
    } ],
    "geometry": {
      "location": {
        "lat": 44.5536746,
        "lng": -70.5508990
      },
      "location_type": "APPROXIMATE",
      "viewport": {
        "southwest": {
          "lat": 44.5218615,
          "lng": -70.6149287
        },
        "northeast": {
          "lat": 44.5854704,
          "lng": -70.4868693
        }
      },
      "bounds": {
        "southwest": {
          "lat": 44.5147980,
          "lng": -70.6100800
        },
        "northeast": {
          "lat": 44.5855059,
          "lng": -70.5338110
        }
      }
    }
  } ]
}
