{
  "status": "OK",
  "results": [ {
    "types": [ "locality", "political" ],
    "formatted_address": "Thomaston, ME, USA",
    "address_components": [ {
      "long_name": "Thomaston",
      "short_name": "Thomaston",
      "types": [ "locality", "political" ]
    }, {
      "long_name": "Knox",
      "short_name": "Knox",
      "types": [ "administrative_area_level_2", "political" ]
    }, {
      "long_name": "Maine",
      "short_name": "ME",
      "types": [ "administrative_area_level_1", "political" ]
    }, {
      "long_name": "United States",
      "short_name": "US",
      "types": [ "country", "political" ]
    } ],
    "geometry": {
      "location": {
        "lat": 44.0789697,
        "lng": -69.1817103
      },
      "location_type": "APPROXIMATE",
      "viewport": {
        "southwest": {
          "lat": 44.0629361,
          "lng": -69.2137251
        },
        "northeast": {
          "lat": 44.0949989,
          "lng": -69.1496955
        }
      },
      "bounds": {
        "southwest": {
          "lat": 44.0667350,
          "lng": -69.2094250
        },
        "northeast": {
          "lat": 44.0920500,
          "lng": -69.1542879
        }
      }
    }
  } ]
}
