{
  "status": "OK",
  "results": [ {
    "types": [ "locality", "political" ],
    "formatted_address": "Westbrook, ME, USA",
    "address_components": [ {
      "long_name": "Westbrook",
      "short_name": "Westbrook",
      "types": [ "locality", "political" ]
    }, {
      "long_name": "Cumberland",
      "short_name": "Cumberland",
      "types": [ "administrative_area_level_2", "political" ]
    }, {
      "long_name": "Maine",
      "short_name": "ME",
      "types": [ "administrative_area_level_1", "political" ]
    }, {
      "long_name": "United States",
      "short_name": "US",
      "types": [ "country", "political" ]
    } ],
    "geometry": {
      "location": {
        "lat": 43.6770252,
        "lng": -70.3711617
      },
      "location_type": "APPROXIMATE",
      "viewport": {
        "southwest": {
          "lat": 43.6447367,
          "lng": -70.4351914
        },
        "northeast": {
          "lat": 43.7092963,
          "lng": -70.3071320
        }
      },
      "bounds": {
        "southwest": {
          "lat": 43.6427819,
          "lng": -70.3919360
        },
        "northeast": {
          "lat": 43.7523370,
          "lng": -70.3110670
        }
      }
    }
  } ]
}
