{
  "status": "OK",
  "results": [ {
    "types": [ "locality", "political" ],
    "formatted_address": "Wilton, ME, USA",
    "address_components": [ {
      "long_name": "Wilton",
      "short_name": "Wilton",
      "types": [ "locality", "political" ]
    }, {
      "long_name": "Franklin",
      "short_name": "Franklin",
      "types": [ "administrative_area_level_2", "political" ]
    }, {
      "long_name": "Maine",
      "short_name": "ME",
      "types": [ "administrative_area_level_1", "political" ]
    }, {
      "long_name": "United States",
      "short_name": "US",
      "types": [ "country", "political" ]
    } ],
    "geometry": {
      "location": {
        "lat": 44.5928394,
        "lng": -70.2281170
      },
      "location_type": "APPROXIMATE",
      "viewport": {
        "southwest": {
          "lat": 44.5769457,
          "lng": -70.2601318
        },
        "northeast": {
          "lat": 44.6087287,
          "lng": -70.1961022
        }
      },
      "bounds": {
        "southwest": {
          "lat": 44.5785310,
          "lng": -70.2736000
        },
        "northeast": {
          "lat": 44.6157490,
          "lng": -70.1947150
        }
      }
    }
  } ]
}
