{
  "status": "OK",
  "results": [ {
    "types": [ "locality", "political" ],
    "formatted_address": "Harvey, ND, USA",
    "address_components": [ {
      "long_name": "Harvey",
      "short_name": "Harvey",
      "types": [ "locality", "political" ]
    }, {
      "long_name": "Wells",
      "short_name": "Wells",
      "types": [ "administrative_area_level_2", "political" ]
    }, {
      "long_name": "North Dakota",
      "short_name": "ND",
      "types": [ "administrative_area_level_1", "political" ]
    }, {
      "long_name": "United States",
      "short_name": "US",
      "types": [ "country", "political" ]
    } ],
    "geometry": {
      "location": {
        "lat": 47.7697230,
        "lng": -99.9354040
      },
      "location_type": "APPROXIMATE",
      "viewport": {
        "southwest": {
          "lat": 47.7547220,
          "lng": -99.9674188
        },
        "northeast": {
          "lat": 47.7847197,
          "lng": -99.9033892
        }
      },
      "bounds": {
        "southwest": {
          "lat": 47.7599380,
          "lng": -99.9523670
        },
        "northeast": {
          "lat": 47.7950830,
          "lng": -99.9055400
        }
      }
    }
  } ]
}
