{
  "status": "OK",
  "results": [ {
    "types": [ "locality", "political" ],
    "formatted_address": "Oakes, ND 58474, USA",
    "address_components": [ {
      "long_name": "Oakes",
      "short_name": "Oakes",
      "types": [ "locality", "political" ]
    }, {
      "long_name": "Dickey",
      "short_name": "Dickey",
      "types": [ "administrative_area_level_2", "political" ]
    }, {
      "long_name": "North Dakota",
      "short_name": "ND",
      "types": [ "administrative_area_level_1", "political" ]
    }, {
      "long_name": "United States",
      "short_name": "US",
      "types": [ "country", "political" ]
    }, {
      "long_name": "58474",
      "short_name": "58474",
      "types": [ "postal_code" ]
    } ],
    "geometry": {
      "location": {
        "lat": 46.1385786,
        "lng": -98.0903794
      },
      "location_type": "APPROXIMATE",
      "viewport": {
        "southwest": {
          "lat": 46.1231133,
          "lng": -98.1223942
        },
        "northeast": {
          "lat": 46.1540395,
          "lng": -98.0583646
        }
      },
      "bounds": {
        "southwest": {
          "lat": 46.1273580,
          "lng": -98.1011480
        },
        "northeast": {
          "lat": 46.1578839,
          "lng": -98.0729820
        }
      }
    }
  } ]
}
