{
  "status": "OK",
  "results": [ {
    "types": [ "locality", "political" ],
    "formatted_address": "Thompson, ND, USA",
    "address_components": [ {
      "long_name": "Thompson",
      "short_name": "Thompson",
      "types": [ "locality", "political" ]
    }, {
      "long_name": "Grand Forks",
      "short_name": "Grand Forks",
      "types": [ "administrative_area_level_2", "political" ]
    }, {
      "long_name": "North Dakota",
      "short_name": "ND",
      "types": [ "administrative_area_level_1", "political" ]
    }, {
      "long_name": "United States",
      "short_name": "US",
      "types": [ "country", "political" ]
    } ],
    "geometry": {
      "location": {
        "lat": 47.7735899,
        "lng": -97.1098050
      },
      "location_type": "APPROXIMATE",
      "viewport": {
        "southwest": {
          "lat": 47.7660905,
          "lng": -97.1258124
        },
        "northeast": {
          "lat": 47.7810882,
          "lng": -97.0937976
        }
      },
      "bounds": {
        "southwest": {
          "lat": 47.7690930,
          "lng": -97.1155040
        },
        "northeast": {
          "lat": 47.7810280,
          "lng": -97.0988239
        }
      }
    }
  } ]
}
