{
  "status": "OK",
  "results": [ {
    "types": [ "locality", "political" ],
    "formatted_address": "West Fargo, ND, USA",
    "address_components": [ {
      "long_name": "West Fargo",
      "short_name": "West Fargo",
      "types": [ "locality", "political" ]
    }, {
      "long_name": "Cass",
      "short_name": "Cass",
      "types": [ "administrative_area_level_2", "political" ]
    }, {
      "long_name": "North Dakota",
      "short_name": "ND",
      "types": [ "administrative_area_level_1", "political" ]
    }, {
      "long_name": "United States",
      "short_name": "US",
      "types": [ "country", "political" ]
    } ],
    "geometry": {
      "location": {
        "lat": 46.8717490,
        "lng": -96.8949660
      },
      "location_type": "APPROXIMATE",
      "viewport": {
        "southwest": {
          "lat": 46.8412284,
          "lng": -96.9589957
        },
        "northeast": {
          "lat": 46.9022522,
          "lng": -96.8309363
        }
      },
      "bounds": {
        "southwest": {
          "lat": 46.8039519,
          "lng": -96.9593500
        },
        "northeast": {
          "lat": 46.9061960,
          "lng": -96.8616040
        }
      }
    }
  } ]
}
