{
  "status": "OK",
  "results": [ {
    "types": [ "locality", "political" ],
    "formatted_address": "Williston, ND, USA",
    "address_components": [ {
      "long_name": "Williston",
      "short_name": "Williston",
      "types": [ "locality", "political" ]
    }, {
      "long_name": "Williams",
      "short_name": "Williams",
      "types": [ "administrative_area_level_2", "political" ]
    }, {
      "long_name": "North Dakota",
      "short_name": "ND",
      "types": [ "administrative_area_level_1", "political" ]
    }, {
      "long_name": "United States",
      "short_name": "US",
      "types": [ "country", "political" ]
    } ],
    "geometry": {
      "location": {
        "lat": 48.1469683,
        "lng": -103.6179745
      },
      "location_type": "APPROXIMATE",
      "viewport": {
        "southwest": {
          "lat": 48.1171802,
          "lng": -103.6820042
        },
        "northeast": {
          "lat": 48.1767391,
          "lng": -103.5539448
        }
      },
      "bounds": {
        "southwest": {
          "lat": 48.1396249,
          "lng": -103.6692750
        },
        "northeast": {
          "lat": 48.1904670,
          "lng": -103.5766760
        }
      }
    }
  } ]
}
