{
  "status": "OK",
  "results": [ {
    "types": [ "locality", "political" ],
    "formatted_address": "Alma, MO, USA",
    "address_components": [ {
      "long_name": "Alma",
      "short_name": "Alma",
      "types": [ "locality", "political" ]
    }, {
      "long_name": "Lafayette",
      "short_name": "Lafayette",
      "types": [ "administrative_area_level_2", "political" ]
    }, {
      "long_name": "Missouri",
      "short_name": "MO",
      "types": [ "administrative_area_level_1", "political" ]
    }, {
      "long_name": "United States",
      "short_name": "US",
      "types": [ "country", "political" ]
    } ],
    "geometry": {
      "location": {
        "lat": 39.0952954,
        "lng": -93.5452125
      },
      "location_type": "APPROXIMATE",
      "viewport": {
        "southwest": {
          "lat": 39.0866352,
          "lng": -93.5612199
        },
        "northeast": {
          "lat": 39.1039546,
          "lng": -93.5292051
        }
      },
      "bounds": {
        "southwest": {
          "lat": 39.0908710,
          "lng": -93.5513340
        },
        "northeast": {
          "lat": 39.1020640,
          "lng": -93.5427510
        }
      }
    }
  } ]
}
