{
  "status": "OK",
  "results": [ {
    "types": [ "locality", "political" ],
    "formatted_address": "Town and Country, MO, USA",
    "address_components": [ {
      "long_name": "Town and Country",
      "short_name": "Town and Country",
      "types": [ "locality", "political" ]
    }, {
      "long_name": "St Louis",
      "short_name": "St Louis",
      "types": [ "administrative_area_level_2", "political" ]
    }, {
      "long_name": "Missouri",
      "short_name": "MO",
      "types": [ "administrative_area_level_1", "political" ]
    }, {
      "long_name": "United States",
      "short_name": "US",
      "types": [ "country", "political" ]
    } ],
    "geometry": {
      "location": {
        "lat": 38.6122751,
        "lng": -90.4634532
      },
      "location_type": "APPROXIMATE",
      "viewport": {
        "southwest": {
          "lat": 38.5773918,
          "lng": -90.5274829
        },
        "northeast": {
          "lat": 38.6471414,
          "lng": -90.3994235
        }
      },
      "bounds": {
        "southwest": {
          "lat": 38.5961600,
          "lng": -90.5236250
        },
        "northeast": {
          "lat": 38.6729100,
          "lng": -90.4330179
        }
      }
    },
    "partial_match": true
  }, {
    "types": [ "route" ],
    "formatted_address": "Town and Country, House Springs, MO 63051, USA",
    "address_components": [ {
      "long_name": "Town and Country",
      "short_name": "Town and Country",
      "types": [ "route" ]
    }, {
      "long_name": "House Springs",
      "short_name": "House Springs",
      "types": [ "locality", "political" ]
    }, {
      "long_name": "Meramec",
      "short_name": "Meramec",
      "types": [ "administrative_area_level_3", "political" ]
    }, {
      "long_name": "Jefferson",
      "short_name": "Jefferson",
      "types": [ "administrative_area_level_2", "political" ]
    }, {
      "long_name": "Missouri",
      "short_name": "MO",
      "types": [ "administrative_area_level_1", "political" ]
    }, {
      "long_name": "United States",
      "short_name": "US",
      "types": [ "country", "political" ]
    }, {
      "long_name": "63051",
      "short_name": "63051",
      "types": [ "postal_code" ]
    } ],
    "geometry": {
      "location": {
        "lat": 38.3960545,
        "lng": -90.5477259
      },
      "location_type": "GEOMETRIC_CENTER",
      "viewport": {
        "southwest": {
          "lat": 38.3926898,
          "lng": -90.5511464
        },
        "northeast": {
          "lat": 38.3989851,
          "lng": -90.5448512
        }
      },
      "bounds": {
        "southwest": {
          "lat": 38.3954778,
          "lng": -90.5484004
        },
        "northeast": {
          "lat": 38.3961971,
          "lng": -90.5475972
        }
      }
    },
    "partial_match": true
  }, {
    "types": [ "route" ],
    "formatted_address": "Town and Country Ln, House Springs, MO 63051, USA",
    "address_components": [ {
      "long_name": "Town and Country Ln",
      "short_name": "Town and Country Ln",
      "types": [ "route" ]
    }, {
      "long_name": "House Springs",
      "short_name": "House Springs",
      "types": [ "locality", "political" ]
    }, {
      "long_name": "Meramec",
      "short_name": "Meramec",
      "types": [ "administrative_area_level_3", "political" ]
    }, {
      "long_name": "Jefferson",
      "short_name": "Jefferson",
      "types": [ "administrative_area_level_2", "political" ]
    }, {
      "long_name": "Missouri",
      "short_name": "MO",
      "types": [ "administrative_area_level_1", "political" ]
    }, {
      "long_name": "United States",
      "short_name": "US",
      "types": [ "country", "political" ]
    }, {
      "long_name": "63051",
      "short_name": "63051",
      "types": [ "postal_code" ]
    } ],
    "geometry": {
      "location": {
        "lat": 38.3916118,
        "lng": -90.5530347
      },
      "location_type": "GEOMETRIC_CENTER",
      "viewport": {
        "southwest": {
          "lat": 38.3844029,
          "lng": -90.5554030
        },
        "northeast": {
          "lat": 38.3960545,
          "lng": -90.5461330
        }
      },
      "bounds": {
        "southwest": {
          "lat": 38.3844029,
          "lng": -90.5554030
        },
        "northeast": {
          "lat": 38.3960545,
          "lng": -90.5461330
        }
      }
    },
    "partial_match": true
  }, {
    "types": [ "route" ],
    "formatted_address": "Town and Country Dr, Branson, MO 65616, USA",
    "address_components": [ {
      "long_name": "Town and Country Dr",
      "short_name": "Town and Country Dr",
      "types": [ "route" ]
    }, {
      "long_name": "Branson",
      "short_name": "Branson",
      "types": [ "locality", "political" ]
    }, {
      "long_name": "Branson",
      "short_name": "Branson",
      "types": [ "administrative_area_level_3", "political" ]
    }, {
      "long_name": "Taney",
      "short_name": "Taney",
      "types": [ "administrative_area_level_2", "political" ]
    }, {
      "long_name": "Missouri",
      "short_name": "MO",
      "types": [ "administrative_area_level_1", "political" ]
    }, {
      "long_name": "United States",
      "short_name": "US",
      "types": [ "country", "political" ]
    }, {
      "long_name": "65616",
      "short_name": "65616",
      "types": [ "postal_code" ]
    } ],
    "geometry": {
      "location": {
        "lat": 36.6581003,
        "lng": -93.2569728
      },
      "location_type": "GEOMETRIC_CENTER",
      "viewport": {
        "southwest": {
          "lat": 36.6554263,
          "lng": -93.2593960
        },
        "northeast": {
          "lat": 36.6617216,
          "lng": -93.2531007
        }
      },
      "bounds": {
        "southwest": {
          "lat": 36.6563030,
          "lng": -93.2593128
        },
        "northeast": {
          "lat": 36.6608449,
          "lng": -93.2531839
        }
      }
    },
    "partial_match": true
  }, {
    "types": [ "route" ],
    "formatted_address": "Town and Country Dr, Bernie, MO 63822, USA",
    "address_components": [ {
      "long_name": "Town and Country Dr",
      "short_name": "Town and Country Dr",
      "types": [ "route" ]
    }, {
      "long_name": "Bernie",
      "short_name": "Bernie",
      "types": [ "locality", "political" ]
    }, {
      "long_name": "Liberty",
      "short_name": "Liberty",
      "types": [ "administrative_area_level_3", "political" ]
    }, {
      "long_name": "Stoddard",
      "short_name": "Stoddard",
      "types": [ "administrative_area_level_2", "political" ]
    }, {
      "long_name": "Missouri",
      "short_name": "MO",
      "types": [ "administrative_area_level_1", "political" ]
    }, {
      "long_name": "United States",
      "short_name": "US",
      "types": [ "country", "political" ]
    }, {
      "long_name": "63822",
      "short_name": "63822",
      "types": [ "postal_code" ]
    } ],
    "geometry": {
      "location": {
        "lat": 36.6735199,
        "lng": -89.9794770
      },
      "location_type": "GEOMETRIC_CENTER",
      "viewport": {
        "southwest": {
          "lat": 36.6694070,
          "lng": -89.9826606
        },
        "northeast": {
          "lat": 36.6771052,
          "lng": -89.9763653
        }
      },
      "bounds": {
        "southwest": {
          "lat": 36.6694070,
          "lng": -89.9795779
        },
        "northeast": {
          "lat": 36.6771052,
          "lng": -89.9794480
        }
      }
    },
    "partial_match": true
  }, {
    "types": [ "route" ],
    "formatted_address": "Town and Country Dr, Hazelwood, MO 63042, USA",
    "address_components": [ {
      "long_name": "Town and Country Dr",
      "short_name": "Town and Country Dr",
      "types": [ "route" ]
    }, {
      "long_name": "Hazelwood",
      "short_name": "Hazelwood",
      "types": [ "locality", "political" ]
    }, {
      "long_name": "Lewis and Clark",
      "short_name": "Lewis and Clark",
      "types": [ "administrative_area_level_3", "political" ]
    }, {
      "long_name": "St Louis",
      "short_name": "St Louis",
      "types": [ "administrative_area_level_2", "political" ]
    }, {
      "long_name": "Missouri",
      "short_name": "MO",
      "types": [ "administrative_area_level_1", "political" ]
    }, {
      "long_name": "United States",
      "short_name": "US",
      "types": [ "country", "political" ]
    }, {
      "long_name": "63042",
      "short_name": "63042",
      "types": [ "postal_code" ]
    } ],
    "geometry": {
      "location": {
        "lat": 38.7852220,
        "lng": -90.3583682
      },
      "location_type": "GEOMETRIC_CENTER",
      "viewport": {
        "southwest": {
          "lat": 38.7821739,
          "lng": -90.3613686
        },
        "northeast": {
          "lat": 38.7884692,
          "lng": -90.3550734
        }
      },
      "bounds": {
        "southwest": {
          "lat": 38.7837174,
          "lng": -90.3597490
        },
        "northeast": {
          "lat": 38.7869257,
          "lng": -90.3566930
        }
      }
    },
    "partial_match": true
  }, {
    "types": [ "route" ],
    "formatted_address": "Town and Country Ln, St Charles, MO 63301, USA",
    "address_components": [ {
      "long_name": "Town and Country Ln",
      "short_name": "Town and Country Ln",
      "types": [ "route" ]
    }, {
      "long_name": "St Charles",
      "short_name": "St Charles",
      "types": [ "locality", "political" ]
    }, {
      "long_name": "Rivers",
      "short_name": "Rivers",
      "types": [ "administrative_area_level_3", "political" ]
    }, {
      "long_name": "St Charles",
      "short_name": "St Charles",
      "types": [ "administrative_area_level_2", "political" ]
    }, {
      "long_name": "Missouri",
      "short_name": "MO",
      "types": [ "administrative_area_level_1", "political" ]
    }, {
      "long_name": "United States",
      "short_name": "US",
      "types": [ "country", "political" ]
    }, {
      "long_name": "63301",
      "short_name": "63301",
      "types": [ "postal_code" ]
    } ],
    "geometry": {
      "location": {
        "lat": 38.8117059,
        "lng": -90.5031570
      },
      "location_type": "GEOMETRIC_CENTER",
      "viewport": {
        "southwest": {
          "lat": 38.8090727,
          "lng": -90.5060406
        },
        "northeast": {
          "lat": 38.8153680,
          "lng": -90.4997453
        }
      },
      "bounds": {
        "southwest": {
          "lat": 38.8105100,
          "lng": -90.5050800
        },
        "northeast": {
          "lat": 38.8139307,
          "lng": -90.5007059
        }
      }
    },
    "partial_match": true
  }, {
    "types": [ "route" ],
    "formatted_address": "SW Town and Country Ln, Plattsburg, MO 64477, USA",
    "address_components": [ {
      "long_name": "SW Town and Country Ln",
      "short_name": "SW Town and Country Ln",
      "types": [ "route" ]
    }, {
      "long_name": "Plattsburg",
      "short_name": "Plattsburg",
      "types": [ "locality", "political" ]
    }, {
      "long_name": "Concord",
      "short_name": "Concord",
      "types": [ "administrative_area_level_3", "political" ]
    }, {
      "long_name": "Clinton",
      "short_name": "Clinton",
      "types": [ "administrative_area_level_2", "political" ]
    }, {
      "long_name": "Missouri",
      "short_name": "MO",
      "types": [ "administrative_area_level_1", "political" ]
    }, {
      "long_name": "United States",
      "short_name": "US",
      "types": [ "country", "political" ]
    }, {
      "long_name": "64477",
      "short_name": "64477",
      "types": [ "postal_code" ]
    } ],
    "geometry": {
      "location": {
        "lat": 39.5435628,
        "lng": -94.4836306
      },
      "location_type": "GEOMETRIC_CENTER",
      "viewport": {
        "southwest": {
          "lat": 39.5405577,
          "lng": -94.4999986
        },
        "northeast": {
          "lat": 39.5523539,
          "lng": -94.4671051
        }
      },
      "bounds": {
        "southwest": {
          "lat": 39.5405577,
          "lng": -94.4999986
        },
        "northeast": {
          "lat": 39.5523539,
          "lng": -94.4671051
        }
      }
    },
    "partial_match": true
  }, {
    "types": [ "route" ],
    "formatted_address": "SW Town and Country Ln, Plattsburg, MO 64477, USA",
    "address_components": [ {
      "long_name": "SW Town and Country Ln",
      "short_name": "SW Town and Country Ln",
      "types": [ "route" ]
    }, {
      "long_name": "Plattsburg",
      "short_name": "Plattsburg",
      "types": [ "locality", "political" ]
    }, {
      "long_name": "Concord",
      "short_name": "Concord",
      "types": [ "administrative_area_level_3", "political" ]
    }, {
      "long_name": "Clinton",
      "short_name": "Clinton",
      "types": [ "administrative_area_level_2", "political" ]
    }, {
      "long_name": "Missouri",
      "short_name": "MO",
      "types": [ "administrative_area_level_1", "political" ]
    }, {
      "long_name": "United States",
      "short_name": "US",
      "types": [ "country", "political" ]
    }, {
      "long_name": "64477",
      "short_name": "64477",
      "types": [ "postal_code" ]
    } ],
    "geometry": {
      "location": {
        "lat": 39.5585777,
        "lng": -94.4619491
      },
      "location_type": "GEOMETRIC_CENTER",
      "viewport": {
        "southwest": {
          "lat": 39.5523539,
          "lng": -94.4676262
        },
        "northeast": {
          "lat": 39.5647450,
          "lng": -94.4613309
        }
      },
      "bounds": {
        "southwest": {
          "lat": 39.5523539,
          "lng": -94.4671051
        },
        "northeast": {
          "lat": 39.5647450,
          "lng": -94.4618520
        }
      }
    },
    "partial_match": true
  }, {
    "types": [ "route" ],
    "formatted_address": "Town and Country Commons, Town and Country, MO 63017, USA",
    "address_components": [ {
      "long_name": "Town and Country Commons",
      "short_name": "Town and Country Commons",
      "types": [ "route" ]
    }, {
      "long_name": "Town and Country",
      "short_name": "Town and Country",
      "types": [ "locality", "political" ]
    }, {
      "long_name": "Missouri River",
      "short_name": "Missouri River",
      "types": [ "administrative_area_level_3", "political" ]
    }, {
      "long_name": "St Louis",
      "short_name": "St Louis",
      "types": [ "administrative_area_level_2", "political" ]
    }, {
      "long_name": "Missouri",
      "short_name": "MO",
      "types": [ "administrative_area_level_1", "political" ]
    }, {
      "long_name": "United States",
      "short_name": "US",
      "types": [ "country", "political" ]
    }, {
      "long_name": "63017",
      "short_name": "63017",
      "types": [ "postal_code" ]
    } ],
    "geometry": {
      "location": {
        "lat": 38.6291462,
        "lng": -90.5154819
      },
      "location_type": "GEOMETRIC_CENTER",
      "viewport": {
        "southwest": {
          "lat": 38.6259736,
          "lng": -90.5196553
        },
        "northeast": {
          "lat": 38.6322689,
          "lng": -90.5133601
        }
      },
      "bounds": {
        "southwest": {
          "lat": 38.6276816,
          "lng": -90.5183744
        },
        "northeast": {
          "lat": 38.6305609,
          "lng": -90.5146410
        }
      }
    },
    "partial_match": true
  } ]
}
