{
  "status": "OK",
  "results": [ {
    "types": [ "locality", "political" ],
    "formatted_address": "Archie, MO, USA",
    "address_components": [ {
      "long_name": "Archie",
      "short_name": "Archie",
      "types": [ "locality", "political" ]
    }, {
      "long_name": "Cass",
      "short_name": "Cass",
      "types": [ "administrative_area_level_2", "political" ]
    }, {
      "long_name": "Missouri",
      "short_name": "MO",
      "types": [ "administrative_area_level_1", "political" ]
    }, {
      "long_name": "United States",
      "short_name": "US",
      "types": [ "country", "political" ]
    } ],
    "geometry": {
      "location": {
        "lat": 38.4816813,
        "lng": -94.3543928
      },
      "location_type": "APPROXIMATE",
      "viewport": {
        "southwest": {
          "lat": 38.4729462,
          "lng": -94.3704002
        },
        "northeast": {
          "lat": 38.4904153,
          "lng": -94.3383854
        }
      },
      "bounds": {
        "southwest": {
          "lat": 38.4754060,
          "lng": -94.3680359
        },
        "northeast": {
          "lat": 38.4889600,
          "lng": -94.3355289
        }
      }
    }
  } ]
}
