{
  "status": "OK",
  "results": [ {
    "types": [ "locality", "political" ],
    "formatted_address": "Auxvasse, MO, USA",
    "address_components": [ {
      "long_name": "Auxvasse",
      "short_name": "Auxvasse",
      "types": [ "locality", "political" ]
    }, {
      "long_name": "Callaway",
      "short_name": "Callaway",
      "types": [ "administrative_area_level_2", "political" ]
    }, {
      "long_name": "Missouri",
      "short_name": "MO",
      "types": [ "administrative_area_level_1", "political" ]
    }, {
      "long_name": "United States",
      "short_name": "US",
      "types": [ "country", "political" ]
    } ],
    "geometry": {
      "location": {
        "lat": 39.0180962,
        "lng": -91.8971198
      },
      "location_type": "APPROXIMATE",
      "viewport": {
        "southwest": {
          "lat": 39.0094265,
          "lng": -91.9131272
        },
        "northeast": {
          "lat": 39.0267648,
          "lng": -91.8811124
        }
      },
      "bounds": {
        "southwest": {
          "lat": 39.0040679,
          "lng": -91.9071089
        },
        "northeast": {
          "lat": 39.0325689,
          "lng": -91.8829219
        }
      }
    }
  } ]
}
