{
  "status": "OK",
  "results": [ {
    "types": [ "locality", "political" ],
    "formatted_address": "Beverly Hills, MO, USA",
    "address_components": [ {
      "long_name": "Beverly Hills",
      "short_name": "Beverly Hills",
      "types": [ "locality", "political" ]
    }, {
      "long_name": "St. Louis",
      "short_name": "St. Louis",
      "types": [ "administrative_area_level_2", "political" ]
    }, {
      "long_name": "Missouri",
      "short_name": "MO",
      "types": [ "administrative_area_level_1", "political" ]
    }, {
      "long_name": "United States",
      "short_name": "US",
      "types": [ "country", "political" ]
    } ],
    "geometry": {
      "location": {
        "lat": 38.7000511,
        "lng": -90.2923359
      },
      "location_type": "APPROXIMATE",
      "viewport": {
        "southwest": {
          "lat": 38.6913425,
          "lng": -90.3083433
        },
        "northeast": {
          "lat": 38.7087586,
          "lng": -90.2763285
        }
      },
      "bounds": {
        "southwest": {
          "lat": 38.6940510,
          "lng": -90.2946130
        },
        "northeast": {
          "lat": 38.7013509,
          "lng": -90.2845129
        }
      }
    }
  } ]
}
