{
  "status": "OK",
  "results": [ {
    "types": [ "locality", "political" ],
    "formatted_address": "Bolivar, MO, USA",
    "address_components": [ {
      "long_name": "Bolivar",
      "short_name": "Bolivar",
      "types": [ "locality", "political" ]
    }, {
      "long_name": "Polk",
      "short_name": "Polk",
      "types": [ "administrative_area_level_2", "political" ]
    }, {
      "long_name": "Missouri",
      "short_name": "MO",
      "types": [ "administrative_area_level_1", "political" ]
    }, {
      "long_name": "United States",
      "short_name": "US",
      "types": [ "country", "political" ]
    } ],
    "geometry": {
      "location": {
        "lat": 37.6144838,
        "lng": -93.4104749
      },
      "location_type": "APPROXIMATE",
      "viewport": {
        "southwest": {
          "lat": 37.5791208,
          "lng": -93.4745046
        },
        "northeast": {
          "lat": 37.6498299,
          "lng": -93.3464452
        }
      },
      "bounds": {
        "southwest": {
          "lat": 37.5386120,
          "lng": -93.4667480
        },
        "northeast": {
          "lat": 37.6362270,
          "lng": -93.3790180
        }
      }
    }
  } ]
}
