{
  "status": "OK",
  "results": [ {
    "types": [ "locality", "political" ],
    "formatted_address": "Boonville, MO, USA",
    "address_components": [ {
      "long_name": "Boonville",
      "short_name": "Boonville",
      "types": [ "locality", "political" ]
    }, {
      "long_name": "Cooper",
      "short_name": "Cooper",
      "types": [ "administrative_area_level_2", "political" ]
    }, {
      "long_name": "Missouri",
      "short_name": "MO",
      "types": [ "administrative_area_level_1", "political" ]
    }, {
      "long_name": "United States",
      "short_name": "US",
      "types": [ "country", "political" ]
    } ],
    "geometry": {
      "location": {
        "lat": 38.9736392,
        "lng": -92.7432418
      },
      "location_type": "APPROXIMATE",
      "viewport": {
        "southwest": {
          "lat": 38.9389322,
          "lng": -92.8072715
        },
        "northeast": {
          "lat": 39.0083292,
          "lng": -92.6792121
        }
      },
      "bounds": {
        "southwest": {
          "lat": 38.9321100,
          "lng": -92.7931600
        },
        "northeast": {
          "lat": 38.9841939,
          "lng": -92.7156550
        }
      }
    }
  } ]
}
