{
  "status": "OK",
  "results": [ {
    "types": [ "locality", "political" ],
    "formatted_address": "Breckenridge Hills, MO, USA",
    "address_components": [ {
      "long_name": "Breckenridge Hills",
      "short_name": "Breckenridge Hills",
      "types": [ "locality", "political" ]
    }, {
      "long_name": "St. Louis",
      "short_name": "St. Louis",
      "types": [ "administrative_area_level_2", "political" ]
    }, {
      "long_name": "Missouri",
      "short_name": "MO",
      "types": [ "administrative_area_level_1", "political" ]
    }, {
      "long_name": "United States",
      "short_name": "US",
      "types": [ "country", "political" ]
    } ],
    "geometry": {
      "location": {
        "lat": 38.7144958,
        "lng": -90.3673381
      },
      "location_type": "APPROXIMATE",
      "viewport": {
        "southwest": {
          "lat": 38.7057890,
          "lng": -90.3833455
        },
        "northeast": {
          "lat": 38.7232015,
          "lng": -90.3513307
        }
      },
      "bounds": {
        "southwest": {
          "lat": 38.7098510,
          "lng": -90.3796210
        },
        "northeast": {
          "lat": 38.7253509,
          "lng": -90.3554149
        }
      }
    }
  } ]
}
