{
  "status": "OK",
  "results": [ {
    "types": [ "locality", "political" ],
    "formatted_address": "Brentwood, MO, USA",
    "address_components": [ {
      "long_name": "Brentwood",
      "short_name": "Brentwood",
      "types": [ "locality", "political" ]
    }, {
      "long_name": "St. Louis",
      "short_name": "St. Louis",
      "types": [ "administrative_area_level_2", "political" ]
    }, {
      "long_name": "Missouri",
      "short_name": "MO",
      "types": [ "administrative_area_level_1", "political" ]
    }, {
      "long_name": "United States",
      "short_name": "US",
      "types": [ "country", "political" ]
    } ],
    "geometry": {
      "location": {
        "lat": 38.6175522,
        "lng": -90.3492829
      },
      "location_type": "APPROXIMATE",
      "viewport": {
        "southwest": {
          "lat": 38.6088336,
          "lng": -90.3652903
        },
        "northeast": {
          "lat": 38.6262697,
          "lng": -90.3332755
        }
      },
      "bounds": {
        "southwest": {
          "lat": 38.6047520,
          "lng": -90.3623159
        },
        "northeast": {
          "lat": 38.6302520,
          "lng": -90.3335149
        }
      }
    }
  } ]
}
