{
  "status": "OK",
  "results": [ {
    "types": [ "locality", "political" ],
    "formatted_address": "Camdenton, MO, USA",
    "address_components": [ {
      "long_name": "Camdenton",
      "short_name": "Camdenton",
      "types": [ "locality", "political" ]
    }, {
      "long_name": "Camden",
      "short_name": "Camden",
      "types": [ "administrative_area_level_2", "political" ]
    }, {
      "long_name": "Missouri",
      "short_name": "MO",
      "types": [ "administrative_area_level_1", "political" ]
    }, {
      "long_name": "United States",
      "short_name": "US",
      "types": [ "country", "political" ]
    } ],
    "geometry": {
      "location": {
        "lat": 38.0080902,
        "lng": -92.7446289
      },
      "location_type": "APPROXIMATE",
      "viewport": {
        "southwest": {
          "lat": 37.9905048,
          "lng": -92.7766437
        },
        "northeast": {
          "lat": 38.0256714,
          "lng": -92.7126141
        }
      },
      "bounds": {
        "southwest": {
          "lat": 37.9862870,
          "lng": -92.7879059
        },
        "northeast": {
          "lat": 38.0376550,
          "lng": -92.7155710
        }
      }
    }
  } ]
}
