{
  "status": "OK",
  "results": [ {
    "types": [ "locality", "political" ],
    "formatted_address": "Cameron, MO, USA",
    "address_components": [ {
      "long_name": "Cameron",
      "short_name": "Cameron",
      "types": [ "locality", "political" ]
    }, {
      "long_name": "Clinton",
      "short_name": "Clinton",
      "types": [ "administrative_area_level_2", "political" ]
    }, {
      "long_name": "Missouri",
      "short_name": "MO",
      "types": [ "administrative_area_level_1", "political" ]
    }, {
      "long_name": "United States",
      "short_name": "US",
      "types": [ "country", "political" ]
    } ],
    "geometry": {
      "location": {
        "lat": 39.7402801,
        "lng": -94.2410570
      },
      "location_type": "APPROXIMATE",
      "viewport": {
        "southwest": {
          "lat": 39.7231181,
          "lng": -94.2730718
        },
        "northeast": {
          "lat": 39.7574378,
          "lng": -94.2090422
        }
      },
      "bounds": {
        "southwest": {
          "lat": 39.7154960,
          "lng": -94.2601040
        },
        "northeast": {
          "lat": 39.7679440,
          "lng": -94.2052059
        }
      }
    }
  } ]
}
