{
  "status": "OK",
  "results": [ {
    "types": [ "locality", "political" ],
    "formatted_address": "Clayton, MO, USA",
    "address_components": [ {
      "long_name": "Clayton",
      "short_name": "Clayton",
      "types": [ "locality", "political" ]
    }, {
      "long_name": "St. Louis",
      "short_name": "St. Louis",
      "types": [ "administrative_area_level_2", "political" ]
    }, {
      "long_name": "Missouri",
      "short_name": "MO",
      "types": [ "administrative_area_level_1", "political" ]
    }, {
      "long_name": "United States",
      "short_name": "US",
      "types": [ "country", "political" ]
    } ],
    "geometry": {
      "location": {
        "lat": 38.6425518,
        "lng": -90.3237263
      },
      "location_type": "APPROXIMATE",
      "viewport": {
        "southwest": {
          "lat": 38.6251196,
          "lng": -90.3557411
        },
        "northeast": {
          "lat": 38.6599797,
          "lng": -90.2917115
        }
      },
      "bounds": {
        "southwest": {
          "lat": 38.6335510,
          "lng": -90.3538150
        },
        "northeast": {
          "lat": 38.6579510,
          "lng": -90.3028140
        }
      }
    }
  } ]
}
