{
  "status": "OK",
  "results": [ {
    "types": [ "locality", "political" ],
    "formatted_address": "De Soto, MO, USA",
    "address_components": [ {
      "long_name": "De Soto",
      "short_name": "De Soto",
      "types": [ "locality", "political" ]
    }, {
      "long_name": "Jefferson",
      "short_name": "Jefferson",
      "types": [ "administrative_area_level_2", "political" ]
    }, {
      "long_name": "Missouri",
      "short_name": "MO",
      "types": [ "administrative_area_level_1", "political" ]
    }, {
      "long_name": "United States",
      "short_name": "US",
      "types": [ "country", "political" ]
    } ],
    "geometry": {
      "location": {
        "lat": 38.1394978,
        "lng": -90.5551258
      },
      "location_type": "APPROXIMATE",
      "viewport": {
        "southwest": {
          "lat": 38.1219440,
          "lng": -90.5871406
        },
        "northeast": {
          "lat": 38.1570474,
          "lng": -90.5231110
        }
      },
      "bounds": {
        "southwest": {
          "lat": 38.1125760,
          "lng": -90.5829780
        },
        "northeast": {
          "lat": 38.1761060,
          "lng": -90.5290069
        }
      }
    }
  } ]
}
