{
  "status": "OK",
  "results": [ {
    "types": [ "locality", "political" ],
    "formatted_address": "Delta, MO, USA",
    "address_components": [ {
      "long_name": "Delta",
      "short_name": "Delta",
      "types": [ "locality", "political" ]
    }, {
      "long_name": "Cape Girardeau",
      "short_name": "Cape Girardeau",
      "types": [ "administrative_area_level_2", "political" ]
    }, {
      "long_name": "Missouri",
      "short_name": "MO",
      "types": [ "administrative_area_level_1", "political" ]
    }, {
      "long_name": "United States",
      "short_name": "US",
      "types": [ "country", "political" ]
    } ],
    "geometry": {
      "location": {
        "lat": 37.1967187,
        "lng": -89.7362026
      },
      "location_type": "APPROXIMATE",
      "viewport": {
        "southwest": {
          "lat": 37.1878301,
          "lng": -89.7522100
        },
        "northeast": {
          "lat": 37.2056062,
          "lng": -89.7201952
        }
      },
      "bounds": {
        "southwest": {
          "lat": 37.1912580,
          "lng": -89.7481500
        },
        "northeast": {
          "lat": 37.2054229,
          "lng": -89.7313040
        }
      }
    }
  } ]
}
