{
  "status": "OK",
  "results": [ {
    "types": [ "locality", "political" ],
    "formatted_address": "Doolittle, MO, USA",
    "address_components": [ {
      "long_name": "Doolittle",
      "short_name": "Doolittle",
      "types": [ "locality", "political" ]
    }, {
      "long_name": "Phelps",
      "short_name": "Phelps",
      "types": [ "administrative_area_level_2", "political" ]
    }, {
      "long_name": "Missouri",
      "short_name": "MO",
      "types": [ "administrative_area_level_1", "political" ]
    }, {
      "long_name": "United States",
      "short_name": "US",
      "types": [ "country", "political" ]
    } ],
    "geometry": {
      "location": {
        "lat": 37.9403186,
        "lng": -91.8809939
      },
      "location_type": "APPROXIMATE",
      "viewport": {
        "southwest": {
          "lat": 37.9227170,
          "lng": -91.9130087
        },
        "northeast": {
          "lat": 37.9579160,
          "lng": -91.8489791
        }
      },
      "bounds": {
        "southwest": {
          "lat": 37.9247830,
          "lng": -91.9139830
        },
        "northeast": {
          "lat": 37.9583299,
          "lng": -91.8592130
        }
      }
    }
  } ]
}
