{
  "status": "OK",
  "results": [ {
    "types": [ "locality", "political" ],
    "formatted_address": "Ellisville, MO, USA",
    "address_components": [ {
      "long_name": "Ellisville",
      "short_name": "Ellisville",
      "types": [ "locality", "political" ]
    }, {
      "long_name": "St. Louis",
      "short_name": "St. Louis",
      "types": [ "administrative_area_level_2", "political" ]
    }, {
      "long_name": "Missouri",
      "short_name": "MO",
      "types": [ "administrative_area_level_1", "political" ]
    }, {
      "long_name": "United States",
      "short_name": "US",
      "types": [ "country", "political" ]
    } ],
    "geometry": {
      "location": {
        "lat": 38.5925532,
        "lng": -90.5870686
      },
      "location_type": "APPROXIMATE",
      "viewport": {
        "southwest": {
          "lat": 38.5751089,
          "lng": -90.6190834
        },
        "northeast": {
          "lat": 38.6099933,
          "lng": -90.5550538
        }
      },
      "bounds": {
        "southwest": {
          "lat": 38.5671000,
          "lng": -90.6183940
        },
        "northeast": {
          "lat": 38.6085530,
          "lng": -90.5583559
        }
      }
    }
  } ]
}
