{
  "status": "OK",
  "results": [ {
    "types": [ "locality", "political" ],
    "formatted_address": "Everton, MO, USA",
    "address_components": [ {
      "long_name": "Everton",
      "short_name": "Everton",
      "types": [ "locality", "political" ]
    }, {
      "long_name": "Dade",
      "short_name": "Dade",
      "types": [ "administrative_area_level_2", "political" ]
    }, {
      "long_name": "Missouri",
      "short_name": "MO",
      "types": [ "administrative_area_level_1", "political" ]
    }, {
      "long_name": "United States",
      "short_name": "US",
      "types": [ "country", "political" ]
    } ],
    "geometry": {
      "location": {
        "lat": 37.3425477,
        "lng": -93.7024280
      },
      "location_type": "APPROXIMATE",
      "viewport": {
        "southwest": {
          "lat": 37.3336763,
          "lng": -93.7184354
        },
        "northeast": {
          "lat": 37.3514180,
          "lng": -93.6864206
        }
      },
      "bounds": {
        "southwest": {
          "lat": 37.3385430,
          "lng": -93.7089539
        },
        "northeast": {
          "lat": 37.3480489,
          "lng": -93.6970080
        }
      }
    }
  } ]
}
