{
  "status": "OK",
  "results": [ {
    "types": [ "locality", "political" ],
    "formatted_address": "Flordell Hills, MO, USA",
    "address_components": [ {
      "long_name": "Flordell Hills",
      "short_name": "Flordell Hills",
      "types": [ "locality", "political" ]
    }, {
      "long_name": "St. Louis",
      "short_name": "St. Louis",
      "types": [ "administrative_area_level_2", "political" ]
    }, {
      "long_name": "Missouri",
      "short_name": "MO",
      "types": [ "administrative_area_level_1", "political" ]
    }, {
      "long_name": "United States",
      "short_name": "US",
      "types": [ "country", "political" ]
    } ],
    "geometry": {
      "location": {
        "lat": 38.7175508,
        "lng": -90.2656683
      },
      "location_type": "APPROXIMATE",
      "viewport": {
        "southwest": {
          "lat": 38.7088444,
          "lng": -90.2816757
        },
        "northeast": {
          "lat": 38.7262562,
          "lng": -90.2496609
        }
      },
      "bounds": {
        "southwest": {
          "lat": 38.7138500,
          "lng": -90.2689970
        },
        "northeast": {
          "lat": 38.7208410,
          "lng": -90.2608120
        }
      }
    }
  } ]
}
