{
  "status": "OK",
  "results": [ {
    "types": [ "locality", "political" ],
    "formatted_address": "Fordland, MO, USA",
    "address_components": [ {
      "long_name": "Fordland",
      "short_name": "Fordland",
      "types": [ "locality", "political" ]
    }, {
      "long_name": "Webster",
      "short_name": "Webster",
      "types": [ "administrative_area_level_2", "political" ]
    }, {
      "long_name": "Missouri",
      "short_name": "MO",
      "types": [ "administrative_area_level_1", "political" ]
    }, {
      "long_name": "United States",
      "short_name": "US",
      "types": [ "country", "political" ]
    } ],
    "geometry": {
      "location": {
        "lat": 37.1575501,
        "lng": -92.9407310
      },
      "location_type": "APPROXIMATE",
      "viewport": {
        "southwest": {
          "lat": 37.1486569,
          "lng": -92.9567384
        },
        "northeast": {
          "lat": 37.1664422,
          "lng": -92.9247236
        }
      },
      "bounds": {
        "southwest": {
          "lat": 37.1498590,
          "lng": -92.9553050
        },
        "northeast": {
          "lat": 37.1643879,
          "lng": -92.9263440
        }
      }
    }
  } ]
}
