{
  "status": "OK",
  "results": [ {
    "types": [ "locality", "political" ],
    "formatted_address": "Fulton, MO, USA",
    "address_components": [ {
      "long_name": "Fulton",
      "short_name": "Fulton",
      "types": [ "locality", "political" ]
    }, {
      "long_name": "Callaway",
      "short_name": "Callaway",
      "types": [ "administrative_area_level_2", "political" ]
    }, {
      "long_name": "Missouri",
      "short_name": "MO",
      "types": [ "administrative_area_level_1", "political" ]
    }, {
      "long_name": "United States",
      "short_name": "US",
      "types": [ "country", "political" ]
    } ],
    "geometry": {
      "location": {
        "lat": 38.8467082,
        "lng": -91.9479586
      },
      "location_type": "APPROXIMATE",
      "viewport": {
        "southwest": {
          "lat": 38.8119391,
          "lng": -92.0119883
        },
        "northeast": {
          "lat": 38.8814603,
          "lng": -91.8839289
        }
      },
      "bounds": {
        "southwest": {
          "lat": 38.8148020,
          "lng": -91.9862890
        },
        "northeast": {
          "lat": 38.9154140,
          "lng": -91.9163650
        }
      }
    }
  } ]
}
