{
  "status": "OK",
  "results": [ {
    "types": [ "locality", "political" ],
    "formatted_address": "Gerald, MO, USA",
    "address_components": [ {
      "long_name": "Gerald",
      "short_name": "Gerald",
      "types": [ "locality", "political" ]
    }, {
      "long_name": "Franklin",
      "short_name": "Franklin",
      "types": [ "administrative_area_level_2", "political" ]
    }, {
      "long_name": "Missouri",
      "short_name": "MO",
      "types": [ "administrative_area_level_1", "political" ]
    }, {
      "long_name": "United States",
      "short_name": "US",
      "types": [ "country", "political" ]
    } ],
    "geometry": {
      "location": {
        "lat": 38.3997711,
        "lng": -91.3307094
      },
      "location_type": "APPROXIMATE",
      "viewport": {
        "southwest": {
          "lat": 38.3910261,
          "lng": -91.3467168
        },
        "northeast": {
          "lat": 38.4085150,
          "lng": -91.3147020
        }
      },
      "bounds": {
        "southwest": {
          "lat": 38.3856560,
          "lng": -91.3450730
        },
        "northeast": {
          "lat": 38.4113929,
          "lng": -91.3154570
        }
      }
    }
  } ]
}
