{
  "status": "OK",
  "results": [ {
    "types": [ "locality", "political" ],
    "formatted_address": "Granby, MO, USA",
    "address_components": [ {
      "long_name": "Granby",
      "short_name": "Granby",
      "types": [ "locality", "political" ]
    }, {
      "long_name": "Newton",
      "short_name": "Newton",
      "types": [ "administrative_area_level_2", "political" ]
    }, {
      "long_name": "Missouri",
      "short_name": "MO",
      "types": [ "administrative_area_level_1", "political" ]
    }, {
      "long_name": "United States",
      "short_name": "US",
      "types": [ "country", "political" ]
    } ],
    "geometry": {
      "location": {
        "lat": 36.9192323,
        "lng": -94.2552167
      },
      "location_type": "APPROXIMATE",
      "viewport": {
        "southwest": {
          "lat": 36.9013890,
          "lng": -94.2872315
        },
        "northeast": {
          "lat": 36.9370715,
          "lng": -94.2232019
        }
      },
      "bounds": {
        "southwest": {
          "lat": 36.8969030,
          "lng": -94.2836020
        },
        "northeast": {
          "lat": 36.9424549,
          "lng": -94.2359580
        }
      }
    }
  } ]
}
