{
  "status": "OK",
  "results": [ {
    "types": [ "locality", "political" ],
    "formatted_address": "Hardin, MO, USA",
    "address_components": [ {
      "long_name": "Hardin",
      "short_name": "Hardin",
      "types": [ "locality", "political" ]
    }, {
      "long_name": "Ray",
      "short_name": "Ray",
      "types": [ "administrative_area_level_2", "political" ]
    }, {
      "long_name": "Missouri",
      "short_name": "MO",
      "types": [ "administrative_area_level_1", "political" ]
    }, {
      "long_name": "United States",
      "short_name": "US",
      "types": [ "country", "political" ]
    } ],
    "geometry": {
      "location": {
        "lat": 39.2708469,
        "lng": -93.8343858
      },
      "location_type": "APPROXIMATE",
      "viewport": {
        "southwest": {
          "lat": 39.2622083,
          "lng": -93.8503932
        },
        "northeast": {
          "lat": 39.2794845,
          "lng": -93.8183784
        }
      },
      "bounds": {
        "southwest": {
          "lat": 39.2614970,
          "lng": -93.8427940
        },
        "northeast": {
          "lat": 39.2741029,
          "lng": -93.8234190
        }
      }
    }
  } ]
}
