{
  "status": "OK",
  "results": [ {
    "types": [ "locality", "political" ],
    "formatted_address": "Hayti, MO, USA",
    "address_components": [ {
      "long_name": "Hayti",
      "short_name": "Hayti",
      "types": [ "locality", "political" ]
    }, {
      "long_name": "Pemiscot",
      "short_name": "Pemiscot",
      "types": [ "administrative_area_level_2", "political" ]
    }, {
      "long_name": "Missouri",
      "short_name": "MO",
      "types": [ "administrative_area_level_1", "political" ]
    }, {
      "long_name": "United States",
      "short_name": "US",
      "types": [ "country", "political" ]
    } ],
    "geometry": {
      "location": {
        "lat": 36.2336790,
        "lng": -89.7495272
      },
      "location_type": "APPROXIMATE",
      "viewport": {
        "southwest": {
          "lat": 36.2156766,
          "lng": -89.7815420
        },
        "northeast": {
          "lat": 36.2516773,
          "lng": -89.7175124
        }
      },
      "bounds": {
        "southwest": {
          "lat": 36.2185960,
          "lng": -89.7679380
        },
        "northeast": {
          "lat": 36.2469800,
          "lng": -89.7136599
        }
      }
    }
  } ]
}
