{
  "status": "OK",
  "results": [ {
    "types": [ "locality", "political" ],
    "formatted_address": "Herculaneum, MO, USA",
    "address_components": [ {
      "long_name": "Herculaneum",
      "short_name": "Herculaneum",
      "types": [ "locality", "political" ]
    }, {
      "long_name": "Jefferson",
      "short_name": "Jefferson",
      "types": [ "administrative_area_level_2", "political" ]
    }, {
      "long_name": "Missouri",
      "short_name": "MO",
      "types": [ "administrative_area_level_1", "political" ]
    }, {
      "long_name": "United States",
      "short_name": "US",
      "types": [ "country", "political" ]
    } ],
    "geometry": {
      "location": {
        "lat": 38.2683879,
        "lng": -90.3801201
      },
      "location_type": "APPROXIMATE",
      "viewport": {
        "southwest": {
          "lat": 38.2508651,
          "lng": -90.4121349
        },
        "northeast": {
          "lat": 38.2859065,
          "lng": -90.3481053
        }
      },
      "bounds": {
        "southwest": {
          "lat": 38.2374280,
          "lng": -90.4135780
        },
        "northeast": {
          "lat": 38.2805890,
          "lng": -90.3695499
        }
      }
    }
  } ]
}
