{
  "status": "OK",
  "results": [ {
    "types": [ "locality", "political" ],
    "formatted_address": "Hillsdale, MO, USA",
    "address_components": [ {
      "long_name": "Hillsdale",
      "short_name": "Hillsdale",
      "types": [ "locality", "political" ]
    }, {
      "long_name": "St. Louis",
      "short_name": "St. Louis",
      "types": [ "administrative_area_level_2", "political" ]
    }, {
      "long_name": "Missouri",
      "short_name": "MO",
      "types": [ "administrative_area_level_1", "political" ]
    }, {
      "long_name": "United States",
      "short_name": "US",
      "types": [ "country", "political" ]
    } ],
    "geometry": {
      "location": {
        "lat": 38.6833845,
        "lng": -90.2840025
      },
      "location_type": "APPROXIMATE",
      "viewport": {
        "southwest": {
          "lat": 38.6746739,
          "lng": -90.3000099
        },
        "northeast": {
          "lat": 38.6920940,
          "lng": -90.2679951
        }
      },
      "bounds": {
        "southwest": {
          "lat": 38.6803510,
          "lng": -90.2941130
        },
        "northeast": {
          "lat": 38.6912790,
          "lng": -90.2791130
        }
      }
    }
  } ]
}
