{
  "status": "OK",
  "results": [ {
    "types": [ "locality", "political" ],
    "formatted_address": "Independence, MO, USA",
    "address_components": [ {
      "long_name": "Independence",
      "short_name": "Independence",
      "types": [ "locality", "political" ]
    }, {
      "long_name": "Jackson",
      "short_name": "Jackson",
      "types": [ "administrative_area_level_2", "political" ]
    }, {
      "long_name": "Missouri",
      "short_name": "MO",
      "types": [ "administrative_area_level_1", "political" ]
    }, {
      "long_name": "United States",
      "short_name": "US",
      "types": [ "country", "political" ]
    } ],
    "geometry": {
      "location": {
        "lat": 39.0911161,
        "lng": -94.4155068
      },
      "location_type": "APPROXIMATE",
      "viewport": {
        "southwest": {
          "lat": 39.0218004,
          "lng": -94.5435662
        },
        "northeast": {
          "lat": 39.1603637,
          "lng": -94.2874474
        }
      },
      "bounds": {
        "southwest": {
          "lat": 39.0176790,
          "lng": -94.4815000
        },
        "northeast": {
          "lat": 39.1397879,
          "lng": -94.2159229
        }
      }
    }
  } ]
}
