{
  "status": "OK",
  "results": [ {
    "types": [ "locality", "political" ],
    "formatted_address": "Indian Point, MO, USA",
    "address_components": [ {
      "long_name": "Indian Point",
      "short_name": "Indian Point",
      "types": [ "locality", "political" ]
    }, {
      "long_name": "Stone",
      "short_name": "Stone",
      "types": [ "administrative_area_level_2", "political" ]
    }, {
      "long_name": "Missouri",
      "short_name": "MO",
      "types": [ "administrative_area_level_1", "political" ]
    }, {
      "long_name": "United States",
      "short_name": "US",
      "types": [ "country", "political" ]
    } ],
    "geometry": {
      "location": {
        "lat": 36.6283960,
        "lng": -93.3437955
      },
      "location_type": "APPROXIMATE",
      "viewport": {
        "southwest": {
          "lat": 36.6104849,
          "lng": -93.3758103
        },
        "northeast": {
          "lat": 36.6463030,
          "lng": -93.3117807
        }
      },
      "bounds": {
        "southwest": {
          "lat": 36.6158840,
          "lng": -93.3561989
        },
        "northeast": {
          "lat": 36.6743020,
          "lng": -93.3288110
        }
      }
    }
  } ]
}
