{
  "status": "OK",
  "results": [ {
    "types": [ "locality", "political" ],
    "formatted_address": "Lanagan, MO, USA",
    "address_components": [ {
      "long_name": "Lanagan",
      "short_name": "Lanagan",
      "types": [ "locality", "political" ]
    }, {
      "long_name": "McDonald",
      "short_name": "Mc Donald",
      "types": [ "administrative_area_level_2", "political" ]
    }, {
      "long_name": "Missouri",
      "short_name": "MO",
      "types": [ "administrative_area_level_1", "political" ]
    }, {
      "long_name": "United States",
      "short_name": "US",
      "types": [ "country", "political" ]
    } ],
    "geometry": {
      "location": {
        "lat": 36.6081280,
        "lng": -94.4477164
      },
      "location_type": "APPROXIMATE",
      "viewport": {
        "southwest": {
          "lat": 36.5991706,
          "lng": -94.4637238
        },
        "northeast": {
          "lat": 36.6170844,
          "lng": -94.4317090
        }
      },
      "bounds": {
        "southwest": {
          "lat": 36.5981720,
          "lng": -94.4600710
        },
        "northeast": {
          "lat": 36.6158960,
          "lng": -94.4416430
        }
      }
    }
  } ]
}
