{
  "status": "OK",
  "results": [ {
    "types": [ "locality", "political" ],
    "formatted_address": "Liberal, MO, USA",
    "address_components": [ {
      "long_name": "Liberal",
      "short_name": "Liberal",
      "types": [ "locality", "political" ]
    }, {
      "long_name": "Barton",
      "short_name": "Barton",
      "types": [ "administrative_area_level_2", "political" ]
    }, {
      "long_name": "Missouri",
      "short_name": "MO",
      "types": [ "administrative_area_level_1", "political" ]
    }, {
      "long_name": "United States",
      "short_name": "US",
      "types": [ "country", "political" ]
    } ],
    "geometry": {
      "location": {
        "lat": 37.5581024,
        "lng": -94.5199553
      },
      "location_type": "APPROXIMATE",
      "viewport": {
        "southwest": {
          "lat": 37.5492565,
          "lng": -94.5359627
        },
        "northeast": {
          "lat": 37.5669472,
          "lng": -94.5039479
        }
      },
      "bounds": {
        "southwest": {
          "lat": 37.5519630,
          "lng": -94.5280360
        },
        "northeast": {
          "lat": 37.5674050,
          "lng": -94.5010320
        }
      }
    }
  } ]
}
