{
  "status": "OK",
  "results": [ {
    "types": [ "locality", "political" ],
    "formatted_address": "Lincoln, MO, USA",
    "address_components": [ {
      "long_name": "Lincoln",
      "short_name": "Lincoln",
      "types": [ "locality", "political" ]
    }, {
      "long_name": "Benton",
      "short_name": "Benton",
      "types": [ "administrative_area_level_2", "political" ]
    }, {
      "long_name": "Missouri",
      "short_name": "MO",
      "types": [ "administrative_area_level_1", "political" ]
    }, {
      "long_name": "United States",
      "short_name": "US",
      "types": [ "country", "political" ]
    } ],
    "geometry": {
      "location": {
        "lat": 38.3908555,
        "lng": -93.3346497
      },
      "location_type": "APPROXIMATE",
      "viewport": {
        "southwest": {
          "lat": 38.3821094,
          "lng": -93.3506571
        },
        "northeast": {
          "lat": 38.3996005,
          "lng": -93.3186423
        }
      },
      "bounds": {
        "southwest": {
          "lat": 38.3869560,
          "lng": -93.3540639
        },
        "northeast": {
          "lat": 38.4016720,
          "lng": -93.3182910
        }
      }
    }
  } ]
}
