{
  "status": "OK",
  "results": [ {
    "types": [ "locality", "political" ],
    "formatted_address": "Lowry City, MO, USA",
    "address_components": [ {
      "long_name": "Lowry City",
      "short_name": "Lowry City",
      "types": [ "locality", "political" ]
    }, {
      "long_name": "St. Clair",
      "short_name": "St. Clair",
      "types": [ "administrative_area_level_2", "political" ]
    }, {
      "long_name": "Missouri",
      "short_name": "MO",
      "types": [ "administrative_area_level_1", "political" ]
    }, {
      "long_name": "United States",
      "short_name": "US",
      "types": [ "country", "political" ]
    } ],
    "geometry": {
      "location": {
        "lat": 38.1400275,
        "lng": -93.7268774
      },
      "location_type": "APPROXIMATE",
      "viewport": {
        "southwest": {
          "lat": 38.1312512,
          "lng": -93.7428848
        },
        "northeast": {
          "lat": 38.1488028,
          "lng": -93.7108700
        }
      },
      "bounds": {
        "southwest": {
          "lat": 38.1302540,
          "lng": -93.7376730
        },
        "northeast": {
          "lat": 38.1482360,
          "lng": -93.7141939
        }
      }
    }
  } ]
}
