{
  "status": "OK",
  "results": [ {
    "types": [ "locality", "political" ],
    "formatted_address": "Malden, MO, USA",
    "address_components": [ {
      "long_name": "Malden",
      "short_name": "Malden",
      "types": [ "locality", "political" ]
    }, {
      "long_name": "Dunklin",
      "short_name": "Dunklin",
      "types": [ "administrative_area_level_2", "political" ]
    }, {
      "long_name": "Missouri",
      "short_name": "MO",
      "types": [ "administrative_area_level_1", "political" ]
    }, {
      "long_name": "United States",
      "short_name": "US",
      "types": [ "country", "political" ]
    } ],
    "geometry": {
      "location": {
        "lat": 36.5570028,
        "lng": -89.9664798
      },
      "location_type": "APPROXIMATE",
      "viewport": {
        "southwest": {
          "lat": 36.5211432,
          "lng": -90.0305095
        },
        "northeast": {
          "lat": 36.5928458,
          "lng": -89.9024501
        }
      },
      "bounds": {
        "southwest": {
          "lat": 36.5418300,
          "lng": -90.0092860
        },
        "northeast": {
          "lat": 36.6151530,
          "lng": -89.9566250
        }
      }
    }
  } ]
}
