{
  "status": "OK",
  "results": [ {
    "types": [ "locality", "political" ],
    "formatted_address": "Maplewood, MO, USA",
    "address_components": [ {
      "long_name": "Maplewood",
      "short_name": "Maplewood",
      "types": [ "locality", "political" ]
    }, {
      "long_name": "St. Louis",
      "short_name": "St. Louis",
      "types": [ "administrative_area_level_2", "political" ]
    }, {
      "long_name": "Missouri",
      "short_name": "MO",
      "types": [ "administrative_area_level_1", "political" ]
    }, {
      "long_name": "United States",
      "short_name": "US",
      "types": [ "country", "political" ]
    } ],
    "geometry": {
      "location": {
        "lat": 38.6125521,
        "lng": -90.3245599
      },
      "location_type": "APPROXIMATE",
      "viewport": {
        "southwest": {
          "lat": 38.6038329,
          "lng": -90.3405673
        },
        "northeast": {
          "lat": 38.6212702,
          "lng": -90.3085525
        }
      },
      "bounds": {
        "southwest": {
          "lat": 38.5987520,
          "lng": -90.3352149
        },
        "northeast": {
          "lat": 38.6225520,
          "lng": -90.3101140
        }
      }
    }
  } ]
}
