{
  "status": "OK",
  "results": [ {
    "types": [ "locality", "political" ],
    "formatted_address": "Marshfield, MO, USA",
    "address_components": [ {
      "long_name": "Marshfield",
      "short_name": "Marshfield",
      "types": [ "locality", "political" ]
    }, {
      "long_name": "Webster",
      "short_name": "Webster",
      "types": [ "administrative_area_level_2", "political" ]
    }, {
      "long_name": "Missouri",
      "short_name": "MO",
      "types": [ "administrative_area_level_1", "political" ]
    }, {
      "long_name": "United States",
      "short_name": "US",
      "types": [ "country", "political" ]
    } ],
    "geometry": {
      "location": {
        "lat": 37.3386580,
        "lng": -92.9071209
      },
      "location_type": "APPROXIMATE",
      "viewport": {
        "southwest": {
          "lat": 37.3209133,
          "lng": -92.9391357
        },
        "northeast": {
          "lat": 37.3563985,
          "lng": -92.8751061
        }
      },
      "bounds": {
        "southwest": {
          "lat": 37.3252490,
          "lng": -92.9431819
        },
        "northeast": {
          "lat": 37.3630749,
          "lng": -92.8833930
        }
      }
    }
  } ]
}
