{
  "status": "OK",
  "results": [ {
    "types": [ "locality", "political" ],
    "formatted_address": "Maryville, MO, USA",
    "address_components": [ {
      "long_name": "Maryville",
      "short_name": "Maryville",
      "types": [ "locality", "political" ]
    }, {
      "long_name": "Nodaway",
      "short_name": "Nodaway",
      "types": [ "administrative_area_level_2", "political" ]
    }, {
      "long_name": "Missouri",
      "short_name": "MO",
      "types": [ "administrative_area_level_1", "political" ]
    }, {
      "long_name": "United States",
      "short_name": "US",
      "types": [ "country", "political" ]
    } ],
    "geometry": {
      "location": {
        "lat": 40.3461017,
        "lng": -94.8724706
      },
      "location_type": "APPROXIMATE",
      "viewport": {
        "southwest": {
          "lat": 40.3120770,
          "lng": -94.9365003
        },
        "northeast": {
          "lat": 40.3801093,
          "lng": -94.8084409
        }
      },
      "bounds": {
        "southwest": {
          "lat": 40.3128520,
          "lng": -94.9003709
        },
        "northeast": {
          "lat": 40.3860260,
          "lng": -94.8072289
        }
      }
    }
  } ]
}
