{
  "status": "OK",
  "results": [ {
    "types": [ "locality", "political" ],
    "formatted_address": "Memphis, MO, USA",
    "address_components": [ {
      "long_name": "Memphis",
      "short_name": "Memphis",
      "types": [ "locality", "political" ]
    }, {
      "long_name": "Scotland",
      "short_name": "Scotland",
      "types": [ "administrative_area_level_2", "political" ]
    }, {
      "long_name": "Missouri",
      "short_name": "MO",
      "types": [ "administrative_area_level_1", "political" ]
    }, {
      "long_name": "United States",
      "short_name": "US",
      "types": [ "country", "political" ]
    } ],
    "geometry": {
      "location": {
        "lat": 40.4578119,
        "lng": -92.1712924
      },
      "location_type": "APPROXIMATE",
      "viewport": {
        "southwest": {
          "lat": 40.4493214,
          "lng": -92.1872998
        },
        "northeast": {
          "lat": 40.4663013,
          "lng": -92.1552850
        }
      },
      "bounds": {
        "southwest": {
          "lat": 40.4492130,
          "lng": -92.1831170
        },
        "northeast": {
          "lat": 40.4740560,
          "lng": -92.1559099
        }
      }
    }
  } ]
}
