{
  "status": "OK",
  "results": [ {
    "types": [ "locality", "political" ],
    "formatted_address": "Merriam Woods, MO, USA",
    "address_components": [ {
      "long_name": "Merriam Woods",
      "short_name": "Merriam Woods",
      "types": [ "locality", "political" ]
    }, {
      "long_name": "Taney",
      "short_name": "Taney",
      "types": [ "administrative_area_level_2", "political" ]
    }, {
      "long_name": "Missouri",
      "short_name": "MO",
      "types": [ "administrative_area_level_1", "political" ]
    }, {
      "long_name": "United States",
      "short_name": "US",
      "types": [ "country", "political" ]
    } ],
    "geometry": {
      "location": {
        "lat": 36.7139495,
        "lng": -93.1618468
      },
      "location_type": "APPROXIMATE",
      "viewport": {
        "southwest": {
          "lat": 36.7050044,
          "lng": -93.1778542
        },
        "northeast": {
          "lat": 36.7228936,
          "lng": -93.1458394
        }
      },
      "bounds": {
        "southwest": {
          "lat": 36.7041800,
          "lng": -93.1851410
        },
        "northeast": {
          "lat": 36.7316850,
          "lng": -93.1535320
        }
      }
    }
  } ]
}
