{
  "status": "OK",
  "results": [ {
    "types": [ "locality", "political" ],
    "formatted_address": "Mosby, MO, USA",
    "address_components": [ {
      "long_name": "Mosby",
      "short_name": "Mosby",
      "types": [ "locality", "political" ]
    }, {
      "long_name": "Clay",
      "short_name": "Clay",
      "types": [ "administrative_area_level_2", "political" ]
    }, {
      "long_name": "Missouri",
      "short_name": "MO",
      "types": [ "administrative_area_level_1", "political" ]
    }, {
      "long_name": "United States",
      "short_name": "US",
      "types": [ "country", "political" ]
    } ],
    "geometry": {
      "location": {
        "lat": 39.3155590,
        "lng": -94.2938356
      },
      "location_type": "APPROXIMATE",
      "viewport": {
        "southwest": {
          "lat": 39.3069259,
          "lng": -94.3098430
        },
        "northeast": {
          "lat": 39.3241910,
          "lng": -94.2778282
        }
      },
      "bounds": {
        "southwest": {
          "lat": 39.3085920,
          "lng": -94.3154540
        },
        "northeast": {
          "lat": 39.3299079,
          "lng": -94.2908860
        }
      }
    }
  } ]
}
