{
  "status": "OK",
  "results": [ {
    "types": [ "locality", "political" ],
    "formatted_address": "Mound City, MO, USA",
    "address_components": [ {
      "long_name": "Mound City",
      "short_name": "Mound City",
      "types": [ "locality", "political" ]
    }, {
      "long_name": "Holt",
      "short_name": "Holt",
      "types": [ "administrative_area_level_2", "political" ]
    }, {
      "long_name": "Missouri",
      "short_name": "MO",
      "types": [ "administrative_area_level_1", "political" ]
    }, {
      "long_name": "United States",
      "short_name": "US",
      "types": [ "country", "political" ]
    } ],
    "geometry": {
      "location": {
        "lat": 40.1311066,
        "lng": -95.2316428
      },
      "location_type": "APPROXIMATE",
      "viewport": {
        "southwest": {
          "lat": 40.1225750,
          "lng": -95.2476502
        },
        "northeast": {
          "lat": 40.1396371,
          "lng": -95.2156354
        }
      },
      "bounds": {
        "southwest": {
          "lat": 40.1255820,
          "lng": -95.2433219
        },
        "northeast": {
          "lat": 40.1497570,
          "lng": -95.2225629
        }
      }
    }
  } ]
}
