{
  "status": "OK",
  "results": [ {
    "types": [ "locality", "political" ],
    "formatted_address": "New Haven, MO, USA",
    "address_components": [ {
      "long_name": "New Haven",
      "short_name": "New Haven",
      "types": [ "locality", "political" ]
    }, {
      "long_name": "Franklin",
      "short_name": "Franklin",
      "types": [ "administrative_area_level_2", "political" ]
    }, {
      "long_name": "Missouri",
      "short_name": "MO",
      "types": [ "administrative_area_level_1", "political" ]
    }, {
      "long_name": "United States",
      "short_name": "US",
      "types": [ "country", "political" ]
    } ],
    "geometry": {
      "location": {
        "lat": 38.6083822,
        "lng": -91.2190416
      },
      "location_type": "APPROXIMATE",
      "viewport": {
        "southwest": {
          "lat": 38.5909417,
          "lng": -91.2510564
        },
        "northeast": {
          "lat": 38.6258184,
          "lng": -91.1870268
        }
      },
      "bounds": {
        "southwest": {
          "lat": 38.5916290,
          "lng": -91.2372379
        },
        "northeast": {
          "lat": 38.6221759,
          "lng": -91.1994699
        }
      }
    }
  } ]
}
