{
  "status": "OK",
  "results": [ {
    "types": [ "locality", "political" ],
    "formatted_address": "New Melle, MO, USA",
    "address_components": [ {
      "long_name": "New Melle",
      "short_name": "New Melle",
      "types": [ "locality", "political" ]
    }, {
      "long_name": "St. Charles",
      "short_name": "St. Charles",
      "types": [ "administrative_area_level_2", "political" ]
    }, {
      "long_name": "Missouri",
      "short_name": "MO",
      "types": [ "administrative_area_level_1", "political" ]
    }, {
      "long_name": "United States",
      "short_name": "US",
      "types": [ "country", "political" ]
    } ],
    "geometry": {
      "location": {
        "lat": 38.7097739,
        "lng": -90.8795796
      },
      "location_type": "APPROXIMATE",
      "viewport": {
        "southwest": {
          "lat": 38.6923581,
          "lng": -90.9115944
        },
        "northeast": {
          "lat": 38.7271855,
          "lng": -90.8475648
        }
      },
      "bounds": {
        "southwest": {
          "lat": 38.7036359,
          "lng": -90.8975739
        },
        "northeast": {
          "lat": 38.7345739,
          "lng": -90.8704410
        }
      }
    }
  } ]
}
