{
  "status": "OK",
  "results": [ {
    "types": [ "locality", "political" ],
    "formatted_address": "Niangua, MO, USA",
    "address_components": [ {
      "long_name": "Niangua",
      "short_name": "Niangua",
      "types": [ "locality", "political" ]
    }, {
      "long_name": "Webster",
      "short_name": "Webster",
      "types": [ "administrative_area_level_2", "political" ]
    }, {
      "long_name": "Missouri",
      "short_name": "MO",
      "types": [ "administrative_area_level_1", "political" ]
    }, {
      "long_name": "United States",
      "short_name": "US",
      "types": [ "country", "political" ]
    } ],
    "geometry": {
      "location": {
        "lat": 37.3872686,
        "lng": -92.8326752
      },
      "location_type": "APPROXIMATE",
      "viewport": {
        "southwest": {
          "lat": 37.3784025,
          "lng": -92.8486826
        },
        "northeast": {
          "lat": 37.3961337,
          "lng": -92.8166678
        }
      },
      "bounds": {
        "southwest": {
          "lat": 37.3818920,
          "lng": -92.8361889
        },
        "northeast": {
          "lat": 37.3947390,
          "lng": -92.8232489
        }
      }
    }
  } ]
}
