{
  "status": "OK",
  "results": [ {
    "types": [ "locality", "political" ],
    "formatted_address": "Norborne, MO, USA",
    "address_components": [ {
      "long_name": "Norborne",
      "short_name": "Norborne",
      "types": [ "locality", "political" ]
    }, {
      "long_name": "Carroll",
      "short_name": "Carroll",
      "types": [ "administrative_area_level_2", "political" ]
    }, {
      "long_name": "Missouri",
      "short_name": "MO",
      "types": [ "administrative_area_level_1", "political" ]
    }, {
      "long_name": "United States",
      "short_name": "US",
      "types": [ "country", "political" ]
    } ],
    "geometry": {
      "location": {
        "lat": 39.3025168,
        "lng": -93.6774377
      },
      "location_type": "APPROXIMATE",
      "viewport": {
        "southwest": {
          "lat": 39.2938821,
          "lng": -93.6934451
        },
        "northeast": {
          "lat": 39.3111505,
          "lng": -93.6614303
        }
      },
      "bounds": {
        "southwest": {
          "lat": 39.2964890,
          "lng": -93.6856289
        },
        "northeast": {
          "lat": 39.3077520,
          "lng": -93.6664270
        }
      }
    }
  } ]
}
