{
  "status": "OK",
  "results": [ {
    "types": [ "locality", "political" ],
    "formatted_address": "North Kansas City, MO, USA",
    "address_components": [ {
      "long_name": "North Kansas City",
      "short_name": "North Kansas City",
      "types": [ "locality", "political" ]
    }, {
      "long_name": "Clay",
      "short_name": "Clay",
      "types": [ "administrative_area_level_2", "political" ]
    }, {
      "long_name": "Missouri",
      "short_name": "MO",
      "types": [ "administrative_area_level_1", "political" ]
    }, {
      "long_name": "United States",
      "short_name": "US",
      "types": [ "country", "political" ]
    } ],
    "geometry": {
      "location": {
        "lat": 39.1300040,
        "lng": -94.5621773
      },
      "location_type": "APPROXIMATE",
      "viewport": {
        "southwest": {
          "lat": 39.1126910,
          "lng": -94.5941921
        },
        "northeast": {
          "lat": 39.1473127,
          "lng": -94.5301625
        }
      },
      "bounds": {
        "southwest": {
          "lat": 39.1232560,
          "lng": -94.5870470
        },
        "northeast": {
          "lat": 39.1524680,
          "lng": -94.5311909
        }
      }
    }
  } ]
}
