{
  "status": "OK",
  "results": [ {
    "types": [ "locality", "political" ],
    "formatted_address": "Norwood, MO, USA",
    "address_components": [ {
      "long_name": "Norwood",
      "short_name": "Norwood",
      "types": [ "locality", "political" ]
    }, {
      "long_name": "Wright",
      "short_name": "Wright",
      "types": [ "administrative_area_level_2", "political" ]
    }, {
      "long_name": "Missouri",
      "short_name": "MO",
      "types": [ "administrative_area_level_1", "political" ]
    }, {
      "long_name": "United States",
      "short_name": "US",
      "types": [ "country", "political" ]
    } ],
    "geometry": {
      "location": {
        "lat": 37.1083858,
        "lng": -92.4148865
      },
      "location_type": "APPROXIMATE",
      "viewport": {
        "southwest": {
          "lat": 37.0994868,
          "lng": -92.4308939
        },
        "northeast": {
          "lat": 37.1172837,
          "lng": -92.3988791
        }
      },
      "bounds": {
        "southwest": {
          "lat": 37.0966109,
          "lng": -92.4297490
        },
        "northeast": {
          "lat": 37.1168860,
          "lng": -92.4077590
        }
      }
    }
  } ]
}
