{
  "status": "OK",
  "results": [ {
    "types": [ "locality", "political" ],
    "formatted_address": "Oakview, MO, USA",
    "address_components": [ {
      "long_name": "Oakview",
      "short_name": "Oakview",
      "types": [ "locality", "political" ]
    }, {
      "long_name": "Clay",
      "short_name": "Clay",
      "types": [ "administrative_area_level_2", "political" ]
    }, {
      "long_name": "Missouri",
      "short_name": "MO",
      "types": [ "administrative_area_level_1", "political" ]
    }, {
      "long_name": "United States",
      "short_name": "US",
      "types": [ "country", "political" ]
    } ],
    "geometry": {
      "location": {
        "lat": 39.2086139,
        "lng": -94.5682886
      },
      "location_type": "APPROXIMATE",
      "viewport": {
        "southwest": {
          "lat": 39.1999676,
          "lng": -94.5842960
        },
        "northeast": {
          "lat": 39.2172591,
          "lng": -94.5522812
        }
      },
      "bounds": {
        "southwest": {
          "lat": 39.2065100,
          "lng": -94.5762730
        },
        "northeast": {
          "lat": 39.2106299,
          "lng": -94.5636870
        }
      }
    }
  } ]
}
