{
  "status": "OK",
  "results": [ {
    "types": [ "locality", "political" ],
    "formatted_address": "Pilot Knob, MO, USA",
    "address_components": [ {
      "long_name": "Pilot Knob",
      "short_name": "Pilot Knob",
      "types": [ "locality", "political" ]
    }, {
      "long_name": "Iron",
      "short_name": "Iron",
      "types": [ "administrative_area_level_2", "political" ]
    }, {
      "long_name": "Missouri",
      "short_name": "MO",
      "types": [ "administrative_area_level_1", "political" ]
    }, {
      "long_name": "United States",
      "short_name": "US",
      "types": [ "country", "political" ]
    } ],
    "geometry": {
      "location": {
        "lat": 37.6211611,
        "lng": -90.6404007
      },
      "location_type": "APPROXIMATE",
      "viewport": {
        "southwest": {
          "lat": 37.6123227,
          "lng": -90.6564081
        },
        "northeast": {
          "lat": 37.6299984,
          "lng": -90.6243933
        }
      },
      "bounds": {
        "southwest": {
          "lat": 37.6129100,
          "lng": -90.6589829
        },
        "northeast": {
          "lat": 37.6330699,
          "lng": -90.6312980
        }
      }
    }
  } ]
}
