{
  "status": "OK",
  "results": [ {
    "types": [ "locality", "political" ],
    "formatted_address": "Pleasant Hope, MO, USA",
    "address_components": [ {
      "long_name": "Pleasant Hope",
      "short_name": "Pleasant Hope",
      "types": [ "locality", "political" ]
    }, {
      "long_name": "Polk",
      "short_name": "Polk",
      "types": [ "administrative_area_level_2", "political" ]
    }, {
      "long_name": "Missouri",
      "short_name": "MO",
      "types": [ "administrative_area_level_1", "political" ]
    }, {
      "long_name": "United States",
      "short_name": "US",
      "types": [ "country", "political" ]
    } ],
    "geometry": {
      "location": {
        "lat": 37.4630980,
        "lng": -93.2726904
      },
      "location_type": "APPROXIMATE",
      "viewport": {
        "southwest": {
          "lat": 37.4542409,
          "lng": -93.2886978
        },
        "northeast": {
          "lat": 37.4719541,
          "lng": -93.2566830
        }
      },
      "bounds": {
        "southwest": {
          "lat": 37.4504070,
          "lng": -93.2816299
        },
        "northeast": {
          "lat": 37.4741320,
          "lng": -93.2657019
        }
      }
    }
  } ]
}
