{
  "status": "OK",
  "results": [ {
    "types": [ "locality", "political" ],
    "formatted_address": "Queen City, MO, USA",
    "address_components": [ {
      "long_name": "Queen City",
      "short_name": "Queen City",
      "types": [ "locality", "political" ]
    }, {
      "long_name": "Schuyler",
      "short_name": "Schuyler",
      "types": [ "administrative_area_level_2", "political" ]
    }, {
      "long_name": "Missouri",
      "short_name": "MO",
      "types": [ "administrative_area_level_1", "political" ]
    }, {
      "long_name": "United States",
      "short_name": "US",
      "types": [ "country", "political" ]
    } ],
    "geometry": {
      "location": {
        "lat": 40.4091966,
        "lng": -92.5676916
      },
      "location_type": "APPROXIMATE",
      "viewport": {
        "southwest": {
          "lat": 40.4007000,
          "lng": -92.5836990
        },
        "northeast": {
          "lat": 40.4176921,
          "lng": -92.5516842
        }
      },
      "bounds": {
        "southwest": {
          "lat": 40.4024200,
          "lng": -92.5734789
        },
        "northeast": {
          "lat": 40.4228860,
          "lng": -92.5590040
        }
      }
    }
  } ]
}
