{
  "status": "OK",
  "results": [ {
    "types": [ "locality", "political" ],
    "formatted_address": "Reeds Spring, MO, USA",
    "address_components": [ {
      "long_name": "Reeds Spring",
      "short_name": "Reeds Spring",
      "types": [ "locality", "political" ]
    }, {
      "long_name": "Stone",
      "short_name": "Stone",
      "types": [ "administrative_area_level_2", "political" ]
    }, {
      "long_name": "Missouri",
      "short_name": "MO",
      "types": [ "administrative_area_level_1", "political" ]
    }, {
      "long_name": "United States",
      "short_name": "US",
      "types": [ "country", "political" ]
    } ],
    "geometry": {
      "location": {
        "lat": 36.7497827,
        "lng": -93.3779641
      },
      "location_type": "APPROXIMATE",
      "viewport": {
        "southwest": {
          "lat": 36.7318998,
          "lng": -93.4099789
        },
        "northeast": {
          "lat": 36.7676614,
          "lng": -93.3459493
        }
      },
      "bounds": {
        "southwest": {
          "lat": 36.7266800,
          "lng": -93.3949310
        },
        "northeast": {
          "lat": 36.7666660,
          "lng": -93.3487660
        }
      }
    }
  } ]
}
