{
  "status": "OK",
  "results": [ {
    "types": [ "locality", "political" ],
    "formatted_address": "Saint Charles, MO, USA",
    "address_components": [ {
      "long_name": "Saint Charles",
      "short_name": "Saint Charles",
      "types": [ "locality", "political" ]
    }, {
      "long_name": "St. Charles",
      "short_name": "St. Charles",
      "types": [ "administrative_area_level_2", "political" ]
    }, {
      "long_name": "Missouri",
      "short_name": "MO",
      "types": [ "administrative_area_level_1", "political" ]
    }, {
      "long_name": "United States",
      "short_name": "US",
      "types": [ "country", "political" ]
    } ],
    "geometry": {
      "location": {
        "lat": 38.7833333,
        "lng": -90.5166667
      },
      "location_type": "APPROXIMATE",
      "viewport": {
        "southwest": {
          "lat": 38.7485333,
          "lng": -90.5806964
        },
        "northeast": {
          "lat": 38.8181163,
          "lng": -90.4526370
        }
      },
      "bounds": {
        "southwest": {
          "lat": 38.7449639,
          "lng": -90.5708240
        },
        "northeast": {
          "lat": 38.8451030,
          "lng": -90.4605170
        }
      }
    }
  } ]
}
