{
  "status": "OK",
  "results": [ {
    "types": [ "locality", "political" ],
    "formatted_address": "Salem, MO, USA",
    "address_components": [ {
      "long_name": "Salem",
      "short_name": "Salem",
      "types": [ "locality", "political" ]
    }, {
      "long_name": "Dent",
      "short_name": "Dent",
      "types": [ "administrative_area_level_2", "political" ]
    }, {
      "long_name": "Missouri",
      "short_name": "MO",
      "types": [ "administrative_area_level_1", "political" ]
    }, {
      "long_name": "United States",
      "short_name": "US",
      "types": [ "country", "political" ]
    } ],
    "geometry": {
      "location": {
        "lat": 37.6455993,
        "lng": -91.5359808
      },
      "location_type": "APPROXIMATE",
      "viewport": {
        "southwest": {
          "lat": 37.6279273,
          "lng": -91.5679956
        },
        "northeast": {
          "lat": 37.6632671,
          "lng": -91.5039660
        }
      },
      "bounds": {
        "southwest": {
          "lat": 37.6269870,
          "lng": -91.5639549
        },
        "northeast": {
          "lat": 37.6599019,
          "lng": -91.5064769
        }
      }
    }
  } ]
}
