{
  "status": "OK",
  "results": [ {
    "types": [ "locality", "political" ],
    "formatted_address": "Scott City, MO, USA",
    "address_components": [ {
      "long_name": "Scott City",
      "short_name": "Scott City",
      "types": [ "locality", "political" ]
    }, {
      "long_name": "Scott",
      "short_name": "Scott",
      "types": [ "administrative_area_level_2", "political" ]
    }, {
      "long_name": "Missouri",
      "short_name": "MO",
      "types": [ "administrative_area_level_1", "political" ]
    }, {
      "long_name": "United States",
      "short_name": "US",
      "types": [ "country", "political" ]
    } ],
    "geometry": {
      "location": {
        "lat": 37.2167175,
        "lng": -89.5245336
      },
      "location_type": "APPROXIMATE",
      "viewport": {
        "southwest": {
          "lat": 37.1811663,
          "lng": -89.5885633
        },
        "northeast": {
          "lat": 37.2522519,
          "lng": -89.4605039
        }
      },
      "bounds": {
        "southwest": {
          "lat": 37.2047200,
          "lng": -89.5668280
        },
        "northeast": {
          "lat": 37.2564260,
          "lng": -89.4927740
        }
      }
    }
  } ]
}
