{
  "status": "OK",
  "results": [ {
    "types": [ "locality", "political" ],
    "formatted_address": "Seligman, MO, USA",
    "address_components": [ {
      "long_name": "Seligman",
      "short_name": "Seligman",
      "types": [ "locality", "political" ]
    }, {
      "long_name": "Barry",
      "short_name": "Barry",
      "types": [ "administrative_area_level_2", "political" ]
    }, {
      "long_name": "Missouri",
      "short_name": "MO",
      "types": [ "administrative_area_level_1", "political" ]
    }, {
      "long_name": "United States",
      "short_name": "US",
      "types": [ "country", "political" ]
    } ],
    "geometry": {
      "location": {
        "lat": 36.5225707,
        "lng": -93.9396444
      },
      "location_type": "APPROXIMATE",
      "viewport": {
        "southwest": {
          "lat": 36.5136034,
          "lng": -93.9556518
        },
        "northeast": {
          "lat": 36.5315370,
          "lng": -93.9236370
        }
      },
      "bounds": {
        "southwest": {
          "lat": 36.5063780,
          "lng": -93.9510840
        },
        "northeast": {
          "lat": 36.5364460,
          "lng": -93.9286099
        }
      }
    }
  } ]
}
