{
  "status": "OK",
  "results": [ {
    "types": [ "locality", "political" ],
    "formatted_address": "Seymour, MO, USA",
    "address_components": [ {
      "long_name": "Seymour",
      "short_name": "Seymour",
      "types": [ "locality", "political" ]
    }, {
      "long_name": "Webster",
      "short_name": "Webster",
      "types": [ "administrative_area_level_2", "political" ]
    }, {
      "long_name": "Missouri",
      "short_name": "MO",
      "types": [ "administrative_area_level_1", "political" ]
    }, {
      "long_name": "United States",
      "short_name": "US",
      "types": [ "country", "political" ]
    } ],
    "geometry": {
      "location": {
        "lat": 37.1464398,
        "lng": -92.7687818
      },
      "location_type": "APPROXIMATE",
      "viewport": {
        "southwest": {
          "lat": 37.1375453,
          "lng": -92.7847892
        },
        "northeast": {
          "lat": 37.1553333,
          "lng": -92.7527744
        }
      },
      "bounds": {
        "southwest": {
          "lat": 37.1363280,
          "lng": -92.7887830
        },
        "northeast": {
          "lat": 37.1626620,
          "lng": -92.7524739
        }
      }
    }
  } ]
}
