{
  "status": "OK",
  "results": [ {
    "types": [ "locality", "political" ],
    "formatted_address": "Strasburg, MO, USA",
    "address_components": [ {
      "long_name": "Strasburg",
      "short_name": "Strasburg",
      "types": [ "locality", "political" ]
    }, {
      "long_name": "Cass",
      "short_name": "Cass",
      "types": [ "administrative_area_level_2", "political" ]
    }, {
      "long_name": "Missouri",
      "short_name": "MO",
      "types": [ "administrative_area_level_1", "political" ]
    }, {
      "long_name": "United States",
      "short_name": "US",
      "types": [ "country", "political" ]
    } ],
    "geometry": {
      "location": {
        "lat": 38.7600099,
        "lng": -94.1663334
      },
      "location_type": "APPROXIMATE",
      "viewport": {
        "southwest": {
          "lat": 38.7513086,
          "lng": -94.1823408
        },
        "northeast": {
          "lat": 38.7687101,
          "lng": -94.1503260
        }
      },
      "bounds": {
        "southwest": {
          "lat": 38.7566599,
          "lng": -94.1688870
        },
        "northeast": {
          "lat": 38.7636440,
          "lng": -94.1586770
        }
      }
    }
  } ]
}
