{
  "status": "OK",
  "results": [ {
    "types": [ "locality", "political" ],
    "formatted_address": "Sunset Hills, MO, USA",
    "address_components": [ {
      "long_name": "Sunset Hills",
      "short_name": "Sunset Hills",
      "types": [ "locality", "political" ]
    }, {
      "long_name": "St. Louis",
      "short_name": "St. Louis",
      "types": [ "administrative_area_level_2", "political" ]
    }, {
      "long_name": "Missouri",
      "short_name": "MO",
      "types": [ "administrative_area_level_1", "political" ]
    }, {
      "long_name": "United States",
      "short_name": "US",
      "types": [ "country", "political" ]
    } ],
    "geometry": {
      "location": {
        "lat": 38.5389423,
        "lng": -90.4073410
      },
      "location_type": "APPROXIMATE",
      "viewport": {
        "southwest": {
          "lat": 38.5214850,
          "lng": -90.4393558
        },
        "northeast": {
          "lat": 38.5563954,
          "lng": -90.3753262
        }
      },
      "bounds": {
        "southwest": {
          "lat": 38.5034820,
          "lng": -90.4358190
        },
        "northeast": {
          "lat": 38.5617529,
          "lng": -90.3799169
        }
      }
    }
  } ]
}
