{
  "status": "OK",
  "results": [ {
    "types": [ "locality", "political" ],
    "formatted_address": "Tarkio, MO, USA",
    "address_components": [ {
      "long_name": "Tarkio",
      "short_name": "Tarkio",
      "types": [ "locality", "political" ]
    }, {
      "long_name": "Atchison",
      "short_name": "Atchison",
      "types": [ "administrative_area_level_2", "political" ]
    }, {
      "long_name": "Missouri",
      "short_name": "MO",
      "types": [ "administrative_area_level_1", "political" ]
    }, {
      "long_name": "United States",
      "short_name": "US",
      "types": [ "country", "political" ]
    } ],
    "geometry": {
      "location": {
        "lat": 40.4402763,
        "lng": -95.3777586
      },
      "location_type": "APPROXIMATE",
      "viewport": {
        "southwest": {
          "lat": 40.4317836,
          "lng": -95.3937660
        },
        "northeast": {
          "lat": 40.4487679,
          "lng": -95.3617512
        }
      },
      "bounds": {
        "southwest": {
          "lat": 40.4335400,
          "lng": -95.3942400
        },
        "northeast": {
          "lat": 40.4521630,
          "lng": -95.3728249
        }
      }
    }
  } ]
}
