{
  "status": "OK",
  "results": [ {
    "types": [ "locality", "political" ],
    "formatted_address": "Union, MO, USA",
    "address_components": [ {
      "long_name": "Union",
      "short_name": "Union",
      "types": [ "locality", "political" ]
    }, {
      "long_name": "Franklin",
      "short_name": "Franklin",
      "types": [ "administrative_area_level_2", "political" ]
    }, {
      "long_name": "Missouri",
      "short_name": "MO",
      "types": [ "administrative_area_level_1", "political" ]
    }, {
      "long_name": "United States",
      "short_name": "US",
      "types": [ "country", "political" ]
    } ],
    "geometry": {
      "location": {
        "lat": 38.4500517,
        "lng": -91.0084762
      },
      "location_type": "APPROXIMATE",
      "viewport": {
        "southwest": {
          "lat": 38.4150897,
          "lng": -91.0725059
        },
        "northeast": {
          "lat": 38.4849968,
          "lng": -90.9444465
        }
      },
      "bounds": {
        "southwest": {
          "lat": 38.4127880,
          "lng": -91.0403590
        },
        "northeast": {
          "lat": 38.4698129,
          "lng": -90.9166669
        }
      }
    }
  } ]
}
