{
  "status": "OK",
  "results": [ {
    "types": [ "locality", "political" ],
    "formatted_address": "Velda City, MO, USA",
    "address_components": [ {
      "long_name": "Velda City",
      "short_name": "Velda City",
      "types": [ "locality", "political" ]
    }, {
      "long_name": "St. Louis",
      "short_name": "St. Louis",
      "types": [ "administrative_area_level_2", "political" ]
    }, {
      "long_name": "Missouri",
      "short_name": "MO",
      "types": [ "administrative_area_level_1", "political" ]
    }, {
      "long_name": "United States",
      "short_name": "US",
      "types": [ "country", "political" ]
    } ],
    "geometry": {
      "location": {
        "lat": 38.6940510,
        "lng": -90.2941630
      },
      "location_type": "APPROXIMATE",
      "viewport": {
        "southwest": {
          "lat": 38.6853417,
          "lng": -90.3101704
        },
        "northeast": {
          "lat": 38.7027592,
          "lng": -90.2781556
        }
      },
      "bounds": {
        "southwest": {
          "lat": 38.6880510,
          "lng": -90.2968130
        },
        "northeast": {
          "lat": 38.6986510,
          "lng": -90.2890130
        }
      }
    }
  } ]
}
