{
  "status": "OK",
  "results": [ {
    "types": [ "locality", "political" ],
    "formatted_address": "Verona, MO, USA",
    "address_components": [ {
      "long_name": "Verona",
      "short_name": "Verona",
      "types": [ "locality", "political" ]
    }, {
      "long_name": "Lawrence",
      "short_name": "Lawrence",
      "types": [ "administrative_area_level_2", "political" ]
    }, {
      "long_name": "Missouri",
      "short_name": "MO",
      "types": [ "administrative_area_level_1", "political" ]
    }, {
      "long_name": "United States",
      "short_name": "US",
      "types": [ "country", "political" ]
    } ],
    "geometry": {
      "location": {
        "lat": 36.9639476,
        "lng": -93.7957591
      },
      "location_type": "APPROXIMATE",
      "viewport": {
        "southwest": {
          "lat": 36.9550317,
          "lng": -93.8117665
        },
        "northeast": {
          "lat": 36.9728625,
          "lng": -93.7797517
        }
      },
      "bounds": {
        "southwest": {
          "lat": 36.9533510,
          "lng": -93.8047129
        },
        "northeast": {
          "lat": 36.9718260,
          "lng": -93.7841979
        }
      }
    }
  } ]
}
