{
  "status": "OK",
  "results": [ {
    "types": [ "locality", "political" ],
    "formatted_address": "Vinita Park, MO, USA",
    "address_components": [ {
      "long_name": "Vinita Park",
      "short_name": "Vinita Park",
      "types": [ "locality", "political" ]
    }, {
      "long_name": "St. Louis",
      "short_name": "St. Louis",
      "types": [ "administrative_area_level_2", "political" ]
    }, {
      "long_name": "Missouri",
      "short_name": "MO",
      "types": [ "administrative_area_level_1", "political" ]
    }, {
      "long_name": "United States",
      "short_name": "US",
      "types": [ "country", "political" ]
    } ],
    "geometry": {
      "location": {
        "lat": 38.6900515,
        "lng": -90.3426154
      },
      "location_type": "APPROXIMATE",
      "viewport": {
        "southwest": {
          "lat": 38.6813417,
          "lng": -90.3586228
        },
        "northeast": {
          "lat": 38.6987602,
          "lng": -90.3266080
        }
      },
      "bounds": {
        "southwest": {
          "lat": 38.6813510,
          "lng": -90.3471150
        },
        "northeast": {
          "lat": 38.6986510,
          "lng": -90.3303150
        }
      }
    }
  } ]
}
