{
  "status": "OK",
  "results": [ {
    "types": [ "locality", "political" ],
    "formatted_address": "Warson Woods, MO, USA",
    "address_components": [ {
      "long_name": "Warson Woods",
      "short_name": "Warson Woods",
      "types": [ "locality", "political" ]
    }, {
      "long_name": "St. Louis",
      "short_name": "St. Louis",
      "types": [ "administrative_area_level_2", "political" ]
    }, {
      "long_name": "Missouri",
      "short_name": "MO",
      "types": [ "administrative_area_level_1", "political" ]
    }, {
      "long_name": "United States",
      "short_name": "US",
      "types": [ "country", "political" ]
    } ],
    "geometry": {
      "location": {
        "lat": 38.6072747,
        "lng": -90.3834507
      },
      "location_type": "APPROXIMATE",
      "viewport": {
        "southwest": {
          "lat": 38.5985549,
          "lng": -90.3994581
        },
        "northeast": {
          "lat": 38.6159935,
          "lng": -90.3674433
        }
      },
      "bounds": {
        "southwest": {
          "lat": 38.6018520,
          "lng": -90.4012170
        },
        "northeast": {
          "lat": 38.6111520,
          "lng": -90.3795169
        }
      }
    }
  } ]
}
