{
  "status": "OK",
  "results": [ {
    "types": [ "locality", "political" ],
    "formatted_address": "Waverly, MO, USA",
    "address_components": [ {
      "long_name": "Waverly",
      "short_name": "Waverly",
      "types": [ "locality", "political" ]
    }, {
      "long_name": "Lafayette",
      "short_name": "Lafayette",
      "types": [ "administrative_area_level_2", "political" ]
    }, {
      "long_name": "Missouri",
      "short_name": "MO",
      "types": [ "administrative_area_level_1", "political" ]
    }, {
      "long_name": "United States",
      "short_name": "US",
      "types": [ "country", "political" ]
    } ],
    "geometry": {
      "location": {
        "lat": 39.2094637,
        "lng": -93.5177118
      },
      "location_type": "APPROXIMATE",
      "viewport": {
        "southwest": {
          "lat": 39.2008175,
          "lng": -93.5337192
        },
        "northeast": {
          "lat": 39.2181088,
          "lng": -93.5017044
        }
      },
      "bounds": {
        "southwest": {
          "lat": 39.1987899,
          "lng": -93.5316230
        },
        "northeast": {
          "lat": 39.2160970,
          "lng": -93.5102539
        }
      }
    }
  } ]
}
