{
  "status": "OK",
  "results": [ {
    "types": [ "locality", "political" ],
    "formatted_address": "Wellington, MO, USA",
    "address_components": [ {
      "long_name": "Wellington",
      "short_name": "Wellington",
      "types": [ "locality", "political" ]
    }, {
      "long_name": "Lafayette",
      "short_name": "Lafayette",
      "types": [ "administrative_area_level_2", "political" ]
    }, {
      "long_name": "Missouri",
      "short_name": "MO",
      "types": [ "administrative_area_level_1", "political" ]
    }, {
      "long_name": "United States",
      "short_name": "US",
      "types": [ "country", "political" ]
    } ],
    "geometry": {
      "location": {
        "lat": 39.1341762,
        "lng": -93.9827222
      },
      "location_type": "APPROXIMATE",
      "viewport": {
        "southwest": {
          "lat": 39.1255207,
          "lng": -93.9987296
        },
        "northeast": {
          "lat": 39.1428306,
          "lng": -93.9667148
        }
      },
      "bounds": {
        "southwest": {
          "lat": 39.1286099,
          "lng": -93.9958599
        },
        "northeast": {
          "lat": 39.1548230,
          "lng": -93.9772139
        }
      }
    }
  } ]
}
