{
  "status": "OK",
  "results": [ {
    "types": [ "locality", "political" ],
    "formatted_address": "West Plains, MO, USA",
    "address_components": [ {
      "long_name": "West Plains",
      "short_name": "West Plains",
      "types": [ "locality", "political" ]
    }, {
      "long_name": "Howell",
      "short_name": "Howell",
      "types": [ "administrative_area_level_2", "political" ]
    }, {
      "long_name": "Missouri",
      "short_name": "MO",
      "types": [ "administrative_area_level_1", "political" ]
    }, {
      "long_name": "United States",
      "short_name": "US",
      "types": [ "country", "political" ]
    } ],
    "geometry": {
      "location": {
        "lat": 36.7281154,
        "lng": -91.8523711
      },
      "location_type": "APPROXIMATE",
      "viewport": {
        "southwest": {
          "lat": 36.6923353,
          "lng": -91.9164008
        },
        "northeast": {
          "lat": 36.7638788,
          "lng": -91.7883414
        }
      },
      "bounds": {
        "southwest": {
          "lat": 36.6995469,
          "lng": -91.9141710
        },
        "northeast": {
          "lat": 36.7986280,
          "lng": -91.8162859
        }
      }
    }
  } ]
}
