{
  "status": "OK",
  "results": [ {
    "types": [ "locality", "political" ],
    "formatted_address": "Winona, MO, USA",
    "address_components": [ {
      "long_name": "Winona",
      "short_name": "Winona",
      "types": [ "locality", "political" ]
    }, {
      "long_name": "Shannon",
      "short_name": "Shannon",
      "types": [ "administrative_area_level_2", "political" ]
    }, {
      "long_name": "Missouri",
      "short_name": "MO",
      "types": [ "administrative_area_level_1", "political" ]
    }, {
      "long_name": "United States",
      "short_name": "US",
      "types": [ "country", "political" ]
    } ],
    "geometry": {
      "location": {
        "lat": 37.0097738,
        "lng": -91.3234669
      },
      "location_type": "APPROXIMATE",
      "viewport": {
        "southwest": {
          "lat": 36.9919517,
          "lng": -91.3554817
        },
        "northeast": {
          "lat": 37.0275918,
          "lng": -91.2914521
        }
      },
      "bounds": {
        "southwest": {
          "lat": 36.9875070,
          "lng": -91.3516269
        },
        "northeast": {
          "lat": 37.0244829,
          "lng": -91.2960710
        }
      }
    }
  } ]
}
