{
  "status": "OK",
  "results": [ {
    "types": [ "locality", "political" ],
    "formatted_address": "Wright City, MO, USA",
    "address_components": [ {
      "long_name": "Wright City",
      "short_name": "Wright City",
      "types": [ "locality", "political" ]
    }, {
      "long_name": "Warren",
      "short_name": "Warren",
      "types": [ "administrative_area_level_2", "political" ]
    }, {
      "long_name": "Missouri",
      "short_name": "MO",
      "types": [ "administrative_area_level_1", "political" ]
    }, {
      "long_name": "United States",
      "short_name": "US",
      "types": [ "country", "political" ]
    } ],
    "geometry": {
      "location": {
        "lat": 38.8275491,
        "lng": -91.0201422
      },
      "location_type": "APPROXIMATE",
      "viewport": {
        "southwest": {
          "lat": 38.7927707,
          "lng": -91.0841719
        },
        "northeast": {
          "lat": 38.8623105,
          "lng": -90.9561125
        }
      },
      "bounds": {
        "southwest": {
          "lat": 38.7984960,
          "lng": -91.0740589
        },
        "northeast": {
          "lat": 38.8502529,
          "lng": -90.9891600
        }
      }
    }
  } ]
}
