{
  "status": "OK",
  "results": [ {
    "types": [ "locality", "political" ],
    "formatted_address": "Shelburne, VT, USA",
    "address_components": [ {
      "long_name": "Shelburne",
      "short_name": "Shelburne",
      "types": [ "locality", "political" ]
    }, {
      "long_name": "Chittenden",
      "short_name": "Chittenden",
      "types": [ "administrative_area_level_2", "political" ]
    }, {
      "long_name": "Vermont",
      "short_name": "VT",
      "types": [ "administrative_area_level_1", "political" ]
    }, {
      "long_name": "United States",
      "short_name": "US",
      "types": [ "country", "political" ]
    } ],
    "geometry": {
      "location": {
        "lat": 44.3897222,
        "lng": -73.2247222
      },
      "location_type": "APPROXIMATE",
      "viewport": {
        "southwest": {
          "lat": 44.3578196,
          "lng": -73.2887519
        },
        "northeast": {
          "lat": 44.4216074,
          "lng": -73.1606925
        }
      },
      "bounds": {
        "southwest": {
          "lat": 44.3470410,
          "lng": -73.2954661
        },
        "northeast": {
          "lat": 44.4451040,
          "lng": -73.1326658
        }
      }
    }
  } ]
}
