{
  "status": "OK",
  "results": [ {
    "types": [ "locality", "political" ],
    "formatted_address": "Winooski, VT, USA",
    "address_components": [ {
      "long_name": "Winooski",
      "short_name": "Winooski",
      "types": [ "locality", "political" ]
    }, {
      "long_name": "Chittenden",
      "short_name": "Chittenden",
      "types": [ "administrative_area_level_2", "political" ]
    }, {
      "long_name": "Vermont",
      "short_name": "VT",
      "types": [ "administrative_area_level_1", "political" ]
    }, {
      "long_name": "United States",
      "short_name": "US",
      "types": [ "country", "political" ]
    } ],
    "geometry": {
      "location": {
        "lat": 44.4914380,
        "lng": -73.1856832
      },
      "location_type": "APPROXIMATE",
      "viewport": {
        "southwest": {
          "lat": 44.4834778,
          "lng": -73.2016906
        },
        "northeast": {
          "lat": 44.4993971,
          "lng": -73.1696758
        }
      },
      "bounds": {
        "southwest": {
          "lat": 44.4843590,
          "lng": -73.2019919
        },
        "northeast": {
          "lat": 44.5063279,
          "lng": -73.1655600
        }
      }
    }
  } ]
}
