{
  "status": "OK",
  "results": [ {
    "types": [ "locality", "political" ],
    "formatted_address": "Apex, NC, USA",
    "address_components": [ {
      "long_name": "Apex",
      "short_name": "Apex",
      "types": [ "locality", "political" ]
    }, {
      "long_name": "White Oak",
      "short_name": "White Oak",
      "types": [ "administrative_area_level_3", "political" ]
    }, {
      "long_name": "Wake",
      "short_name": "Wake",
      "types": [ "administrative_area_level_2", "political" ]
    }, {
      "long_name": "North Carolina",
      "short_name": "NC",
      "types": [ "administrative_area_level_1", "political" ]
    }, {
      "long_name": "United States",
      "short_name": "US",
      "types": [ "country", "political" ]
    } ],
    "geometry": {
      "location": {
        "lat": 35.7326520,
        "lng": -78.8502856
      },
      "location_type": "APPROXIMATE",
      "viewport": {
        "southwest": {
          "lat": 35.6964137,
          "lng": -78.9143153
        },
        "northeast": {
          "lat": 35.7688738,
          "lng": -78.7862559
        }
      },
      "bounds": {
        "southwest": {
          "lat": 35.6791739,
          "lng": -78.9192760
        },
        "northeast": {
          "lat": 35.7758709,
          "lng": -78.8106550
        }
      }
    }
  } ]
}
