{
  "status": "OK",
  "results": [ {
    "types": [ "locality", "political" ],
    "formatted_address": "Archdale, NC, USA",
    "address_components": [ {
      "long_name": "Archdale",
      "short_name": "Archdale",
      "types": [ "locality", "political" ]
    }, {
      "long_name": "Randolph",
      "short_name": "Randolph",
      "types": [ "administrative_area_level_2", "political" ]
    }, {
      "long_name": "North Carolina",
      "short_name": "NC",
      "types": [ "administrative_area_level_1", "political" ]
    }, {
      "long_name": "United States",
      "short_name": "US",
      "types": [ "country", "political" ]
    } ],
    "geometry": {
      "location": {
        "lat": 35.9145810,
        "lng": -79.9719831
      },
      "location_type": "APPROXIMATE",
      "viewport": {
        "southwest": {
          "lat": 35.8784257,
          "lng": -80.0360128
        },
        "northeast": {
          "lat": 35.9507198,
          "lng": -79.9079534
        }
      },
      "bounds": {
        "southwest": {
          "lat": 35.8724540,
          "lng": -80.0160329
        },
        "northeast": {
          "lat": 35.9324400,
          "lng": -79.9227210
        }
      }
    }
  } ]
}
