{
  "status": "OK",
  "results": [ {
    "types": [ "locality", "political" ],
    "formatted_address": "Asheville, NC, USA",
    "address_components": [ {
      "long_name": "Asheville",
      "short_name": "Asheville",
      "types": [ "locality", "political" ]
    }, {
      "long_name": "Buncombe",
      "short_name": "Buncombe",
      "types": [ "administrative_area_level_2", "political" ]
    }, {
      "long_name": "North Carolina",
      "short_name": "NC",
      "types": [ "administrative_area_level_1", "political" ]
    }, {
      "long_name": "United States",
      "short_name": "US",
      "types": [ "country", "political" ]
    } ],
    "geometry": {
      "location": {
        "lat": 35.6009452,
        "lng": -82.5540150
      },
      "location_type": "APPROXIMATE",
      "viewport": {
        "southwest": {
          "lat": 35.5283326,
          "lng": -82.6820744
        },
        "northeast": {
          "lat": 35.6734920,
          "lng": -82.4259556
        }
      },
      "bounds": {
        "southwest": {
          "lat": 35.4215650,
          "lng": -82.6708730
        },
        "northeast": {
          "lat": 35.6562990,
          "lng": -82.4599379
        }
      }
    }
  } ]
}
