{
  "status": "OK",
  "results": [ {
    "types": [ "locality", "political" ],
    "formatted_address": "Atlantic Beach, NC, USA",
    "address_components": [ {
      "long_name": "Atlantic Beach",
      "short_name": "Atlantic Beach",
      "types": [ "locality", "political" ]
    }, {
      "long_name": "Carteret",
      "short_name": "Carteret",
      "types": [ "administrative_area_level_2", "political" ]
    }, {
      "long_name": "North Carolina",
      "short_name": "NC",
      "types": [ "administrative_area_level_1", "political" ]
    }, {
      "long_name": "United States",
      "short_name": "US",
      "types": [ "country", "political" ]
    } ],
    "geometry": {
      "location": {
        "lat": 34.6990505,
        "lng": -76.7402108
      },
      "location_type": "APPROXIMATE",
      "viewport": {
        "southwest": {
          "lat": 34.6807013,
          "lng": -76.7722256
        },
        "northeast": {
          "lat": 34.7173956,
          "lng": -76.7081960
        }
      },
      "bounds": {
        "southwest": {
          "lat": 34.6934369,
          "lng": -76.7848329
        },
        "northeast": {
          "lat": 34.7122010,
          "lng": -76.7009109
        }
      }
    }
  } ]
}
