{
  "status": "OK",
  "results": [ {
    "types": [ "locality", "political" ],
    "formatted_address": "Beaufort, NC, USA",
    "address_components": [ {
      "long_name": "Beaufort",
      "short_name": "Beaufort",
      "types": [ "locality", "political" ]
    }, {
      "long_name": "Carteret",
      "short_name": "Carteret",
      "types": [ "administrative_area_level_2", "political" ]
    }, {
      "long_name": "North Carolina",
      "short_name": "NC",
      "types": [ "administrative_area_level_1", "political" ]
    }, {
      "long_name": "United States",
      "short_name": "US",
      "types": [ "country", "political" ]
    } ],
    "geometry": {
      "location": {
        "lat": 34.7182174,
        "lng": -76.6638186
      },
      "location_type": "APPROXIMATE",
      "viewport": {
        "southwest": {
          "lat": 34.6815234,
          "lng": -76.7278483
        },
        "northeast": {
          "lat": 34.7548951,
          "lng": -76.5997889
        }
      },
      "bounds": {
        "southwest": {
          "lat": 34.7021839,
          "lng": -76.6738670
        },
        "northeast": {
          "lat": 34.7768540,
          "lng": -76.6191310
        }
      }
    }
  } ]
}
