{
  "status": "OK",
  "results": [ {
    "types": [ "locality", "political" ],
    "formatted_address": "Broadway, NC, USA",
    "address_components": [ {
      "long_name": "Broadway",
      "short_name": "Broadway",
      "types": [ "locality", "political" ]
    }, {
      "long_name": "Columbus",
      "short_name": "Columbus",
      "types": [ "administrative_area_level_2", "political" ]
    }, {
      "long_name": "North Carolina",
      "short_name": "NC",
      "types": [ "administrative_area_level_1", "political" ]
    }, {
      "long_name": "United States",
      "short_name": "US",
      "types": [ "country", "political" ]
    } ],
    "geometry": {
      "location": {
        "lat": 34.3060016,
        "lng": -78.8597457
      },
      "location_type": "APPROXIMATE",
      "viewport": {
        "southwest": {
          "lat": 34.2967842,
          "lng": -78.8757531
        },
        "northeast": {
          "lat": 34.3152180,
          "lng": -78.8437383
        }
      },
      "bounds": {
        "southwest": {
          "lat": 34.3058300,
          "lng": -78.8600000
        },
        "northeast": {
          "lat": 34.3066100,
          "lng": -78.8593200
        }
      }
    }
  } ]
}
