{
  "status": "OK",
  "results": [ {
    "types": [ "locality", "political" ],
    "formatted_address": "Cameron, NC, USA",
    "address_components": [ {
      "long_name": "Cameron",
      "short_name": "Cameron",
      "types": [ "locality", "political" ]
    }, {
      "long_name": "Moore",
      "short_name": "Moore",
      "types": [ "administrative_area_level_2", "political" ]
    }, {
      "long_name": "North Carolina",
      "short_name": "NC",
      "types": [ "administrative_area_level_1", "political" ]
    }, {
      "long_name": "United States",
      "short_name": "US",
      "types": [ "country", "political" ]
    } ],
    "geometry": {
      "location": {
        "lat": 35.3268226,
        "lng": -79.2553030
      },
      "location_type": "APPROXIMATE",
      "viewport": {
        "southwest": {
          "lat": 35.3177187,
          "lng": -79.2713104
        },
        "northeast": {
          "lat": 35.3359255,
          "lng": -79.2392956
        }
      },
      "bounds": {
        "southwest": {
          "lat": 35.3144280,
          "lng": -79.2798980
        },
        "northeast": {
          "lat": 35.3334050,
          "lng": -79.2320220
        }
      }
    }
  } ]
}
