{
  "status": "OK",
  "results": [ {
    "types": [ "locality", "political" ],
    "formatted_address": "Candor, NC, USA",
    "address_components": [ {
      "long_name": "Candor",
      "short_name": "Candor",
      "types": [ "locality", "political" ]
    }, {
      "long_name": "Montgomery",
      "short_name": "Montgomery",
      "types": [ "administrative_area_level_2", "political" ]
    }, {
      "long_name": "North Carolina",
      "short_name": "NC",
      "types": [ "administrative_area_level_1", "political" ]
    }, {
      "long_name": "United States",
      "short_name": "US",
      "types": [ "country", "political" ]
    } ],
    "geometry": {
      "location": {
        "lat": 35.2951421,
        "lng": -79.7453163
      },
      "location_type": "APPROXIMATE",
      "viewport": {
        "southwest": {
          "lat": 35.2769260,
          "lng": -79.7773311
        },
        "northeast": {
          "lat": 35.3133541,
          "lng": -79.7133015
        }
      },
      "bounds": {
        "southwest": {
          "lat": 35.2761500,
          "lng": -79.7536229
        },
        "northeast": {
          "lat": 35.3080439,
          "lng": -79.7103136
        }
      }
    }
  } ]
}
