{
  "status": "OK",
  "results": [ {
    "types": [ "locality", "political" ],
    "formatted_address": "Carrboro, NC, USA",
    "address_components": [ {
      "long_name": "Carrboro",
      "short_name": "Carrboro",
      "types": [ "locality", "political" ]
    }, {
      "long_name": "Orange",
      "short_name": "Orange",
      "types": [ "administrative_area_level_2", "political" ]
    }, {
      "long_name": "North Carolina",
      "short_name": "NC",
      "types": [ "administrative_area_level_1", "political" ]
    }, {
      "long_name": "United States",
      "short_name": "US",
      "types": [ "country", "political" ]
    } ],
    "geometry": {
      "location": {
        "lat": 35.9101438,
        "lng": -79.0752895
      },
      "location_type": "APPROXIMATE",
      "viewport": {
        "southwest": {
          "lat": 35.8739864,
          "lng": -79.1393192
        },
        "northeast": {
          "lat": 35.9462847,
          "lng": -79.0112598
        }
      },
      "bounds": {
        "southwest": {
          "lat": 35.8877920,
          "lng": -79.1246780
        },
        "northeast": {
          "lat": 35.9647060,
          "lng": -79.0638709
        }
      }
    }
  } ]
}
