{
  "status": "OK",
  "results": [ {
    "types": [ "locality", "political" ],
    "formatted_address": "Chapel Hill, NC, USA",
    "address_components": [ {
      "long_name": "Chapel Hill",
      "short_name": "Chapel Hill",
      "types": [ "locality", "political" ]
    }, {
      "long_name": "Orange",
      "short_name": "Orange",
      "types": [ "administrative_area_level_2", "political" ]
    }, {
      "long_name": "North Carolina",
      "short_name": "NC",
      "types": [ "administrative_area_level_1", "political" ]
    }, {
      "long_name": "United States",
      "short_name": "US",
      "types": [ "country", "political" ]
    } ],
    "geometry": {
      "location": {
        "lat": 35.9131996,
        "lng": -79.0558445
      },
      "location_type": "APPROXIMATE",
      "viewport": {
        "southwest": {
          "lat": 35.8770436,
          "lng": -79.1198742
        },
        "northeast": {
          "lat": 35.9493391,
          "lng": -78.9918148
        }
      },
      "bounds": {
        "southwest": {
          "lat": 35.8695520,
          "lng": -79.0831709
        },
        "northeast": {
          "lat": 35.9723660,
          "lng": -78.9954109
        }
      }
    }
  } ]
}
