{
  "status": "OK",
  "results": [ {
    "types": [ "locality", "political" ],
    "formatted_address": "Claremont, NC, USA",
    "address_components": [ {
      "long_name": "Claremont",
      "short_name": "Claremont",
      "types": [ "locality", "political" ]
    }, {
      "long_name": "Catawba",
      "short_name": "Catawba",
      "types": [ "administrative_area_level_2", "political" ]
    }, {
      "long_name": "North Carolina",
      "short_name": "NC",
      "types": [ "administrative_area_level_1", "political" ]
    }, {
      "long_name": "United States",
      "short_name": "US",
      "types": [ "country", "political" ]
    } ],
    "geometry": {
      "location": {
        "lat": 35.7145776,
        "lng": -81.1461917
      },
      "location_type": "APPROXIMATE",
      "viewport": {
        "southwest": {
          "lat": 35.6964564,
          "lng": -81.1782065
        },
        "northeast": {
          "lat": 35.7326947,
          "lng": -81.1141769
        }
      },
      "bounds": {
        "southwest": {
          "lat": 35.6844309,
          "lng": -81.1816439
        },
        "northeast": {
          "lat": 35.7337450,
          "lng": -81.1280350
        }
      }
    }
  } ]
}
