{
  "status": "OK",
  "results": [ {
    "types": [ "locality", "political" ],
    "formatted_address": "Clayton, NC, USA",
    "address_components": [ {
      "long_name": "Clayton",
      "short_name": "Clayton",
      "types": [ "locality", "political" ]
    }, {
      "long_name": "Johnston",
      "short_name": "Johnston",
      "types": [ "administrative_area_level_2", "political" ]
    }, {
      "long_name": "North Carolina",
      "short_name": "NC",
      "types": [ "administrative_area_level_1", "political" ]
    }, {
      "long_name": "United States",
      "short_name": "US",
      "types": [ "country", "political" ]
    } ],
    "geometry": {
      "location": {
        "lat": 35.6507110,
        "lng": -78.4563914
      },
      "location_type": "APPROXIMATE",
      "viewport": {
        "southwest": {
          "lat": 35.6144355,
          "lng": -78.5204211
        },
        "northeast": {
          "lat": 35.6869700,
          "lng": -78.3923617
        }
      },
      "bounds": {
        "southwest": {
          "lat": 35.6135570,
          "lng": -78.5013020
        },
        "northeast": {
          "lat": 35.7185090,
          "lng": -78.3749869
        }
      }
    }
  } ]
}
