{
  "status": "OK",
  "results": [ {
    "types": [ "locality", "political" ],
    "formatted_address": "Coats, NC, USA",
    "address_components": [ {
      "long_name": "Coats",
      "short_name": "Coats",
      "types": [ "locality", "political" ]
    }, {
      "long_name": "Harnett",
      "short_name": "Harnett",
      "types": [ "administrative_area_level_2", "political" ]
    }, {
      "long_name": "North Carolina",
      "short_name": "NC",
      "types": [ "administrative_area_level_1", "political" ]
    }, {
      "long_name": "United States",
      "short_name": "US",
      "types": [ "country", "political" ]
    } ],
    "geometry": {
      "location": {
        "lat": 35.4079393,
        "lng": -78.6719592
      },
      "location_type": "APPROXIMATE",
      "viewport": {
        "southwest": {
          "lat": 35.3897487,
          "lng": -78.7039740
        },
        "northeast": {
          "lat": 35.4261258,
          "lng": -78.6399444
        }
      },
      "bounds": {
        "southwest": {
          "lat": 35.3943420,
          "lng": -78.6814239
        },
        "northeast": {
          "lat": 35.4339380,
          "lng": -78.6503300
        }
      }
    }
  } ]
}
