{
  "status": "OK",
  "results": [ {
    "types": [ "locality", "political" ],
    "formatted_address": "Fletcher, NC, USA",
    "address_components": [ {
      "long_name": "Fletcher",
      "short_name": "Fletcher",
      "types": [ "locality", "political" ]
    }, {
      "long_name": "Henderson",
      "short_name": "Henderson",
      "types": [ "administrative_area_level_2", "political" ]
    }, {
      "long_name": "North Carolina",
      "short_name": "NC",
      "types": [ "administrative_area_level_1", "political" ]
    }, {
      "long_name": "United States",
      "short_name": "US",
      "types": [ "country", "political" ]
    } ],
    "geometry": {
      "location": {
        "lat": 35.4306712,
        "lng": -82.5012316
      },
      "location_type": "APPROXIMATE",
      "viewport": {
        "southwest": {
          "lat": 35.3942961,
          "lng": -82.5652613
        },
        "northeast": {
          "lat": 35.4670299,
          "lng": -82.4372019
        }
      },
      "bounds": {
        "southwest": {
          "lat": 35.3928590,
          "lng": -82.5529430
        },
        "northeast": {
          "lat": 35.4453810,
          "lng": -82.4471930
        }
      }
    }
  } ]
}
