{
  "status": "OK",
  "results": [ {
    "types": [ "locality", "political" ],
    "formatted_address": "Garysburg, NC, USA",
    "address_components": [ {
      "long_name": "Garysburg",
      "short_name": "Garysburg",
      "types": [ "locality", "political" ]
    }, {
      "long_name": "Northampton",
      "short_name": "Northampton",
      "types": [ "administrative_area_level_2", "political" ]
    }, {
      "long_name": "North Carolina",
      "short_name": "NC",
      "types": [ "administrative_area_level_1", "political" ]
    }, {
      "long_name": "United States",
      "short_name": "US",
      "types": [ "country", "political" ]
    } ],
    "geometry": {
      "location": {
        "lat": 36.4509850,
        "lng": -77.5588661
      },
      "location_type": "APPROXIMATE",
      "viewport": {
        "southwest": {
          "lat": 36.4420094,
          "lng": -77.5748735
        },
        "northeast": {
          "lat": 36.4599596,
          "lng": -77.5428587
        }
      },
      "bounds": {
        "southwest": {
          "lat": 36.4386140,
          "lng": -77.5700780
        },
        "northeast": {
          "lat": 36.4596869,
          "lng": -77.5511370
        }
      }
    }
  } ]
}
