{
  "status": "OK",
  "results": [ {
    "types": [ "locality", "political" ],
    "formatted_address": "Hamlet, NC, USA",
    "address_components": [ {
      "long_name": "Hamlet",
      "short_name": "Hamlet",
      "types": [ "locality", "political" ]
    }, {
      "long_name": "Richmond",
      "short_name": "Richmond",
      "types": [ "administrative_area_level_2", "political" ]
    }, {
      "long_name": "North Carolina",
      "short_name": "NC",
      "types": [ "administrative_area_level_1", "political" ]
    }, {
      "long_name": "United States",
      "short_name": "US",
      "types": [ "country", "political" ]
    } ],
    "geometry": {
      "location": {
        "lat": 34.8848775,
        "lng": -79.6942222
      },
      "location_type": "APPROXIMATE",
      "viewport": {
        "southwest": {
          "lat": 34.8665696,
          "lng": -79.7262370
        },
        "northeast": {
          "lat": 34.9031813,
          "lng": -79.6622074
        }
      },
      "bounds": {
        "southwest": {
          "lat": 34.8660730,
          "lng": -79.7378760
        },
        "northeast": {
          "lat": 34.9140650,
          "lng": -79.6790369
        }
      }
    }
  } ]
}
