{
  "status": "OK",
  "results": [ {
    "types": [ "locality", "political" ],
    "formatted_address": "Hertford, NC, USA",
    "address_components": [ {
      "long_name": "Hertford",
      "short_name": "Hertford",
      "types": [ "locality", "political" ]
    }, {
      "long_name": "Perquimans",
      "short_name": "Perquimans",
      "types": [ "administrative_area_level_2", "political" ]
    }, {
      "long_name": "North Carolina",
      "short_name": "NC",
      "types": [ "administrative_area_level_1", "political" ]
    }, {
      "long_name": "United States",
      "short_name": "US",
      "types": [ "country", "political" ]
    } ],
    "geometry": {
      "location": {
        "lat": 36.1901579,
        "lng": -76.4660519
      },
      "location_type": "APPROXIMATE",
      "viewport": {
        "southwest": {
          "lat": 36.1721455,
          "lng": -76.4980667
        },
        "northeast": {
          "lat": 36.2081662,
          "lng": -76.4340371
        }
      },
      "bounds": {
        "southwest": {
          "lat": 36.1647589,
          "lng": -76.4966570
        },
        "northeast": {
          "lat": 36.2045850,
          "lng": -76.4410990
        }
      }
    }
  } ]
}
