{
  "status": "OK",
  "results": [ {
    "types": [ "locality", "political" ],
    "formatted_address": "Holly Springs, NC, USA",
    "address_components": [ {
      "long_name": "Holly Springs",
      "short_name": "Holly Springs",
      "types": [ "locality", "political" ]
    }, {
      "long_name": "Wake",
      "short_name": "Wake",
      "types": [ "administrative_area_level_2", "political" ]
    }, {
      "long_name": "North Carolina",
      "short_name": "NC",
      "types": [ "administrative_area_level_1", "political" ]
    }, {
      "long_name": "United States",
      "short_name": "US",
      "types": [ "country", "political" ]
    } ],
    "geometry": {
      "location": {
        "lat": 35.6512655,
        "lng": -78.8336218
      },
      "location_type": "APPROXIMATE",
      "viewport": {
        "southwest": {
          "lat": 35.6149902,
          "lng": -78.8976515
        },
        "northeast": {
          "lat": 35.6875243,
          "lng": -78.7695921
        }
      },
      "bounds": {
        "southwest": {
          "lat": 35.5963920,
          "lng": -78.8965719
        },
        "northeast": {
          "lat": 35.6916140,
          "lng": -78.7678789
        }
      }
    }
  } ]
}
