{
  "status": "OK",
  "results": [ {
    "types": [ "locality", "political" ],
    "formatted_address": "Hudson, NC, USA",
    "address_components": [ {
      "long_name": "Hudson",
      "short_name": "Hudson",
      "types": [ "locality", "political" ]
    }, {
      "long_name": "Caldwell",
      "short_name": "Caldwell",
      "types": [ "administrative_area_level_2", "political" ]
    }, {
      "long_name": "North Carolina",
      "short_name": "NC",
      "types": [ "administrative_area_level_1", "political" ]
    }, {
      "long_name": "United States",
      "short_name": "US",
      "types": [ "country", "political" ]
    } ],
    "geometry": {
      "location": {
        "lat": 35.8484645,
        "lng": -81.4959267
      },
      "location_type": "APPROXIMATE",
      "viewport": {
        "southwest": {
          "lat": 35.8303738,
          "lng": -81.5279415
        },
        "northeast": {
          "lat": 35.8665511,
          "lng": -81.4639119
        }
      },
      "bounds": {
        "southwest": {
          "lat": 35.8320170,
          "lng": -81.5158139
        },
        "northeast": {
          "lat": 35.8663070,
          "lng": -81.4509650
        }
      }
    }
  } ]
}
