{
  "status": "OK",
  "results": [ {
    "types": [ "locality", "political" ],
    "formatted_address": "Kenly, NC, USA",
    "address_components": [ {
      "long_name": "Kenly",
      "short_name": "Kenly",
      "types": [ "locality", "political" ]
    }, {
      "long_name": "Johnston",
      "short_name": "Johnston",
      "types": [ "administrative_area_level_2", "political" ]
    }, {
      "long_name": "North Carolina",
      "short_name": "NC",
      "types": [ "administrative_area_level_1", "political" ]
    }, {
      "long_name": "United States",
      "short_name": "US",
      "types": [ "country", "political" ]
    } ],
    "geometry": {
      "location": {
        "lat": 35.5962702,
        "lng": -78.1241591
      },
      "location_type": "APPROXIMATE",
      "viewport": {
        "southwest": {
          "lat": 35.5781222,
          "lng": -78.1561739
        },
        "northeast": {
          "lat": 35.6144141,
          "lng": -78.0921443
        }
      },
      "bounds": {
        "southwest": {
          "lat": 35.5651710,
          "lng": -78.1691450
        },
        "northeast": {
          "lat": 35.6069360,
          "lng": -78.1141009
        }
      }
    }
  } ]
}
