{
  "status": "OK",
  "results": [ {
    "types": [ "locality", "political" ],
    "formatted_address": "Kinston, NC, USA",
    "address_components": [ {
      "long_name": "Kinston",
      "short_name": "Kinston",
      "types": [ "locality", "political" ]
    }, {
      "long_name": "Lenoir",
      "short_name": "Lenoir",
      "types": [ "administrative_area_level_2", "political" ]
    }, {
      "long_name": "North Carolina",
      "short_name": "NC",
      "types": [ "administrative_area_level_1", "political" ]
    }, {
      "long_name": "United States",
      "short_name": "US",
      "types": [ "country", "political" ]
    } ],
    "geometry": {
      "location": {
        "lat": 35.2626635,
        "lng": -77.5816353
      },
      "location_type": "APPROXIMATE",
      "viewport": {
        "southwest": {
          "lat": 35.2262127,
          "lng": -77.6456650
        },
        "northeast": {
          "lat": 35.2990979,
          "lng": -77.5176056
        }
      },
      "bounds": {
        "southwest": {
          "lat": 35.2258910,
          "lng": -77.6626350
        },
        "northeast": {
          "lat": 35.3225340,
          "lng": -77.4980080
        }
      }
    }
  } ]
}
