{
  "status": "OK",
  "results": [ {
    "types": [ "locality", "political" ],
    "formatted_address": "Lake Lure, NC, USA",
    "address_components": [ {
      "long_name": "Lake Lure",
      "short_name": "Lake Lure",
      "types": [ "locality", "political" ]
    }, {
      "long_name": "Rutherford",
      "short_name": "Rutherford",
      "types": [ "administrative_area_level_2", "political" ]
    }, {
      "long_name": "North Carolina",
      "short_name": "NC",
      "types": [ "administrative_area_level_1", "political" ]
    }, {
      "long_name": "United States",
      "short_name": "US",
      "types": [ "country", "political" ]
    } ],
    "geometry": {
      "location": {
        "lat": 35.4278969,
        "lng": -82.2048343
      },
      "location_type": "APPROXIMATE",
      "viewport": {
        "southwest": {
          "lat": 35.3915205,
          "lng": -82.2688640
        },
        "northeast": {
          "lat": 35.4642568,
          "lng": -82.1408046
        }
      },
      "bounds": {
        "southwest": {
          "lat": 35.4023530,
          "lng": -82.2587350
        },
        "northeast": {
          "lat": 35.4901860,
          "lng": -82.1552320
        }
      }
    }
  } ]
}
