{
  "status": "OK",
  "results": [ {
    "types": [ "locality", "political" ],
    "formatted_address": "Laurinburg, NC, USA",
    "address_components": [ {
      "long_name": "Laurinburg",
      "short_name": "Laurinburg",
      "types": [ "locality", "political" ]
    }, {
      "long_name": "Scotland",
      "short_name": "Scotland",
      "types": [ "administrative_area_level_2", "political" ]
    }, {
      "long_name": "North Carolina",
      "short_name": "NC",
      "types": [ "administrative_area_level_1", "political" ]
    }, {
      "long_name": "United States",
      "short_name": "US",
      "types": [ "country", "political" ]
    } ],
    "geometry": {
      "location": {
        "lat": 34.7740494,
        "lng": -79.4628248
      },
      "location_type": "APPROXIMATE",
      "viewport": {
        "southwest": {
          "lat": 34.7373802,
          "lng": -79.5268545
        },
        "northeast": {
          "lat": 34.8107023,
          "lng": -79.3987951
        }
      },
      "bounds": {
        "southwest": {
          "lat": 34.7033659,
          "lng": -79.5279030
        },
        "northeast": {
          "lat": 34.8054220,
          "lng": -79.4302029
        }
      }
    }
  } ]
}
