{
  "status": "OK",
  "results": [ {
    "types": [ "locality", "political" ],
    "formatted_address": "Lenoir, NC, USA",
    "address_components": [ {
      "long_name": "Lenoir",
      "short_name": "Lenoir",
      "types": [ "locality", "political" ]
    }, {
      "long_name": "Caldwell",
      "short_name": "Caldwell",
      "types": [ "administrative_area_level_2", "political" ]
    }, {
      "long_name": "North Carolina",
      "short_name": "NC",
      "types": [ "administrative_area_level_1", "political" ]
    }, {
      "long_name": "United States",
      "short_name": "US",
      "types": [ "country", "political" ]
    } ],
    "geometry": {
      "location": {
        "lat": 35.9140196,
        "lng": -81.5389849
      },
      "location_type": "APPROXIMATE",
      "viewport": {
        "southwest": {
          "lat": 35.8778640,
          "lng": -81.6030146
        },
        "northeast": {
          "lat": 35.9501587,
          "lng": -81.4749552
        }
      },
      "bounds": {
        "southwest": {
          "lat": 35.8561970,
          "lng": -81.5940280
        },
        "northeast": {
          "lat": 35.9748410,
          "lng": -81.4819680
        }
      }
    }
  } ]
}
