{
  "status": "OK",
  "results": [ {
    "types": [ "locality", "political" ],
    "formatted_address": "Long View, NC, USA",
    "address_components": [ {
      "long_name": "Long View",
      "short_name": "Long View",
      "types": [ "locality", "political" ]
    }, {
      "long_name": "Catawba",
      "short_name": "Catawba",
      "types": [ "administrative_area_level_2", "political" ]
    }, {
      "long_name": "North Carolina",
      "short_name": "NC",
      "types": [ "administrative_area_level_1", "political" ]
    }, {
      "long_name": "United States",
      "short_name": "US",
      "types": [ "country", "political" ]
    } ],
    "geometry": {
      "location": {
        "lat": 35.7261320,
        "lng": -81.3838110
      },
      "location_type": "APPROXIMATE",
      "viewport": {
        "southwest": {
          "lat": 35.7080134,
          "lng": -81.4158258
        },
        "northeast": {
          "lat": 35.7442464,
          "lng": -81.3517962
        }
      },
      "bounds": {
        "southwest": {
          "lat": 35.7009539,
          "lng": -81.4096090
        },
        "northeast": {
          "lat": 35.7433240,
          "lng": -81.3668960
        }
      }
    }
  } ]
}
