{
  "status": "OK",
  "results": [ {
    "types": [ "locality", "political" ],
    "formatted_address": "Marion, NC, USA",
    "address_components": [ {
      "long_name": "Marion",
      "short_name": "Marion",
      "types": [ "locality", "political" ]
    }, {
      "long_name": "McDowell",
      "short_name": "Mc Dowell",
      "types": [ "administrative_area_level_2", "political" ]
    }, {
      "long_name": "North Carolina",
      "short_name": "NC",
      "types": [ "administrative_area_level_1", "political" ]
    }, {
      "long_name": "United States",
      "short_name": "US",
      "types": [ "country", "political" ]
    } ],
    "geometry": {
      "location": {
        "lat": 35.6840131,
        "lng": -82.0092745
      },
      "location_type": "APPROXIMATE",
      "viewport": {
        "southwest": {
          "lat": 35.6477527,
          "lng": -82.0733042
        },
        "northeast": {
          "lat": 35.7202570,
          "lng": -81.9452448
        }
      },
      "bounds": {
        "southwest": {
          "lat": 35.6509730,
          "lng": -82.0461060
        },
        "northeast": {
          "lat": 35.7080980,
          "lng": -81.9552990
        }
      }
    }
  } ]
}
