{
  "status": "OK",
  "results": [ {
    "types": [ "locality", "political" ],
    "formatted_address": "Morganton, NC, USA",
    "address_components": [ {
      "long_name": "Morganton",
      "short_name": "Morganton",
      "types": [ "locality", "political" ]
    }, {
      "long_name": "Burke",
      "short_name": "Burke",
      "types": [ "administrative_area_level_2", "political" ]
    }, {
      "long_name": "North Carolina",
      "short_name": "NC",
      "types": [ "administrative_area_level_1", "political" ]
    }, {
      "long_name": "United States",
      "short_name": "US",
      "types": [ "country", "political" ]
    } ],
    "geometry": {
      "location": {
        "lat": 35.7454071,
        "lng": -81.6848188
      },
      "location_type": "APPROXIMATE",
      "viewport": {
        "southwest": {
          "lat": 35.7091746,
          "lng": -81.7488485
        },
        "northeast": {
          "lat": 35.7816231,
          "lng": -81.6207891
        }
      },
      "bounds": {
        "southwest": {
          "lat": 35.6959580,
          "lng": -81.8005060
        },
        "northeast": {
          "lat": 35.7838360,
          "lng": -81.6455490
        }
      }
    }
  } ]
}
