{
  "status": "OK",
  "results": [ {
    "types": [ "locality", "political" ],
    "formatted_address": "Pinebluff, NC, USA",
    "address_components": [ {
      "long_name": "Pinebluff",
      "short_name": "Pinebluff",
      "types": [ "locality", "political" ]
    }, {
      "long_name": "Moore",
      "short_name": "Moore",
      "types": [ "administrative_area_level_2", "political" ]
    }, {
      "long_name": "North Carolina",
      "short_name": "NC",
      "types": [ "administrative_area_level_1", "political" ]
    }, {
      "long_name": "United States",
      "short_name": "US",
      "types": [ "country", "political" ]
    } ],
    "geometry": {
      "location": {
        "lat": 35.1098795,
        "lng": -79.4722589
      },
      "location_type": "APPROXIMATE",
      "viewport": {
        "southwest": {
          "lat": 35.1007512,
          "lng": -79.4882663
        },
        "northeast": {
          "lat": 35.1190068,
          "lng": -79.4562515
        }
      },
      "bounds": {
        "southwest": {
          "lat": 35.0947630,
          "lng": -79.4891059
        },
        "northeast": {
          "lat": 35.1252600,
          "lng": -79.4508790
        }
      }
    }
  } ]
}
