{
  "status": "OK",
  "results": [ {
    "types": [ "locality", "political" ],
    "formatted_address": "Plymouth, NC, USA",
    "address_components": [ {
      "long_name": "Plymouth",
      "short_name": "Plymouth",
      "types": [ "locality", "political" ]
    }, {
      "long_name": "Washington",
      "short_name": "Washington",
      "types": [ "administrative_area_level_2", "political" ]
    }, {
      "long_name": "North Carolina",
      "short_name": "NC",
      "types": [ "administrative_area_level_1", "political" ]
    }, {
      "long_name": "United States",
      "short_name": "US",
      "types": [ "country", "political" ]
    } ],
    "geometry": {
      "location": {
        "lat": 35.8668281,
        "lng": -76.7485555
      },
      "location_type": "APPROXIMATE",
      "viewport": {
        "southwest": {
          "lat": 35.8487416,
          "lng": -76.7805703
        },
        "northeast": {
          "lat": 35.8849105,
          "lng": -76.7165407
        }
      },
      "bounds": {
        "southwest": {
          "lat": 35.8275359,
          "lng": -76.7811239
        },
        "northeast": {
          "lat": 35.8822320,
          "lng": -76.7194830
        }
      }
    }
  } ]
}
