{
  "status": "OK",
  "results": [ {
    "types": [ "locality", "political" ],
    "formatted_address": "River Bend, NC, USA",
    "address_components": [ {
      "long_name": "River Bend",
      "short_name": "River Bend",
      "types": [ "locality", "political" ]
    }, {
      "long_name": "Craven",
      "short_name": "Craven",
      "types": [ "administrative_area_level_2", "political" ]
    }, {
      "long_name": "North Carolina",
      "short_name": "NC",
      "types": [ "administrative_area_level_1", "political" ]
    }, {
      "long_name": "United States",
      "short_name": "US",
      "types": [ "country", "political" ]
    } ],
    "geometry": {
      "location": {
        "lat": 35.0690481,
        "lng": -77.1468960
      },
      "location_type": "APPROXIMATE",
      "viewport": {
        "southwest": {
          "lat": 35.0507813,
          "lng": -77.1789108
        },
        "northeast": {
          "lat": 35.0873108,
          "lng": -77.1148812
        }
      },
      "bounds": {
        "southwest": {
          "lat": 35.0569280,
          "lng": -77.1722200
        },
        "northeast": {
          "lat": 35.0875930,
          "lng": -77.1302240
        }
      }
    }
  } ]
}
