{
  "status": "OK",
  "results": [ {
    "types": [ "locality", "political" ],
    "formatted_address": "Robersonville, NC, USA",
    "address_components": [ {
      "long_name": "Robersonville",
      "short_name": "Robersonville",
      "types": [ "locality", "political" ]
    }, {
      "long_name": "Martin",
      "short_name": "Martin",
      "types": [ "administrative_area_level_2", "political" ]
    }, {
      "long_name": "North Carolina",
      "short_name": "NC",
      "types": [ "administrative_area_level_1", "political" ]
    }, {
      "long_name": "United States",
      "short_name": "US",
      "types": [ "country", "political" ]
    } ],
    "geometry": {
      "location": {
        "lat": 35.8251589,
        "lng": -77.2491298
      },
      "location_type": "APPROXIMATE",
      "viewport": {
        "southwest": {
          "lat": 35.8161114,
          "lng": -77.2651372
        },
        "northeast": {
          "lat": 35.8342054,
          "lng": -77.2331224
        }
      },
      "bounds": {
        "southwest": {
          "lat": 35.8140640,
          "lng": -77.2684510
        },
        "northeast": {
          "lat": 35.8351169,
          "lng": -77.2391210
        }
      }
    }
  } ]
}
