{
  "status": "OK",
  "results": [ {
    "types": [ "locality", "political" ],
    "formatted_address": "Rockingham, NC, USA",
    "address_components": [ {
      "long_name": "Rockingham",
      "short_name": "Rockingham",
      "types": [ "locality", "political" ]
    }, {
      "long_name": "Richmond",
      "short_name": "Richmond",
      "types": [ "administrative_area_level_2", "political" ]
    }, {
      "long_name": "North Carolina",
      "short_name": "NC",
      "types": [ "administrative_area_level_1", "political" ]
    }, {
      "long_name": "United States",
      "short_name": "US",
      "types": [ "country", "political" ]
    } ],
    "geometry": {
      "location": {
        "lat": 34.9393201,
        "lng": -79.7739457
      },
      "location_type": "APPROXIMATE",
      "viewport": {
        "southwest": {
          "lat": 34.9027245,
          "lng": -79.8379754
        },
        "northeast": {
          "lat": 34.9758994,
          "lng": -79.7099160
        }
      },
      "bounds": {
        "southwest": {
          "lat": 34.9082140,
          "lng": -79.7985600
        },
        "northeast": {
          "lat": 34.9838120,
          "lng": -79.7281830
        }
      }
    }
  } ]
}
