{
  "status": "OK",
  "results": [ {
    "types": [ "locality", "political" ],
    "formatted_address": "Rowland, NC, USA",
    "address_components": [ {
      "long_name": "Rowland",
      "short_name": "Rowland",
      "types": [ "locality", "political" ]
    }, {
      "long_name": "Robeson",
      "short_name": "Robeson",
      "types": [ "administrative_area_level_2", "political" ]
    }, {
      "long_name": "North Carolina",
      "short_name": "NC",
      "types": [ "administrative_area_level_1", "political" ]
    }, {
      "long_name": "United States",
      "short_name": "US",
      "types": [ "country", "political" ]
    } ],
    "geometry": {
      "location": {
        "lat": 34.5365518,
        "lng": -79.2914306
      },
      "location_type": "APPROXIMATE",
      "viewport": {
        "southwest": {
          "lat": 34.5181667,
          "lng": -79.3234454
        },
        "northeast": {
          "lat": 34.5549329,
          "lng": -79.2594158
        }
      },
      "bounds": {
        "southwest": {
          "lat": 34.5034349,
          "lng": -79.3077660
        },
        "northeast": {
          "lat": 34.5500879,
          "lng": -79.2788510
        }
      }
    }
  } ]
}
