{
  "status": "OK",
  "results": [ {
    "types": [ "locality", "political" ],
    "formatted_address": "Salisbury, NC, USA",
    "address_components": [ {
      "long_name": "Salisbury",
      "short_name": "Salisbury",
      "types": [ "locality", "political" ]
    }, {
      "long_name": "Rowan",
      "short_name": "Rowan",
      "types": [ "administrative_area_level_2", "political" ]
    }, {
      "long_name": "North Carolina",
      "short_name": "NC",
      "types": [ "administrative_area_level_1", "political" ]
    }, {
      "long_name": "United States",
      "short_name": "US",
      "types": [ "country", "political" ]
    } ],
    "geometry": {
      "location": {
        "lat": 35.6709727,
        "lng": -80.4742261
      },
      "location_type": "APPROXIMATE",
      "viewport": {
        "southwest": {
          "lat": 35.5984236,
          "lng": -80.6022855
        },
        "northeast": {
          "lat": 35.7434559,
          "lng": -80.3461667
        }
      },
      "bounds": {
        "southwest": {
          "lat": 35.6132030,
          "lng": -80.5516840
        },
        "northeast": {
          "lat": 35.7466979,
          "lng": -80.4381569
        }
      }
    }
  } ]
}
