{
  "status": "OK",
  "results": [ {
    "types": [ "locality", "political" ],
    "formatted_address": "Selma, NC, USA",
    "address_components": [ {
      "long_name": "Selma",
      "short_name": "Selma",
      "types": [ "locality", "political" ]
    }, {
      "long_name": "Johnston",
      "short_name": "Johnston",
      "types": [ "administrative_area_level_2", "political" ]
    }, {
      "long_name": "North Carolina",
      "short_name": "NC",
      "types": [ "administrative_area_level_1", "political" ]
    }, {
      "long_name": "United States",
      "short_name": "US",
      "types": [ "country", "political" ]
    } ],
    "geometry": {
      "location": {
        "lat": 35.5365485,
        "lng": -78.2844435
      },
      "location_type": "APPROXIMATE",
      "viewport": {
        "southwest": {
          "lat": 35.5002213,
          "lng": -78.3484732
        },
        "northeast": {
          "lat": 35.5728593,
          "lng": -78.2204138
        }
      },
      "bounds": {
        "southwest": {
          "lat": 35.5143879,
          "lng": -78.3357609
        },
        "northeast": {
          "lat": 35.5780260,
          "lng": -78.2518219
        }
      }
    }
  } ]
}
