{
  "status": "OK",
  "results": [ {
    "types": [ "locality", "political" ],
    "formatted_address": "Shelby, NC, USA",
    "address_components": [ {
      "long_name": "Shelby",
      "short_name": "Shelby",
      "types": [ "locality", "political" ]
    }, {
      "long_name": "Cleveland",
      "short_name": "Cleveland",
      "types": [ "administrative_area_level_2", "political" ]
    }, {
      "long_name": "North Carolina",
      "short_name": "NC",
      "types": [ "administrative_area_level_1", "political" ]
    }, {
      "long_name": "United States",
      "short_name": "US",
      "types": [ "country", "political" ]
    } ],
    "geometry": {
      "location": {
        "lat": 35.2923513,
        "lng": -81.5356463
      },
      "location_type": "APPROXIMATE",
      "viewport": {
        "southwest": {
          "lat": 35.2559138,
          "lng": -81.5996760
        },
        "northeast": {
          "lat": 35.3287724,
          "lng": -81.4716166
        }
      },
      "bounds": {
        "southwest": {
          "lat": 35.2391760,
          "lng": -81.6369220
        },
        "northeast": {
          "lat": 35.3303960,
          "lng": -81.4577300
        }
      }
    }
  } ]
}
