{
  "status": "OK",
  "results": [ {
    "types": [ "locality", "political" ],
    "formatted_address": "Southern Pines, NC, USA",
    "address_components": [ {
      "long_name": "Southern Pines",
      "short_name": "Southern Pines",
      "types": [ "locality", "political" ]
    }, {
      "long_name": "Moore",
      "short_name": "Moore",
      "types": [ "administrative_area_level_2", "political" ]
    }, {
      "long_name": "North Carolina",
      "short_name": "NC",
      "types": [ "administrative_area_level_1", "political" ]
    }, {
      "long_name": "United States",
      "short_name": "US",
      "types": [ "country", "political" ]
    } ],
    "geometry": {
      "location": {
        "lat": 35.1740471,
        "lng": -79.3922539
      },
      "location_type": "APPROXIMATE",
      "viewport": {
        "southwest": {
          "lat": 35.1375565,
          "lng": -79.4562836
        },
        "northeast": {
          "lat": 35.2105213,
          "lng": -79.3282242
        }
      },
      "bounds": {
        "southwest": {
          "lat": 35.1298630,
          "lng": -79.4475250
        },
        "northeast": {
          "lat": 35.2516980,
          "lng": -79.3624660
        }
      }
    }
  } ]
}
