{
  "status": "OK",
  "results": [ {
    "types": [ "locality", "political" ],
    "formatted_address": "Southern Shores, NC, USA",
    "address_components": [ {
      "long_name": "Southern Shores",
      "short_name": "Southern Shores",
      "types": [ "locality", "political" ]
    }, {
      "long_name": "Atlantic",
      "short_name": "Atlantic",
      "types": [ "administrative_area_level_3", "political" ]
    }, {
      "long_name": "Dare",
      "short_name": "Dare",
      "types": [ "administrative_area_level_2", "political" ]
    }, {
      "long_name": "North Carolina",
      "short_name": "NC",
      "types": [ "administrative_area_level_1", "political" ]
    }, {
      "long_name": "United States",
      "short_name": "US",
      "types": [ "country", "political" ]
    } ],
    "geometry": {
      "location": {
        "lat": 36.1390533,
        "lng": -75.7315719
      },
      "location_type": "APPROXIMATE",
      "viewport": {
        "southwest": {
          "lat": 36.1210291,
          "lng": -75.7635867
        },
        "northeast": {
          "lat": 36.1570733,
          "lng": -75.6995571
        }
      },
      "bounds": {
        "southwest": {
          "lat": 36.0946360,
          "lng": -75.7487620
        },
        "northeast": {
          "lat": 36.1511470,
          "lng": -75.7109270
        }
      }
    }
  } ]
}
