{
  "status": "OK",
  "results": [ {
    "types": [ "locality", "political" ],
    "formatted_address": "Spring Lake, NC, USA",
    "address_components": [ {
      "long_name": "Spring Lake",
      "short_name": "Spring Lake",
      "types": [ "locality", "political" ]
    }, {
      "long_name": "Manchester",
      "short_name": "Manchester",
      "types": [ "administrative_area_level_3", "political" ]
    }, {
      "long_name": "Cumberland",
      "short_name": "Cumberland",
      "types": [ "administrative_area_level_2", "political" ]
    }, {
      "long_name": "North Carolina",
      "short_name": "NC",
      "types": [ "administrative_area_level_1", "political" ]
    }, {
      "long_name": "United States",
      "short_name": "US",
      "types": [ "country", "political" ]
    } ],
    "geometry": {
      "location": {
        "lat": 35.1679395,
        "lng": -78.9728056
      },
      "location_type": "APPROXIMATE",
      "viewport": {
        "southwest": {
          "lat": 35.1496949,
          "lng": -79.0048204
        },
        "northeast": {
          "lat": 35.1861800,
          "lng": -78.9407908
        }
      },
      "bounds": {
        "southwest": {
          "lat": 35.1531389,
          "lng": -79.0046610
        },
        "northeast": {
          "lat": 35.2114580,
          "lng": -78.9542730
        }
      }
    }
  } ]
}
