{
  "status": "OK",
  "results": [ {
    "types": [ "locality", "political" ],
    "formatted_address": "Stallings, NC, USA",
    "address_components": [ {
      "long_name": "Stallings",
      "short_name": "Stallings",
      "types": [ "locality", "political" ]
    }, {
      "long_name": "Union",
      "short_name": "Union",
      "types": [ "administrative_area_level_2", "political" ]
    }, {
      "long_name": "North Carolina",
      "short_name": "NC",
      "types": [ "administrative_area_level_1", "political" ]
    }, {
      "long_name": "United States",
      "short_name": "US",
      "types": [ "country", "political" ]
    } ],
    "geometry": {
      "location": {
        "lat": 35.0907026,
        "lng": -80.6861799
      },
      "location_type": "APPROXIMATE",
      "viewport": {
        "southwest": {
          "lat": 35.0541746,
          "lng": -80.7502096
        },
        "northeast": {
          "lat": 35.1272142,
          "lng": -80.6221502
        }
      },
      "bounds": {
        "southwest": {
          "lat": 35.0581980,
          "lng": -80.7367560
        },
        "northeast": {
          "lat": 35.1474110,
          "lng": -80.6021339
        }
      }
    }
  } ]
}
