{
  "status": "OK",
  "results": [ {
    "types": [ "locality", "political" ],
    "formatted_address": "Statesville, NC, USA",
    "address_components": [ {
      "long_name": "Statesville",
      "short_name": "Statesville",
      "types": [ "locality", "political" ]
    }, {
      "long_name": "Iredell",
      "short_name": "Iredell",
      "types": [ "administrative_area_level_2", "political" ]
    }, {
      "long_name": "North Carolina",
      "short_name": "NC",
      "types": [ "administrative_area_level_1", "political" ]
    }, {
      "long_name": "United States",
      "short_name": "US",
      "types": [ "country", "political" ]
    } ],
    "geometry": {
      "location": {
        "lat": 35.7826363,
        "lng": -80.8872959
      },
      "location_type": "APPROXIMATE",
      "viewport": {
        "southwest": {
          "lat": 35.7101888,
          "lng": -81.0153553
        },
        "northeast": {
          "lat": 35.8550179,
          "lng": -80.7592365
        }
      },
      "bounds": {
        "southwest": {
          "lat": 35.7191380,
          "lng": -80.9694930
        },
        "northeast": {
          "lat": 35.8346490,
          "lng": -80.7785500
        }
      }
    }
  } ]
}
