{
  "status": "OK",
  "results": [ {
    "types": [ "locality", "political" ],
    "formatted_address": "Vanceboro, NC, USA",
    "address_components": [ {
      "long_name": "Vanceboro",
      "short_name": "Vanceboro",
      "types": [ "locality", "political" ]
    }, {
      "long_name": "Craven",
      "short_name": "Craven",
      "types": [ "administrative_area_level_2", "political" ]
    }, {
      "long_name": "North Carolina",
      "short_name": "NC",
      "types": [ "administrative_area_level_1", "political" ]
    }, {
      "long_name": "United States",
      "short_name": "US",
      "types": [ "country", "political" ]
    } ],
    "geometry": {
      "location": {
        "lat": 35.3084953,
        "lng": -77.1541194
      },
      "location_type": "APPROXIMATE",
      "viewport": {
        "southwest": {
          "lat": 35.2902823,
          "lng": -77.1861342
        },
        "northeast": {
          "lat": 35.3267042,
          "lng": -77.1221046
        }
      },
      "bounds": {
        "southwest": {
          "lat": 35.2898050,
          "lng": -77.1770350
        },
        "northeast": {
          "lat": 35.3146390,
          "lng": -77.1416840
        }
      }
    }
  } ]
}
