{
  "status": "OK",
  "results": [ {
    "types": [ "locality", "political" ],
    "formatted_address": "Waxhaw, NC, USA",
    "address_components": [ {
      "long_name": "Waxhaw",
      "short_name": "Waxhaw",
      "types": [ "locality", "political" ]
    }, {
      "long_name": "Union",
      "short_name": "Union",
      "types": [ "administrative_area_level_2", "political" ]
    }, {
      "long_name": "North Carolina",
      "short_name": "NC",
      "types": [ "administrative_area_level_1", "political" ]
    }, {
      "long_name": "United States",
      "short_name": "US",
      "types": [ "country", "political" ]
    } ],
    "geometry": {
      "location": {
        "lat": 34.9245935,
        "lng": -80.7434019
      },
      "location_type": "APPROXIMATE",
      "viewport": {
        "southwest": {
          "lat": 34.9062945,
          "lng": -80.7754167
        },
        "northeast": {
          "lat": 34.9428885,
          "lng": -80.7113871
        }
      },
      "bounds": {
        "southwest": {
          "lat": 34.9105069,
          "lng": -80.7772550
        },
        "northeast": {
          "lat": 34.9619950,
          "lng": -80.7247070
        }
      }
    }
  } ]
}
