{
  "status": "OK",
  "results": [ {
    "types": [ "locality", "political" ],
    "formatted_address": "Waynesville, NC, USA",
    "address_components": [ {
      "long_name": "Waynesville",
      "short_name": "Waynesville",
      "types": [ "locality", "political" ]
    }, {
      "long_name": "Haywood",
      "short_name": "Haywood",
      "types": [ "administrative_area_level_2", "political" ]
    }, {
      "long_name": "North Carolina",
      "short_name": "NC",
      "types": [ "administrative_area_level_1", "political" ]
    }, {
      "long_name": "United States",
      "short_name": "US",
      "types": [ "country", "political" ]
    } ],
    "geometry": {
      "location": {
        "lat": 35.4887145,
        "lng": -82.9887477
      },
      "location_type": "APPROXIMATE",
      "viewport": {
        "southwest": {
          "lat": 35.4523656,
          "lng": -83.0527774
        },
        "northeast": {
          "lat": 35.5250470,
          "lng": -82.9247180
        }
      },
      "bounds": {
        "southwest": {
          "lat": 35.4507709,
          "lng": -83.0376359
        },
        "northeast": {
          "lat": 35.5288309,
          "lng": -82.9635200
        }
      }
    }
  } ]
}
