{
  "status": "OK",
  "results": [ {
    "types": [ "locality", "political" ],
    "formatted_address": "West Jefferson, NC, USA",
    "address_components": [ {
      "long_name": "West Jefferson",
      "short_name": "West Jefferson",
      "types": [ "locality", "political" ]
    }, {
      "long_name": "Ashe",
      "short_name": "Ashe",
      "types": [ "administrative_area_level_2", "political" ]
    }, {
      "long_name": "North Carolina",
      "short_name": "NC",
      "types": [ "administrative_area_level_1", "political" ]
    }, {
      "long_name": "United States",
      "short_name": "US",
      "types": [ "country", "political" ]
    } ],
    "geometry": {
      "location": {
        "lat": 36.4037364,
        "lng": -81.4928829
      },
      "location_type": "APPROXIMATE",
      "viewport": {
        "southwest": {
          "lat": 36.3857732,
          "lng": -81.5248977
        },
        "northeast": {
          "lat": 36.4216955,
          "lng": -81.4608681
        }
      },
      "bounds": {
        "southwest": {
          "lat": 36.3617349,
          "lng": -81.5109130
        },
        "northeast": {
          "lat": 36.4136169,
          "lng": -81.4652790
        }
      }
    }
  } ]
}
