{
  "status": "OK",
  "results": [ {
    "types": [ "locality", "political" ],
    "formatted_address": "Windsor, NC, USA",
    "address_components": [ {
      "long_name": "Windsor",
      "short_name": "Windsor",
      "types": [ "locality", "political" ]
    }, {
      "long_name": "Bertie",
      "short_name": "Bertie",
      "types": [ "administrative_area_level_2", "political" ]
    }, {
      "long_name": "North Carolina",
      "short_name": "NC",
      "types": [ "administrative_area_level_1", "political" ]
    }, {
      "long_name": "United States",
      "short_name": "US",
      "types": [ "country", "political" ]
    } ],
    "geometry": {
      "location": {
        "lat": 35.9984925,
        "lng": -76.9460641
      },
      "location_type": "APPROXIMATE",
      "viewport": {
        "southwest": {
          "lat": 35.9623755,
          "lng": -77.0100938
        },
        "northeast": {
          "lat": 36.0345929,
          "lng": -76.8820344
        }
      },
      "bounds": {
        "southwest": {
          "lat": 35.9610820,
          "lng": -76.9666750
        },
        "northeast": {
          "lat": 36.0362469,
          "lng": -76.9038329
        }
      }
    }
  } ]
}
