{
  "status": "OK",
  "results": [ {
    "types": [ "locality", "political" ],
    "formatted_address": "Woodland, NC, USA",
    "address_components": [ {
      "long_name": "Woodland",
      "short_name": "Woodland",
      "types": [ "locality", "political" ]
    }, {
      "long_name": "Rich Square",
      "short_name": "Rich Square",
      "types": [ "administrative_area_level_3", "political" ]
    }, {
      "long_name": "Northampton",
      "short_name": "Northampton",
      "types": [ "administrative_area_level_2", "political" ]
    }, {
      "long_name": "North Carolina",
      "short_name": "NC",
      "types": [ "administrative_area_level_1", "political" ]
    }, {
      "long_name": "United States",
      "short_name": "US",
      "types": [ "country", "political" ]
    } ],
    "geometry": {
      "location": {
        "lat": 36.3315434,
        "lng": -77.2127436
      },
      "location_type": "APPROXIMATE",
      "viewport": {
        "southwest": {
          "lat": 36.2595990,
          "lng": -77.3408030
        },
        "northeast": {
          "lat": 36.4034214,
          "lng": -77.0846842
        }
      },
      "bounds": {
        "southwest": {
          "lat": 36.2456390,
          "lng": -77.3335000
        },
        "northeast": {
          "lat": 36.3828480,
          "lng": -77.0887350
        }
      }
    }
  } ]
}
