{
  "status": "OK",
  "results": [ {
    "types": [ "locality", "political" ],
    "formatted_address": "Yanceyville, NC, USA",
    "address_components": [ {
      "long_name": "Yanceyville",
      "short_name": "Yanceyville",
      "types": [ "locality", "political" ]
    }, {
      "long_name": "Caswell",
      "short_name": "Caswell",
      "types": [ "administrative_area_level_2", "political" ]
    }, {
      "long_name": "North Carolina",
      "short_name": "NC",
      "types": [ "administrative_area_level_1", "political" ]
    }, {
      "long_name": "United States",
      "short_name": "US",
      "types": [ "country", "political" ]
    } ],
    "geometry": {
      "location": {
        "lat": 36.4040273,
        "lng": -79.3361314
      },
      "location_type": "APPROXIMATE",
      "viewport": {
        "southwest": {
          "lat": 36.3321498,
          "lng": -79.4641908
        },
        "northeast": {
          "lat": 36.4758383,
          "lng": -79.2080720
        }
      },
      "bounds": {
        "southwest": {
          "lat": 36.3860509,
          "lng": -79.3905640
        },
        "northeast": {
          "lat": 36.5354839,
          "lng": -79.2176339
        }
      }
    }
  } ]
}
