{
  "status": "OK",
  "results": [ {
    "types": [ "locality", "political" ],
    "formatted_address": "Youngsville, NC, USA",
    "address_components": [ {
      "long_name": "Youngsville",
      "short_name": "Youngsville",
      "types": [ "locality", "political" ]
    }, {
      "long_name": "Franklin",
      "short_name": "Franklin",
      "types": [ "administrative_area_level_2", "political" ]
    }, {
      "long_name": "North Carolina",
      "short_name": "NC",
      "types": [ "administrative_area_level_1", "political" ]
    }, {
      "long_name": "United States",
      "short_name": "US",
      "types": [ "country", "political" ]
    } ],
    "geometry": {
      "location": {
        "lat": 36.0248732,
        "lng": -78.4744439
      },
      "location_type": "APPROXIMATE",
      "viewport": {
        "southwest": {
          "lat": 36.0068228,
          "lng": -78.5064587
        },
        "northeast": {
          "lat": 36.0429194,
          "lng": -78.4424291
        }
      },
      "bounds": {
        "southwest": {
          "lat": 36.0060549,
          "lng": -78.4921930
        },
        "northeast": {
          "lat": 36.0428700,
          "lng": -78.4675160
        }
      }
    }
  } ]
}
