{
  "status": "OK",
  "results": [ {
    "types": [ "locality", "political" ],
    "formatted_address": "Aspen, CO, USA",
    "address_components": [ {
      "long_name": "Aspen",
      "short_name": "Aspen",
      "types": [ "locality", "political" ]
    }, {
      "long_name": "Pitkin",
      "short_name": "Pitkin",
      "types": [ "administrative_area_level_2", "political" ]
    }, {
      "long_name": "Colorado",
      "short_name": "CO",
      "types": [ "administrative_area_level_1", "political" ]
    }, {
      "long_name": "United States",
      "short_name": "US",
      "types": [ "country", "political" ]
    } ],
    "geometry": {
      "location": {
        "lat": 39.1910983,
        "lng": -106.8175387
      },
      "location_type": "APPROXIMATE",
      "viewport": {
        "southwest": {
          "lat": 39.1564981,
          "lng": -106.8815684
        },
        "northeast": {
          "lat": 39.2256815,
          "lng": -106.7535090
        }
      },
      "bounds": {
        "southwest": {
          "lat": 39.1771780,
          "lng": -106.8720580
        },
        "northeast": {
          "lat": 39.2197850,
          "lng": -106.8013910
        }
      }
    }
  } ]
}
