{
  "status": "OK",
  "results": [ {
    "types": [ "locality", "political" ],
    "formatted_address": "Basalt, CO, USA",
    "address_components": [ {
      "long_name": "Basalt",
      "short_name": "Basalt",
      "types": [ "locality", "political" ]
    }, {
      "long_name": "Eagle",
      "short_name": "Eagle",
      "types": [ "administrative_area_level_2", "political" ]
    }, {
      "long_name": "Colorado",
      "short_name": "CO",
      "types": [ "administrative_area_level_1", "political" ]
    }, {
      "long_name": "United States",
      "short_name": "US",
      "types": [ "country", "political" ]
    } ],
    "geometry": {
      "location": {
        "lat": 39.3688731,
        "lng": -107.0328241
      },
      "location_type": "APPROXIMATE",
      "viewport": {
        "southwest": {
          "lat": 39.3343606,
          "lng": -107.0968538
        },
        "northeast": {
          "lat": 39.4033686,
          "lng": -106.9687944
        }
      },
      "bounds": {
        "southwest": {
          "lat": 39.3440350,
          "lng": -107.0896970
        },
        "northeast": {
          "lat": 39.3933279,
          "lng": -107.0112340
        }
      }
    }
  } ]
}
