{
  "status": "OK",
  "results": [ {
    "types": [ "locality", "political" ],
    "formatted_address": "Bow Mar, CO, USA",
    "address_components": [ {
      "long_name": "Bow Mar",
      "short_name": "Bow Mar",
      "types": [ "locality", "political" ]
    }, {
      "long_name": "Arapahoe",
      "short_name": "Arapahoe",
      "types": [ "administrative_area_level_2", "political" ]
    }, {
      "long_name": "Colorado",
      "short_name": "CO",
      "types": [ "administrative_area_level_1", "political" ]
    }, {
      "long_name": "United States",
      "short_name": "US",
      "types": [ "country", "political" ]
    } ],
    "geometry": {
      "location": {
        "lat": 39.6283210,
        "lng": -105.0499841
      },
      "location_type": "APPROXIMATE",
      "viewport": {
        "southwest": {
          "lat": 39.6197266,
          "lng": -105.0659915
        },
        "northeast": {
          "lat": 39.6369143,
          "lng": -105.0339767
        }
      },
      "bounds": {
        "southwest": {
          "lat": 39.6136530,
          "lng": -105.0595410
        },
        "northeast": {
          "lat": 39.6388869,
          "lng": -105.0440390
        }
      }
    }
  } ]
}
