{
  "status": "OK",
  "results": [ {
    "types": [ "locality", "political" ],
    "formatted_address": "Centennial, CO, USA",
    "address_components": [ {
      "long_name": "Centennial",
      "short_name": "Centennial",
      "types": [ "locality", "political" ]
    }, {
      "long_name": "Arapahoe",
      "short_name": "Arapahoe",
      "types": [ "administrative_area_level_2", "political" ]
    }, {
      "long_name": "Colorado",
      "short_name": "CO",
      "types": [ "administrative_area_level_1", "political" ]
    }, {
      "long_name": "United States",
      "short_name": "US",
      "types": [ "country", "political" ]
    } ],
    "geometry": {
      "location": {
        "lat": 39.5963889,
        "lng": -104.8438889
      },
      "location_type": "APPROXIMATE",
      "viewport": {
        "southwest": {
          "lat": 39.5275721,
          "lng": -104.9719483
        },
        "northeast": {
          "lat": 39.6651374,
          "lng": -104.7158295
        }
      },
      "bounds": {
        "southwest": {
          "lat": 39.5659790,
          "lng": -104.9883520
        },
        "northeast": {
          "lat": 39.6385000,
          "lng": -104.7266910
        }
      }
    }
  } ]
}
