{
  "status": "OK",
  "results": [ {
    "types": [ "locality", "political" ],
    "formatted_address": "Crested Butte, CO, USA",
    "address_components": [ {
      "long_name": "Crested Butte",
      "short_name": "Crested Butte",
      "types": [ "locality", "political" ]
    }, {
      "long_name": "Gunnison",
      "short_name": "Gunnison",
      "types": [ "administrative_area_level_2", "political" ]
    }, {
      "long_name": "Colorado",
      "short_name": "CO",
      "types": [ "administrative_area_level_1", "political" ]
    }, {
      "long_name": "United States",
      "short_name": "US",
      "types": [ "country", "political" ]
    } ],
    "geometry": {
      "location": {
        "lat": 38.8697146,
        "lng": -106.9878231
      },
      "location_type": "APPROXIMATE",
      "viewport": {
        "southwest": {
          "lat": 38.8610267,
          "lng": -107.0038305
        },
        "northeast": {
          "lat": 38.8784014,
          "lng": -106.9718157
        }
      },
      "bounds": {
        "southwest": {
          "lat": 38.8587489,
          "lng": -106.9921870
        },
        "northeast": {
          "lat": 38.8749980,
          "lng": -106.9630610
        }
      }
    }
  } ]
}
