{
  "status": "OK",
  "results": [ {
    "types": [ "locality", "political" ],
    "formatted_address": "Firestone, CO, USA",
    "address_components": [ {
      "long_name": "Firestone",
      "short_name": "Firestone",
      "types": [ "locality", "political" ]
    }, {
      "long_name": "Weld",
      "short_name": "Weld",
      "types": [ "administrative_area_level_2", "political" ]
    }, {
      "long_name": "Colorado",
      "short_name": "CO",
      "types": [ "administrative_area_level_1", "political" ]
    }, {
      "long_name": "United States",
      "short_name": "US",
      "types": [ "country", "political" ]
    } ],
    "geometry": {
      "location": {
        "lat": 40.1124839,
        "lng": -104.9366436
      },
      "location_type": "APPROXIMATE",
      "viewport": {
        "southwest": {
          "lat": 40.0783417,
          "lng": -105.0006733
        },
        "northeast": {
          "lat": 40.1466090,
          "lng": -104.8726139
        }
      },
      "bounds": {
        "southwest": {
          "lat": 40.1095050,
          "lng": -104.9985290
        },
        "northeast": {
          "lat": 40.1754740,
          "lng": -104.8948750
        }
      }
    }
  } ]
}
