{
  "status": "OK",
  "results": [ {
    "types": [ "locality", "political" ],
    "formatted_address": "Fort Lupton, CO, USA",
    "address_components": [ {
      "long_name": "Fort Lupton",
      "short_name": "Fort Lupton",
      "types": [ "locality", "political" ]
    }, {
      "long_name": "Weld",
      "short_name": "Weld",
      "types": [ "administrative_area_level_2", "political" ]
    }, {
      "long_name": "Colorado",
      "short_name": "CO",
      "types": [ "administrative_area_level_1", "political" ]
    }, {
      "long_name": "United States",
      "short_name": "US",
      "types": [ "country", "political" ]
    } ],
    "geometry": {
      "location": {
        "lat": 40.0847055,
        "lng": -104.8130275
      },
      "location_type": "APPROXIMATE",
      "viewport": {
        "southwest": {
          "lat": 40.0505493,
          "lng": -104.8770572
        },
        "northeast": {
          "lat": 40.1188445,
          "lng": -104.7489978
        }
      },
      "bounds": {
        "southwest": {
          "lat": 40.0293379,
          "lng": -104.8349180
        },
        "northeast": {
          "lat": 40.1135589,
          "lng": -104.7343840
        }
      }
    }
  } ]
}
