{
  "status": "OK",
  "results": [ {
    "types": [ "locality", "political" ],
    "formatted_address": "Fort Morgan, CO, USA",
    "address_components": [ {
      "long_name": "Fort Morgan",
      "short_name": "Fort Morgan",
      "types": [ "locality", "political" ]
    }, {
      "long_name": "Morgan",
      "short_name": "Morgan",
      "types": [ "administrative_area_level_2", "political" ]
    }, {
      "long_name": "Colorado",
      "short_name": "CO",
      "types": [ "administrative_area_level_1", "political" ]
    }, {
      "long_name": "United States",
      "short_name": "US",
      "types": [ "country", "political" ]
    } ],
    "geometry": {
      "location": {
        "lat": 40.2502582,
        "lng": -103.7999509
      },
      "location_type": "APPROXIMATE",
      "viewport": {
        "southwest": {
          "lat": 40.2332238,
          "lng": -103.8319657
        },
        "northeast": {
          "lat": 40.2672883,
          "lng": -103.7679361
        }
      },
      "bounds": {
        "southwest": {
          "lat": 40.2359439,
          "lng": -103.8201470
        },
        "northeast": {
          "lat": 40.2697180,
          "lng": -103.7541670
        }
      }
    }
  } ]
}
