{
  "status": "OK",
  "results": [ {
    "types": [ "locality", "political" ],
    "formatted_address": "Fraser, CO, USA",
    "address_components": [ {
      "long_name": "Fraser",
      "short_name": "Fraser",
      "types": [ "locality", "political" ]
    }, {
      "long_name": "Grand",
      "short_name": "Grand",
      "types": [ "administrative_area_level_2", "political" ]
    }, {
      "long_name": "Colorado",
      "short_name": "CO",
      "types": [ "administrative_area_level_1", "political" ]
    }, {
      "long_name": "United States",
      "short_name": "US",
      "types": [ "country", "political" ]
    } ],
    "geometry": {
      "location": {
        "lat": 39.9449868,
        "lng": -105.8172316
      },
      "location_type": "APPROXIMATE",
      "viewport": {
        "southwest": {
          "lat": 39.9107606,
          "lng": -105.8812613
        },
        "northeast": {
          "lat": 39.9791958,
          "lng": -105.7532019
        }
      },
      "bounds": {
        "southwest": {
          "lat": 39.9077849,
          "lng": -105.8222970
        },
        "northeast": {
          "lat": 39.9528780,
          "lng": -105.7760210
        }
      }
    }
  } ]
}
