{
  "status": "OK",
  "results": [ {
    "types": [ "locality", "political" ],
    "formatted_address": "Fruita, CO, USA",
    "address_components": [ {
      "long_name": "Fruita",
      "short_name": "Fruita",
      "types": [ "locality", "political" ]
    }, {
      "long_name": "Mesa",
      "short_name": "Mesa",
      "types": [ "administrative_area_level_2", "political" ]
    }, {
      "long_name": "Colorado",
      "short_name": "CO",
      "types": [ "administrative_area_level_1", "political" ]
    }, {
      "long_name": "United States",
      "short_name": "US",
      "types": [ "country", "political" ]
    } ],
    "geometry": {
      "location": {
        "lat": 39.1588696,
        "lng": -108.7289882
      },
      "location_type": "APPROXIMATE",
      "viewport": {
        "southwest": {
          "lat": 39.1242536,
          "lng": -108.7930179
        },
        "northeast": {
          "lat": 39.1934686,
          "lng": -108.6649585
        }
      },
      "bounds": {
        "southwest": {
          "lat": 39.1238070,
          "lng": -108.7775780
        },
        "northeast": {
          "lat": 39.1811019,
          "lng": -108.6820750
        }
      }
    }
  } ]
}
