{
  "status": "OK",
  "results": [ {
    "types": [ "locality", "political" ],
    "formatted_address": "Grand Junction, CO, USA",
    "address_components": [ {
      "long_name": "Grand Junction",
      "short_name": "Grand Junction",
      "types": [ "locality", "political" ]
    }, {
      "long_name": "Mesa",
      "short_name": "Mesa",
      "types": [ "administrative_area_level_2", "political" ]
    }, {
      "long_name": "Colorado",
      "short_name": "CO",
      "types": [ "administrative_area_level_1", "political" ]
    }, {
      "long_name": "United States",
      "short_name": "US",
      "types": [ "country", "political" ]
    } ],
    "geometry": {
      "location": {
        "lat": 39.0638705,
        "lng": -108.5506486
      },
      "location_type": "APPROXIMATE",
      "viewport": {
        "southwest": {
          "lat": 38.9945281,
          "lng": -108.6787080
        },
        "northeast": {
          "lat": 39.1331449,
          "lng": -108.4225892
        }
      },
      "bounds": {
        "southwest": {
          "lat": 39.0186280,
          "lng": -108.6757520
        },
        "northeast": {
          "lat": 39.1527559,
          "lng": -108.4639190
        }
      }
    }
  } ]
}
