{
  "status": "OK",
  "results": [ {
    "types": [ "locality", "political" ],
    "formatted_address": "Johnstown, CO, USA",
    "address_components": [ {
      "long_name": "Johnstown",
      "short_name": "Johnstown",
      "types": [ "locality", "political" ]
    }, {
      "long_name": "Larimer",
      "short_name": "Larimer",
      "types": [ "administrative_area_level_2", "political" ]
    }, {
      "long_name": "Colorado",
      "short_name": "CO",
      "types": [ "administrative_area_level_1", "political" ]
    }, {
      "long_name": "United States",
      "short_name": "US",
      "types": [ "country", "political" ]
    } ],
    "geometry": {
      "location": {
        "lat": 40.3369272,
        "lng": -104.9121967
      },
      "location_type": "APPROXIMATE",
      "viewport": {
        "southwest": {
          "lat": 40.2688514,
          "lng": -105.0402561
        },
        "northeast": {
          "lat": 40.4049344,
          "lng": -104.7841373
        }
      },
      "bounds": {
        "southwest": {
          "lat": 40.2802880,
          "lng": -104.9939580
        },
        "northeast": {
          "lat": 40.4226710,
          "lng": -104.8762420
        }
      }
    }
  } ]
}
