{
  "status": "OK",
  "results": [ {
    "types": [ "locality", "political" ],
    "formatted_address": "Kiowa, CO, USA",
    "address_components": [ {
      "long_name": "Kiowa",
      "short_name": "Kiowa",
      "types": [ "locality", "political" ]
    }, {
      "long_name": "Elbert",
      "short_name": "Elbert",
      "types": [ "administrative_area_level_2", "political" ]
    }, {
      "long_name": "Colorado",
      "short_name": "CO",
      "types": [ "administrative_area_level_1", "political" ]
    }, {
      "long_name": "United States",
      "short_name": "US",
      "types": [ "country", "political" ]
    } ],
    "geometry": {
      "location": {
        "lat": 39.3472095,
        "lng": -104.4644112
      },
      "location_type": "APPROXIMATE",
      "viewport": {
        "southwest": {
          "lat": 39.3299500,
          "lng": -104.4964260
        },
        "northeast": {
          "lat": 39.3644647,
          "lng": -104.4323964
        }
      },
      "bounds": {
        "southwest": {
          "lat": 39.3347860,
          "lng": -104.4746460
        },
        "northeast": {
          "lat": 39.3528680,
          "lng": -104.4260460
        }
      }
    }
  } ]
}
