{
  "status": "OK",
  "results": [ {
    "types": [ "locality", "political" ],
    "formatted_address": "Lakewood, CO, USA",
    "address_components": [ {
      "long_name": "Lakewood",
      "short_name": "Lakewood",
      "types": [ "locality", "political" ]
    }, {
      "long_name": "Jefferson",
      "short_name": "Jefferson",
      "types": [ "administrative_area_level_2", "political" ]
    }, {
      "long_name": "Colorado",
      "short_name": "CO",
      "types": [ "administrative_area_level_1", "political" ]
    }, {
      "long_name": "United States",
      "short_name": "US",
      "types": [ "country", "political" ]
    } ],
    "geometry": {
      "location": {
        "lat": 39.7047095,
        "lng": -105.0813734
      },
      "location_type": "APPROXIMATE",
      "viewport": {
        "southwest": {
          "lat": 39.6360004,
          "lng": -105.2094328
        },
        "northeast": {
          "lat": 39.7733502,
          "lng": -104.9533140
        }
      },
      "bounds": {
        "southwest": {
          "lat": 39.6183039,
          "lng": -105.1993240
        },
        "northeast": {
          "lat": 39.7619550,
          "lng": -105.0531730
        }
      }
    }
  } ]
}
