{
  "status": "OK",
  "results": [ {
    "types": [ "locality", "political" ],
    "formatted_address": "Lakeside, CO, USA",
    "address_components": [ {
      "long_name": "Lakeside",
      "short_name": "Lakeside",
      "types": [ "locality", "political" ]
    }, {
      "long_name": "Jefferson",
      "short_name": "Jefferson",
      "types": [ "administrative_area_level_2", "political" ]
    }, {
      "long_name": "Colorado",
      "short_name": "CO",
      "types": [ "administrative_area_level_1", "political" ]
    }, {
      "long_name": "United States",
      "short_name": "US",
      "types": [ "country", "political" ]
    } ],
    "geometry": {
      "location": {
        "lat": 39.7783200,
        "lng": -105.0594279
      },
      "location_type": "APPROXIMATE",
      "viewport": {
        "southwest": {
          "lat": 39.7697443,
          "lng": -105.0754353
        },
        "northeast": {
          "lat": 39.7868947,
          "lng": -105.0434205
        }
      },
      "bounds": {
        "southwest": {
          "lat": 39.7765739,
          "lng": -105.0625990
        },
        "northeast": {
          "lat": 39.7838710,
          "lng": -105.0532090
        }
      }
    }
  } ]
}
