{
  "status": "OK",
  "results": [ {
    "types": [ "locality", "political" ],
    "formatted_address": "Lamar, CO, USA",
    "address_components": [ {
      "long_name": "Lamar",
      "short_name": "Lamar",
      "types": [ "locality", "political" ]
    }, {
      "long_name": "Prowers",
      "short_name": "Prowers",
      "types": [ "administrative_area_level_2", "political" ]
    }, {
      "long_name": "Colorado",
      "short_name": "CO",
      "types": [ "administrative_area_level_1", "political" ]
    }, {
      "long_name": "United States",
      "short_name": "US",
      "types": [ "country", "political" ]
    } ],
    "geometry": {
      "location": {
        "lat": 38.0872307,
        "lng": -102.6207496
      },
      "location_type": "APPROXIMATE",
      "viewport": {
        "southwest": {
          "lat": 38.0696643,
          "lng": -102.6527644
        },
        "northeast": {
          "lat": 38.1047929,
          "lng": -102.5887348
        }
      },
      "bounds": {
        "southwest": {
          "lat": 38.0460060,
          "lng": -102.6334840
        },
        "northeast": {
          "lat": 38.1035879,
          "lng": -102.6000679
        }
      }
    }
  } ]
}
