{
  "status": "OK",
  "results": [ {
    "types": [ "locality", "political" ],
    "formatted_address": "Las Animas, CO, USA",
    "address_components": [ {
      "long_name": "Las Animas",
      "short_name": "Las Animas",
      "types": [ "locality", "political" ]
    }, {
      "long_name": "Bent",
      "short_name": "Bent",
      "types": [ "administrative_area_level_2", "political" ]
    }, {
      "long_name": "Colorado",
      "short_name": "CO",
      "types": [ "administrative_area_level_1", "political" ]
    }, {
      "long_name": "United States",
      "short_name": "US",
      "types": [ "country", "political" ]
    } ],
    "geometry": {
      "location": {
        "lat": 38.0666735,
        "lng": -103.2227080
      },
      "location_type": "APPROXIMATE",
      "viewport": {
        "southwest": {
          "lat": 38.0578884,
          "lng": -103.2387154
        },
        "northeast": {
          "lat": 38.0754576,
          "lng": -103.2067006
        }
      },
      "bounds": {
        "southwest": {
          "lat": 38.0591010,
          "lng": -103.2450300
        },
        "northeast": {
          "lat": 38.0800629,
          "lng": -103.2119210
        }
      }
    }
  } ]
}
