{
  "status": "OK",
  "results": [ {
    "types": [ "locality", "political" ],
    "formatted_address": "Littleton, CO, USA",
    "address_components": [ {
      "long_name": "Littleton",
      "short_name": "Littleton",
      "types": [ "locality", "political" ]
    }, {
      "long_name": "Jefferson",
      "short_name": "Jefferson",
      "types": [ "administrative_area_level_2", "political" ]
    }, {
      "long_name": "Colorado",
      "short_name": "CO",
      "types": [ "administrative_area_level_1", "political" ]
    }, {
      "long_name": "United States",
      "short_name": "US",
      "types": [ "country", "political" ]
    } ],
    "geometry": {
      "location": {
        "lat": 39.6133210,
        "lng": -105.0166498
      },
      "location_type": "APPROXIMATE",
      "viewport": {
        "southwest": {
          "lat": 39.5445211,
          "lng": -105.1447092
        },
        "northeast": {
          "lat": 39.6820526,
          "lng": -104.8885904
        }
      },
      "bounds": {
        "southwest": {
          "lat": 39.5353590,
          "lng": -105.1119850
        },
        "northeast": {
          "lat": 39.6299549,
          "lng": -104.9727890
        }
      }
    }
  } ]
}
