{
  "status": "OK",
  "results": [ {
    "types": [ "locality", "political" ],
    "formatted_address": "Monte Vista, CO, USA",
    "address_components": [ {
      "long_name": "Monte Vista",
      "short_name": "Monte Vista",
      "types": [ "locality", "political" ]
    }, {
      "long_name": "Rio Grande",
      "short_name": "Rio Grande",
      "types": [ "administrative_area_level_2", "political" ]
    }, {
      "long_name": "Colorado",
      "short_name": "CO",
      "types": [ "administrative_area_level_1", "political" ]
    }, {
      "long_name": "United States",
      "short_name": "US",
      "types": [ "country", "political" ]
    } ],
    "geometry": {
      "location": {
        "lat": 37.5791696,
        "lng": -106.1480842
      },
      "location_type": "APPROXIMATE",
      "viewport": {
        "southwest": {
          "lat": 37.5614818,
          "lng": -106.1800990
        },
        "northeast": {
          "lat": 37.5968532,
          "lng": -106.1160694
        }
      },
      "bounds": {
        "southwest": {
          "lat": 37.5675290,
          "lng": -106.1773030
        },
        "northeast": {
          "lat": 37.5894140,
          "lng": -106.1198820
        }
      }
    }
  } ]
}
