{
  "status": "OK",
  "results": [ {
    "types": [ "locality", "political" ],
    "formatted_address": "Monument, CO, USA",
    "address_components": [ {
      "long_name": "Monument",
      "short_name": "Monument",
      "types": [ "locality", "political" ]
    }, {
      "long_name": "El Paso",
      "short_name": "El Paso",
      "types": [ "administrative_area_level_2", "political" ]
    }, {
      "long_name": "Colorado",
      "short_name": "CO",
      "types": [ "administrative_area_level_1", "political" ]
    }, {
      "long_name": "United States",
      "short_name": "US",
      "types": [ "country", "political" ]
    } ],
    "geometry": {
      "location": {
        "lat": 39.0916586,
        "lng": -104.8727580
      },
      "location_type": "APPROXIMATE",
      "viewport": {
        "southwest": {
          "lat": 39.0570095,
          "lng": -104.9367877
        },
        "northeast": {
          "lat": 39.1262907,
          "lng": -104.8087283
        }
      },
      "bounds": {
        "southwest": {
          "lat": 39.0423500,
          "lng": -104.8853890
        },
        "northeast": {
          "lat": 39.1096670,
          "lng": -104.8223850
        }
      }
    }
  } ]
}
