{
  "status": "OK",
  "results": [ {
    "types": [ "locality", "political" ],
    "formatted_address": "Mount Crested Butte, CO, USA",
    "address_components": [ {
      "long_name": "Mount Crested Butte",
      "short_name": "Mount Crested Butte",
      "types": [ "locality", "political" ]
    }, {
      "long_name": "Gunnison",
      "short_name": "Gunnison",
      "types": [ "administrative_area_level_2", "political" ]
    }, {
      "long_name": "Colorado",
      "short_name": "CO",
      "types": [ "administrative_area_level_1", "political" ]
    }, {
      "long_name": "United States",
      "short_name": "US",
      "types": [ "country", "political" ]
    } ],
    "geometry": {
      "location": {
        "lat": 38.9078450,
        "lng": -106.9662440
      },
      "location_type": "APPROXIMATE",
      "viewport": {
        "southwest": {
          "lat": 38.8904775,
          "lng": -106.9982588
        },
        "northeast": {
          "lat": 38.9252082,
          "lng": -106.9342292
        }
      },
      "bounds": {
        "southwest": {
          "lat": 38.8842859,
          "lng": -106.9727630
        },
        "northeast": {
          "lat": 38.9282970,
          "lng": -106.9364490
        }
      }
    }
  } ]
}
