{
  "status": "OK",
  "results": [ {
    "types": [ "locality", "political" ],
    "formatted_address": "Parker, CO, USA",
    "address_components": [ {
      "long_name": "Parker",
      "short_name": "Parker",
      "types": [ "locality", "political" ]
    }, {
      "long_name": "Douglas",
      "short_name": "Douglas",
      "types": [ "administrative_area_level_2", "political" ]
    }, {
      "long_name": "Colorado",
      "short_name": "CO",
      "types": [ "administrative_area_level_1", "political" ]
    }, {
      "long_name": "United States",
      "short_name": "US",
      "types": [ "country", "political" ]
    } ],
    "geometry": {
      "location": {
        "lat": 39.5186002,
        "lng": -104.7613633
      },
      "location_type": "APPROXIMATE",
      "viewport": {
        "southwest": {
          "lat": 39.4841618,
          "lng": -104.8253930
        },
        "northeast": {
          "lat": 39.5530216,
          "lng": -104.6973336
        }
      },
      "bounds": {
        "southwest": {
          "lat": 39.4500210,
          "lng": -104.8229890
        },
        "northeast": {
          "lat": 39.5660899,
          "lng": -104.7083890
        }
      }
    }
  } ]
}
