{
  "status": "OK",
  "results": [ {
    "types": [ "locality", "political" ],
    "formatted_address": "Platteville, CO, USA",
    "address_components": [ {
      "long_name": "Platteville",
      "short_name": "Platteville",
      "types": [ "locality", "political" ]
    }, {
      "long_name": "Weld",
      "short_name": "Weld",
      "types": [ "administrative_area_level_2", "political" ]
    }, {
      "long_name": "Colorado",
      "short_name": "CO",
      "types": [ "administrative_area_level_1", "political" ]
    }, {
      "long_name": "United States",
      "short_name": "US",
      "types": [ "country", "political" ]
    } ],
    "geometry": {
      "location": {
        "lat": 40.2149829,
        "lng": -104.8227494
      },
      "location_type": "APPROXIMATE",
      "viewport": {
        "southwest": {
          "lat": 40.2064618,
          "lng": -104.8387568
        },
        "northeast": {
          "lat": 40.2235029,
          "lng": -104.8067420
        }
      },
      "bounds": {
        "southwest": {
          "lat": 40.1994760,
          "lng": -104.8392380
        },
        "northeast": {
          "lat": 40.2319300,
          "lng": -104.8105630
        }
      }
    }
  } ]
}
