{
  "status": "OK",
  "results": [ {
    "types": [ "locality", "political" ],
    "formatted_address": "Rocky Ford, CO, USA",
    "address_components": [ {
      "long_name": "Rocky Ford",
      "short_name": "Rocky Ford",
      "types": [ "locality", "political" ]
    }, {
      "long_name": "Otero",
      "short_name": "Otero",
      "types": [ "administrative_area_level_2", "political" ]
    }, {
      "long_name": "Colorado",
      "short_name": "CO",
      "types": [ "administrative_area_level_1", "political" ]
    }, {
      "long_name": "United States",
      "short_name": "US",
      "types": [ "country", "political" ]
    } ],
    "geometry": {
      "location": {
        "lat": 38.0525080,
        "lng": -103.7202274
      },
      "location_type": "APPROXIMATE",
      "viewport": {
        "southwest": {
          "lat": 38.0437212,
          "lng": -103.7362348
        },
        "northeast": {
          "lat": 38.0612938,
          "lng": -103.7042200
        }
      },
      "bounds": {
        "southwest": {
          "lat": 38.0390930,
          "lng": -103.7410900
        },
        "northeast": {
          "lat": 38.0622440,
          "lng": -103.7021470
        }
      }
    }
  } ]
}
