{
  "status": "OK",
  "results": [ {
    "types": [ "locality", "political" ],
    "formatted_address": "South Fork, CO, USA",
    "address_components": [ {
      "long_name": "South Fork",
      "short_name": "South Fork",
      "types": [ "locality", "political" ]
    }, {
      "long_name": "Rio Grande",
      "short_name": "Rio Grande",
      "types": [ "administrative_area_level_2", "political" ]
    }, {
      "long_name": "Colorado",
      "short_name": "CO",
      "types": [ "administrative_area_level_1", "political" ]
    }, {
      "long_name": "United States",
      "short_name": "US",
      "types": [ "country", "political" ]
    } ],
    "geometry": {
      "location": {
        "lat": 37.6700041,
        "lng": -106.6397638
      },
      "location_type": "APPROXIMATE",
      "viewport": {
        "southwest": {
          "lat": 37.6523379,
          "lng": -106.6717786
        },
        "northeast": {
          "lat": 37.6876661,
          "lng": -106.6077490
        }
      },
      "bounds": {
        "southwest": {
          "lat": 37.6417620,
          "lng": -106.6698080
        },
        "northeast": {
          "lat": 37.6874589,
          "lng": -106.6072620
        }
      }
    }
  } ]
}
