{
  "status": "OK",
  "results": [ {
    "types": [ "locality", "political" ],
    "formatted_address": "Wiggins, CO, USA",
    "address_components": [ {
      "long_name": "Wiggins",
      "short_name": "Wiggins",
      "types": [ "locality", "political" ]
    }, {
      "long_name": "Morgan",
      "short_name": "Morgan",
      "types": [ "administrative_area_level_2", "political" ]
    }, {
      "long_name": "Colorado",
      "short_name": "CO",
      "types": [ "administrative_area_level_1", "political" ]
    }, {
      "long_name": "United States",
      "short_name": "US",
      "types": [ "country", "political" ]
    } ],
    "geometry": {
      "location": {
        "lat": 40.2305363,
        "lng": -104.0727278
      },
      "location_type": "APPROXIMATE",
      "viewport": {
        "southwest": {
          "lat": 40.2220172,
          "lng": -104.0887352
        },
        "northeast": {
          "lat": 40.2390544,
          "lng": -104.0567204
        }
      },
      "bounds": {
        "southwest": {
          "lat": 40.2110739,
          "lng": -104.0841550
        },
        "northeast": {
          "lat": 40.2382069,
          "lng": -104.0651130
        }
      }
    }
  } ]
}
