{
  "status": "OK",
  "results": [ {
    "types": [ "locality", "political" ],
    "formatted_address": "Addis, LA, USA",
    "address_components": [ {
      "long_name": "Addis",
      "short_name": "Addis",
      "types": [ "locality", "political" ]
    }, {
      "long_name": "West Baton Rouge",
      "short_name": "West Baton Rouge",
      "types": [ "administrative_area_level_2", "political" ]
    }, {
      "long_name": "Louisiana",
      "short_name": "LA",
      "types": [ "administrative_area_level_1", "political" ]
    }, {
      "long_name": "United States",
      "short_name": "US",
      "types": [ "country", "political" ]
    } ],
    "geometry": {
      "location": {
        "lat": 30.3538043,
        "lng": -91.2653865
      },
      "location_type": "APPROXIMATE",
      "viewport": {
        "southwest": {
          "lat": 30.3345455,
          "lng": -91.2974013
        },
        "northeast": {
          "lat": 30.3730593,
          "lng": -91.2333717
        }
      },
      "bounds": {
        "southwest": {
          "lat": 30.3395870,
          "lng": -91.2907939
        },
        "northeast": {
          "lat": 30.3879980,
          "lng": -91.2434679
        }
      }
    }
  } ]
}
