{
  "status": "OK",
  "results": [ {
    "types": [ "locality", "political" ],
    "formatted_address": "Broussard, LA, USA",
    "address_components": [ {
      "long_name": "Broussard",
      "short_name": "Broussard",
      "types": [ "locality", "political" ]
    }, {
      "long_name": "Lafayette",
      "short_name": "Lafayette",
      "types": [ "administrative_area_level_2", "political" ]
    }, {
      "long_name": "Louisiana",
      "short_name": "LA",
      "types": [ "administrative_area_level_1", "political" ]
    }, {
      "long_name": "United States",
      "short_name": "US",
      "types": [ "country", "political" ]
    } ],
    "geometry": {
      "location": {
        "lat": 30.1471460,
        "lng": -91.9612305
      },
      "location_type": "APPROXIMATE",
      "viewport": {
        "southwest": {
          "lat": 30.1085435,
          "lng": -92.0252602
        },
        "northeast": {
          "lat": 30.1857334,
          "lng": -91.8972008
        }
      },
      "bounds": {
        "southwest": {
          "lat": 30.0903050,
          "lng": -92.0167259
        },
        "northeast": {
          "lat": 30.1951900,
          "lng": -91.9075879
        }
      }
    }
  } ]
}
