{
  "status": "OK",
  "results": [ {
    "types": [ "locality", "political" ],
    "formatted_address": "Clarence, LA, USA",
    "address_components": [ {
      "long_name": "Clarence",
      "short_name": "Clarence",
      "types": [ "locality", "political" ]
    }, {
      "long_name": "8",
      "short_name": "8",
      "types": [ "administrative_area_level_3", "political" ]
    }, {
      "long_name": "Natchitoches",
      "short_name": "Natchitoches",
      "types": [ "administrative_area_level_2", "political" ]
    }, {
      "long_name": "Louisiana",
      "short_name": "LA",
      "types": [ "administrative_area_level_1", "political" ]
    }, {
      "long_name": "United States",
      "short_name": "US",
      "types": [ "country", "political" ]
    } ],
    "geometry": {
      "location": {
        "lat": 31.8215520,
        "lng": -93.0296061
      },
      "location_type": "APPROXIMATE",
      "viewport": {
        "southwest": {
          "lat": 31.8120706,
          "lng": -93.0456135
        },
        "northeast": {
          "lat": 31.8310324,
          "lng": -93.0135987
        }
      },
      "bounds": {
        "southwest": {
          "lat": 31.8077750,
          "lng": -93.0481090
        },
        "northeast": {
          "lat": 31.8314580,
          "lng": -93.0106670
        }
      }
    }
  } ]
}
