{
  "status": "OK",
  "results": [ {
    "types": [ "locality", "political" ],
    "formatted_address": "Cullen, LA, USA",
    "address_components": [ {
      "long_name": "Cullen",
      "short_name": "Cullen",
      "types": [ "locality", "political" ]
    }, {
      "long_name": "Webster",
      "short_name": "Webster",
      "types": [ "administrative_area_level_2", "political" ]
    }, {
      "long_name": "Louisiana",
      "short_name": "LA",
      "types": [ "administrative_area_level_1", "political" ]
    }, {
      "long_name": "United States",
      "short_name": "US",
      "types": [ "country", "political" ]
    } ],
    "geometry": {
      "location": {
        "lat": 32.9690262,
        "lng": -93.4507281
      },
      "location_type": "APPROXIMATE",
      "viewport": {
        "southwest": {
          "lat": 32.9596645,
          "lng": -93.4667355
        },
        "northeast": {
          "lat": 32.9783869,
          "lng": -93.4347207
        }
      },
      "bounds": {
        "southwest": {
          "lat": 32.9585960,
          "lng": -93.4571689
        },
        "northeast": {
          "lat": 32.9785959,
          "lng": -93.4371170
        }
      }
    }
  } ]
}
