{
  "status": "OK",
  "results": [ {
    "types": [ "locality", "political" ],
    "formatted_address": "Elton, LA, USA",
    "address_components": [ {
      "long_name": "Elton",
      "short_name": "Elton",
      "types": [ "locality", "political" ]
    }, {
      "long_name": "Jefferson Davis",
      "short_name": "Jefferson Davis",
      "types": [ "administrative_area_level_2", "political" ]
    }, {
      "long_name": "Louisiana",
      "short_name": "LA",
      "types": [ "administrative_area_level_1", "political" ]
    }, {
      "long_name": "United States",
      "short_name": "US",
      "types": [ "country", "political" ]
    } ],
    "geometry": {
      "location": {
        "lat": 30.4813125,
        "lng": -92.6956982
      },
      "location_type": "APPROXIMATE",
      "viewport": {
        "southwest": {
          "lat": 30.4716961,
          "lng": -92.7117056
        },
        "northeast": {
          "lat": 30.4909279,
          "lng": -92.6796908
        }
      },
      "bounds": {
        "southwest": {
          "lat": 30.4743230,
          "lng": -92.7143980
        },
        "northeast": {
          "lat": 30.4882320,
          "lng": -92.6795010
        }
      }
    }
  } ]
}
