{
  "status": "OK",
  "results": [ {
    "types": [ "locality", "political" ],
    "formatted_address": "Ferriday, LA 71334, USA",
    "address_components": [ {
      "long_name": "Ferriday",
      "short_name": "Ferriday",
      "types": [ "locality", "political" ]
    }, {
      "long_name": "4",
      "short_name": "4",
      "types": [ "administrative_area_level_3", "political" ]
    }, {
      "long_name": "Concordia",
      "short_name": "Concordia",
      "types": [ "administrative_area_level_2", "political" ]
    }, {
      "long_name": "Louisiana",
      "short_name": "LA",
      "types": [ "administrative_area_level_1", "political" ]
    }, {
      "long_name": "United States",
      "short_name": "US",
      "types": [ "country", "political" ]
    }, {
      "long_name": "71334",
      "short_name": "71334",
      "types": [ "postal_code" ]
    } ],
    "geometry": {
      "location": {
        "lat": 31.6301664,
        "lng": -91.5545649
      },
      "location_type": "APPROXIMATE",
      "viewport": {
        "southwest": {
          "lat": 31.6111635,
          "lng": -91.5865797
        },
        "northeast": {
          "lat": 31.6491654,
          "lng": -91.5225501
        }
      },
      "bounds": {
        "southwest": {
          "lat": 31.6165259,
          "lng": -91.5691679
        },
        "northeast": {
          "lat": 31.6552640,
          "lng": -91.5445879
        }
      }
    }
  } ]
}
