{
  "status": "OK",
  "results": [ {
    "types": [ "locality", "political" ],
    "formatted_address": "Haughton, LA, USA",
    "address_components": [ {
      "long_name": "Haughton",
      "short_name": "Haughton",
      "types": [ "locality", "political" ]
    }, {
      "long_name": "Bossier",
      "short_name": "Bossier",
      "types": [ "administrative_area_level_2", "political" ]
    }, {
      "long_name": "Louisiana",
      "short_name": "LA",
      "types": [ "administrative_area_level_1", "political" ]
    }, {
      "long_name": "United States",
      "short_name": "US",
      "types": [ "country", "political" ]
    } ],
    "geometry": {
      "location": {
        "lat": 32.5326514,
        "lng": -93.5040627
      },
      "location_type": "APPROXIMATE",
      "viewport": {
        "southwest": {
          "lat": 32.5138352,
          "lng": -93.5360775
        },
        "northeast": {
          "lat": 32.5514637,
          "lng": -93.4720479
        }
      },
      "bounds": {
        "southwest": {
          "lat": 32.4905390,
          "lng": -93.5378789
        },
        "northeast": {
          "lat": 32.5533451,
          "lng": -93.4857000
        }
      }
    }
  } ]
}
