{
  "status": "OK",
  "results": [ {
    "types": [ "locality", "political" ],
    "formatted_address": "Lutcher, LA, USA",
    "address_components": [ {
      "long_name": "Lutcher",
      "short_name": "Lutcher",
      "types": [ "locality", "political" ]
    }, {
      "long_name": "2",
      "short_name": "2",
      "types": [ "administrative_area_level_3", "political" ]
    }, {
      "long_name": "St James",
      "short_name": "St James",
      "types": [ "administrative_area_level_2", "political" ]
    }, {
      "long_name": "Louisiana",
      "short_name": "LA",
      "types": [ "administrative_area_level_1", "political" ]
    }, {
      "long_name": "United States",
      "short_name": "US",
      "types": [ "country", "political" ]
    } ],
    "geometry": {
      "location": {
        "lat": 30.0404796,
        "lng": -90.6989797
      },
      "location_type": "APPROXIMATE",
      "viewport": {
        "southwest": {
          "lat": 30.0018354,
          "lng": -90.7630094
        },
        "northeast": {
          "lat": 30.0791087,
          "lng": -90.6349500
        }
      },
      "bounds": {
        "southwest": {
          "lat": 30.0334120,
          "lng": -90.7327830
        },
        "northeast": {
          "lat": 30.0986220,
          "lng": -90.6889959
        }
      }
    }
  } ]
}
