{
  "status": "OK",
  "results": [ {
    "types": [ "locality", "political" ],
    "formatted_address": "Moreauville, LA, USA",
    "address_components": [ {
      "long_name": "Moreauville",
      "short_name": "Moreauville",
      "types": [ "locality", "political" ]
    }, {
      "long_name": "Avoyelles",
      "short_name": "Avoyelles",
      "types": [ "administrative_area_level_2", "political" ]
    }, {
      "long_name": "Louisiana",
      "short_name": "LA",
      "types": [ "administrative_area_level_1", "political" ]
    }, {
      "long_name": "United States",
      "short_name": "US",
      "types": [ "country", "political" ]
    } ],
    "geometry": {
      "location": {
        "lat": 31.0346323,
        "lng": -91.9756768
      },
      "location_type": "APPROXIMATE",
      "viewport": {
        "southwest": {
          "lat": 31.0155088,
          "lng": -92.0076916
        },
        "northeast": {
          "lat": 31.0537520,
          "lng": -91.9436620
        }
      },
      "bounds": {
        "southwest": {
          "lat": 31.0163760,
          "lng": -92.0004840
        },
        "northeast": {
          "lat": 31.0521800,
          "lng": -91.9561640
        }
      }
    }
  } ]
}
