{
  "status": "OK",
  "results": [ {
    "types": [ "locality", "political" ],
    "formatted_address": "Ruston, LA, USA",
    "address_components": [ {
      "long_name": "Ruston",
      "short_name": "Ruston",
      "types": [ "locality", "political" ]
    }, {
      "long_name": "Lincoln",
      "short_name": "Lincoln",
      "types": [ "administrative_area_level_2", "political" ]
    }, {
      "long_name": "Louisiana",
      "short_name": "LA",
      "types": [ "administrative_area_level_1", "political" ]
    }, {
      "long_name": "United States",
      "short_name": "US",
      "types": [ "country", "political" ]
    } ],
    "geometry": {
      "location": {
        "lat": 32.5232053,
        "lng": -92.6379270
      },
      "location_type": "APPROXIMATE",
      "viewport": {
        "southwest": {
          "lat": 32.4855649,
          "lng": -92.7019567
        },
        "northeast": {
          "lat": 32.5608299,
          "lng": -92.5738973
        }
      },
      "bounds": {
        "southwest": {
          "lat": 32.4800660,
          "lng": -92.6867570
        },
        "northeast": {
          "lat": 32.5771219,
          "lng": -92.5691310
        }
      }
    }
  } ]
}
