{
  "status": "OK",
  "results": [ {
    "types": [ "locality", "political" ],
    "formatted_address": "Vinton, LA, USA",
    "address_components": [ {
      "long_name": "Vinton",
      "short_name": "Vinton",
      "types": [ "locality", "political" ]
    }, {
      "long_name": "Calcasieu",
      "short_name": "Calcasieu",
      "types": [ "administrative_area_level_2", "political" ]
    }, {
      "long_name": "Louisiana",
      "short_name": "LA",
      "types": [ "administrative_area_level_1", "political" ]
    }, {
      "long_name": "United States",
      "short_name": "US",
      "types": [ "country", "political" ]
    } ],
    "geometry": {
      "location": {
        "lat": 30.1907628,
        "lng": -93.5812717
      },
      "location_type": "APPROXIMATE",
      "viewport": {
        "southwest": {
          "lat": 30.1714720,
          "lng": -93.6132865
        },
        "northeast": {
          "lat": 30.2100499,
          "lng": -93.5492569
        }
      },
      "bounds": {
        "southwest": {
          "lat": 30.1693430,
          "lng": -93.6002810
        },
        "northeast": {
          "lat": 30.2130680,
          "lng": -93.5619650
        }
      }
    }
  } ]
}
