{
  "status": "OK",
  "results": [ {
    "types": [ "locality", "political" ],
    "formatted_address": "Cranston, RI, USA",
    "address_components": [ {
      "long_name": "Cranston",
      "short_name": "Cranston",
      "types": [ "locality", "political" ]
    }, {
      "long_name": "Providence",
      "short_name": "Providence",
      "types": [ "administrative_area_level_2", "political" ]
    }, {
      "long_name": "Rhode Island",
      "short_name": "RI",
      "types": [ "administrative_area_level_1", "political" ]
    }, {
      "long_name": "United States",
      "short_name": "US",
      "types": [ "country", "political" ]
    } ],
    "geometry": {
      "location": {
        "lat": 41.7798226,
        "lng": -71.4372796
      },
      "location_type": "APPROXIMATE",
      "viewport": {
        "southwest": {
          "lat": 41.7465314,
          "lng": -71.5013093
        },
        "northeast": {
          "lat": 41.8130965,
          "lng": -71.3732499
        }
      },
      "bounds": {
        "southwest": {
          "lat": 41.7300660,
          "lng": -71.5592899
        },
        "northeast": {
          "lat": 41.8070200,
          "lng": -71.3769980
        }
      }
    }
  } ]
}
