{
  "status": "OK",
  "results": [ {
    "types": [ "locality", "political" ],
    "formatted_address": "Westerly, RI, USA",
    "address_components": [ {
      "long_name": "Westerly",
      "short_name": "Westerly",
      "types": [ "locality", "political" ]
    }, {
      "long_name": "Washington",
      "short_name": "Washington",
      "types": [ "administrative_area_level_2", "political" ]
    }, {
      "long_name": "Rhode Island",
      "short_name": "RI",
      "types": [ "administrative_area_level_1", "political" ]
    }, {
      "long_name": "United States",
      "short_name": "US",
      "types": [ "country", "political" ]
    } ],
    "geometry": {
      "location": {
        "lat": 41.3775996,
        "lng": -71.8272911
      },
      "location_type": "APPROXIMATE",
      "viewport": {
        "southwest": {
          "lat": 41.3441005,
          "lng": -71.8913208
        },
        "northeast": {
          "lat": 41.4110814,
          "lng": -71.7632614
        }
      },
      "bounds": {
        "southwest": {
          "lat": 41.3267479,
          "lng": -71.8435590
        },
        "northeast": {
          "lat": 41.4198499,
          "lng": -71.7628510
        }
      }
    }
  } ]
}
