{
  "status": "OK",
  "results": [ {
    "types": [ "locality", "political" ],
    "formatted_address": "Woonsocket, RI, USA",
    "address_components": [ {
      "long_name": "Woonsocket",
      "short_name": "Woonsocket",
      "types": [ "locality", "political" ]
    }, {
      "long_name": "Providence",
      "short_name": "Providence",
      "types": [ "administrative_area_level_2", "political" ]
    }, {
      "long_name": "Rhode Island",
      "short_name": "RI",
      "types": [ "administrative_area_level_1", "political" ]
    }, {
      "long_name": "United States",
      "short_name": "US",
      "types": [ "country", "political" ]
    } ],
    "geometry": {
      "location": {
        "lat": 42.0028761,
        "lng": -71.5147839
      },
      "location_type": "APPROXIMATE",
      "viewport": {
        "southwest": {
          "lat": 41.9862907,
          "lng": -71.5467987
        },
        "northeast": {
          "lat": 42.0194572,
          "lng": -71.4827691
        }
      },
      "bounds": {
        "southwest": {
          "lat": 41.9776339,
          "lng": -71.5398539
        },
        "northeast": {
          "lat": 42.0177980,
          "lng": -71.4581039
        }
      }
    }
  } ]
}
