{
  "status": "OK",
  "results": [ {
    "types": [ "locality", "political" ],
    "formatted_address": "Clarksdale, MS, USA",
    "address_components": [ {
      "long_name": "Clarksdale",
      "short_name": "Clarksdale",
      "types": [ "locality", "political" ]
    }, {
      "long_name": "Coahoma",
      "short_name": "Coahoma",
      "types": [ "administrative_area_level_2", "political" ]
    }, {
      "long_name": "Mississippi",
      "short_name": "MS",
      "types": [ "administrative_area_level_1", "political" ]
    }, {
      "long_name": "United States",
      "short_name": "US",
      "types": [ "country", "political" ]
    } ],
    "geometry": {
      "location": {
        "lat": 34.2001086,
        "lng": -90.5709323
      },
      "location_type": "APPROXIMATE",
      "viewport": {
        "southwest": {
          "lat": 34.1631863,
          "lng": -90.6349620
        },
        "northeast": {
          "lat": 34.2370147,
          "lng": -90.5069026
        }
      },
      "bounds": {
        "southwest": {
          "lat": 34.1576410,
          "lng": -90.6161279
        },
        "northeast": {
          "lat": 34.2336820,
          "lng": -90.5270309
        }
      }
    }
  } ]
}
