{
  "status": "OK",
  "results": [ {
    "types": [ "locality", "political" ],
    "formatted_address": "Clinton, MS, USA",
    "address_components": [ {
      "long_name": "Clinton",
      "short_name": "Clinton",
      "types": [ "locality", "political" ]
    }, {
      "long_name": "Hinds",
      "short_name": "Hinds",
      "types": [ "administrative_area_level_2", "political" ]
    }, {
      "long_name": "Mississippi",
      "short_name": "MS",
      "types": [ "administrative_area_level_1", "political" ]
    }, {
      "long_name": "United States",
      "short_name": "US",
      "types": [ "country", "political" ]
    } ],
    "geometry": {
      "location": {
        "lat": 32.3415342,
        "lng": -90.3217585
      },
      "location_type": "APPROXIMATE",
      "viewport": {
        "southwest": {
          "lat": 32.3038180,
          "lng": -90.3857882
        },
        "northeast": {
          "lat": 32.3792347,
          "lng": -90.2577288
        }
      },
      "bounds": {
        "southwest": {
          "lat": 32.2933460,
          "lng": -90.3994649
        },
        "northeast": {
          "lat": 32.4006600,
          "lng": -90.2748419
        }
      }
    }
  } ]
}
