{
  "status": "OK",
  "results": [ {
    "types": [ "locality", "political" ],
    "formatted_address": "Corinth, MS, USA",
    "address_components": [ {
      "long_name": "Corinth",
      "short_name": "Corinth",
      "types": [ "locality", "political" ]
    }, {
      "long_name": "Alcorn",
      "short_name": "Alcorn",
      "types": [ "administrative_area_level_2", "political" ]
    }, {
      "long_name": "Mississippi",
      "short_name": "MS",
      "types": [ "administrative_area_level_1", "political" ]
    }, {
      "long_name": "United States",
      "short_name": "US",
      "types": [ "country", "political" ]
    } ],
    "geometry": {
      "location": {
        "lat": 34.9342548,
        "lng": -88.5222702
      },
      "location_type": "APPROXIMATE",
      "viewport": {
        "southwest": {
          "lat": 34.8976569,
          "lng": -88.5862999
        },
        "northeast": {
          "lat": 34.9708363,
          "lng": -88.4582405
        }
      },
      "bounds": {
        "southwest": {
          "lat": 34.8908850,
          "lng": -88.5767650
        },
        "northeast": {
          "lat": 34.9960340,
          "lng": -88.4603789
        }
      }
    }
  } ]
}
