{
  "status": "OK",
  "results": [ {
    "types": [ "locality", "political" ],
    "formatted_address": "Eupora, MS, USA",
    "address_components": [ {
      "long_name": "Eupora",
      "short_name": "Eupora",
      "types": [ "locality", "political" ]
    }, {
      "long_name": "Webster",
      "short_name": "Webster",
      "types": [ "administrative_area_level_2", "political" ]
    }, {
      "long_name": "Mississippi",
      "short_name": "MS",
      "types": [ "administrative_area_level_1", "political" ]
    }, {
      "long_name": "United States",
      "short_name": "US",
      "types": [ "country", "political" ]
    } ],
    "geometry": {
      "location": {
        "lat": 33.5406769,
        "lng": -89.2670124
      },
      "location_type": "APPROXIMATE",
      "viewport": {
        "southwest": {
          "lat": 33.5220747,
          "lng": -89.2990272
        },
        "northeast": {
          "lat": 33.5592751,
          "lng": -89.2349976
        }
      },
      "bounds": {
        "southwest": {
          "lat": 33.5228539,
          "lng": -89.2939600
        },
        "northeast": {
          "lat": 33.5698370,
          "lng": -89.2512990
        }
      }
    }
  } ]
}
