{
  "status": "OK",
  "results": [ {
    "types": [ "locality", "political" ],
    "formatted_address": "Flowood, MS, USA",
    "address_components": [ {
      "long_name": "Flowood",
      "short_name": "Flowood",
      "types": [ "locality", "political" ]
    }, {
      "long_name": "Rankin",
      "short_name": "Rankin",
      "types": [ "administrative_area_level_2", "political" ]
    }, {
      "long_name": "Mississippi",
      "short_name": "MS",
      "types": [ "administrative_area_level_1", "political" ]
    }, {
      "long_name": "United States",
      "short_name": "US",
      "types": [ "country", "political" ]
    } ],
    "geometry": {
      "location": {
        "lat": 32.3095903,
        "lng": -90.1389757
      },
      "location_type": "APPROXIMATE",
      "viewport": {
        "southwest": {
          "lat": 32.2341155,
          "lng": -90.2670351
        },
        "northeast": {
          "lat": 32.3850023,
          "lng": -90.0109163
        }
      },
      "bounds": {
        "southwest": {
          "lat": 32.2782970,
          "lng": -90.1793869
        },
        "northeast": {
          "lat": 32.3677780,
          "lng": -89.9845929
        }
      }
    }
  } ]
}
