{
  "status": "OK",
  "results": [ {
    "types": [ "locality", "political" ],
    "formatted_address": "Fulton, MS, USA",
    "address_components": [ {
      "long_name": "Fulton",
      "short_name": "Fulton",
      "types": [ "locality", "political" ]
    }, {
      "long_name": "Itawamba",
      "short_name": "Itawamba",
      "types": [ "administrative_area_level_2", "political" ]
    }, {
      "long_name": "Mississippi",
      "short_name": "MS",
      "types": [ "administrative_area_level_1", "political" ]
    }, {
      "long_name": "United States",
      "short_name": "US",
      "types": [ "country", "political" ]
    } ],
    "geometry": {
      "location": {
        "lat": 34.2739933,
        "lng": -88.4092133
      },
      "location_type": "APPROXIMATE",
      "viewport": {
        "southwest": {
          "lat": 34.2371034,
          "lng": -88.4732430
        },
        "northeast": {
          "lat": 34.3108670,
          "lng": -88.3451836
        }
      },
      "bounds": {
        "southwest": {
          "lat": 34.2290580,
          "lng": -88.4260690
        },
        "northeast": {
          "lat": 34.2986930,
          "lng": -88.3683580
        }
      }
    }
  } ]
}
