{
  "status": "OK",
  "results": [ {
    "types": [ "locality", "political" ],
    "formatted_address": "Gloster, MS, USA",
    "address_components": [ {
      "long_name": "Gloster",
      "short_name": "Gloster",
      "types": [ "locality", "political" ]
    }, {
      "long_name": "Amite",
      "short_name": "Amite",
      "types": [ "administrative_area_level_2", "political" ]
    }, {
      "long_name": "Mississippi",
      "short_name": "MS",
      "types": [ "administrative_area_level_1", "political" ]
    }, {
      "long_name": "United States",
      "short_name": "US",
      "types": [ "country", "political" ]
    } ],
    "geometry": {
      "location": {
        "lat": 31.1973959,
        "lng": -91.0217703
      },
      "location_type": "APPROXIMATE",
      "viewport": {
        "southwest": {
          "lat": 31.1878510,
          "lng": -91.0377777
        },
        "northeast": {
          "lat": 31.2069398,
          "lng": -91.0057629
        }
      },
      "bounds": {
        "southwest": {
          "lat": 31.1804660,
          "lng": -91.0402599
        },
        "northeast": {
          "lat": 31.2063960,
          "lng": -90.9961639
        }
      }
    }
  } ]
}
