{
  "status": "OK",
  "results": [ {
    "types": [ "locality", "political" ],
    "formatted_address": "Horn Lake, MS, USA",
    "address_components": [ {
      "long_name": "Horn Lake",
      "short_name": "Horn Lake",
      "types": [ "locality", "political" ]
    }, {
      "long_name": "DeSoto",
      "short_name": "DeSoto",
      "types": [ "administrative_area_level_2", "political" ]
    }, {
      "long_name": "Mississippi",
      "short_name": "MS",
      "types": [ "administrative_area_level_1", "political" ]
    }, {
      "long_name": "United States",
      "short_name": "US",
      "types": [ "country", "political" ]
    } ],
    "geometry": {
      "location": {
        "lat": 34.9553719,
        "lng": -90.0348139
      },
      "location_type": "APPROXIMATE",
      "viewport": {
        "southwest": {
          "lat": 34.9187834,
          "lng": -90.0988436
        },
        "northeast": {
          "lat": 34.9919440,
          "lng": -89.9707842
        }
      },
      "bounds": {
        "southwest": {
          "lat": 34.9186360,
          "lng": -90.0965600
        },
        "northeast": {
          "lat": 34.9773299,
          "lng": -89.9973680
        }
      }
    }
  } ]
}
