{
  "status": "OK",
  "results": [ {
    "types": [ "locality", "political" ],
    "formatted_address": "Iuka, MS, USA",
    "address_components": [ {
      "long_name": "Iuka",
      "short_name": "Iuka",
      "types": [ "locality", "political" ]
    }, {
      "long_name": "Tishomingo",
      "short_name": "Tishomingo",
      "types": [ "administrative_area_level_2", "political" ]
    }, {
      "long_name": "Mississippi",
      "short_name": "MS",
      "types": [ "administrative_area_level_1", "political" ]
    }, {
      "long_name": "United States",
      "short_name": "US",
      "types": [ "country", "political" ]
    } ],
    "geometry": {
      "location": {
        "lat": 34.8117565,
        "lng": -88.1900415
      },
      "location_type": "APPROXIMATE",
      "viewport": {
        "southwest": {
          "lat": 34.7751041,
          "lng": -88.2540712
        },
        "northeast": {
          "lat": 34.8483926,
          "lng": -88.1260118
        }
      },
      "bounds": {
        "southwest": {
          "lat": 34.7780810,
          "lng": -88.2376440
        },
        "northeast": {
          "lat": 34.8412150,
          "lng": -88.1720890
        }
      }
    }
  } ]
}
