{
  "status": "OK",
  "results": [ {
    "types": [ "locality", "political" ],
    "formatted_address": "Leakesville, MS, USA",
    "address_components": [ {
      "long_name": "Leakesville",
      "short_name": "Leakesville",
      "types": [ "locality", "political" ]
    }, {
      "long_name": "Greene",
      "short_name": "Greene",
      "types": [ "administrative_area_level_2", "political" ]
    }, {
      "long_name": "Mississippi",
      "short_name": "MS",
      "types": [ "administrative_area_level_1", "political" ]
    }, {
      "long_name": "United States",
      "short_name": "US",
      "types": [ "country", "political" ]
    } ],
    "geometry": {
      "location": {
        "lat": 31.1557373,
        "lng": -88.5577993
      },
      "location_type": "APPROXIMATE",
      "viewport": {
        "southwest": {
          "lat": 31.1461882,
          "lng": -88.5738067
        },
        "northeast": {
          "lat": 31.1652854,
          "lng": -88.5417919
        }
      },
      "bounds": {
        "southwest": {
          "lat": 31.1427180,
          "lng": -88.5701529
        },
        "northeast": {
          "lat": 31.1658099,
          "lng": -88.5451219
        }
      }
    }
  } ]
}
