{
  "status": "OK",
  "results": [ {
    "types": [ "locality", "political" ],
    "formatted_address": "Macon, MS 39341, USA",
    "address_components": [ {
      "long_name": "Macon",
      "short_name": "Macon",
      "types": [ "locality", "political" ]
    }, {
      "long_name": "3",
      "short_name": "3",
      "types": [ "administrative_area_level_3", "political" ]
    }, {
      "long_name": "Noxubee",
      "short_name": "Noxubee",
      "types": [ "administrative_area_level_2", "political" ]
    }, {
      "long_name": "Mississippi",
      "short_name": "MS",
      "types": [ "administrative_area_level_1", "political" ]
    }, {
      "long_name": "United States",
      "short_name": "US",
      "types": [ "country", "political" ]
    }, {
      "long_name": "39341",
      "short_name": "39341",
      "types": [ "postal_code" ]
    } ],
    "geometry": {
      "location": {
        "lat": 33.1054039,
        "lng": -88.5608767
      },
      "location_type": "APPROXIMATE",
      "viewport": {
        "southwest": {
          "lat": 33.0867085,
          "lng": -88.5928915
        },
        "northeast": {
          "lat": 33.1240953,
          "lng": -88.5288619
        }
      },
      "bounds": {
        "southwest": {
          "lat": 33.0901820,
          "lng": -88.5728000
        },
        "northeast": {
          "lat": 33.1519690,
          "lng": -88.5451099
        }
      }
    }
  } ]
}
