{
  "status": "OK",
  "results": [ {
    "types": [ "locality", "political" ],
    "formatted_address": "Moss Point, MS, USA",
    "address_components": [ {
      "long_name": "Moss Point",
      "short_name": "Moss Point",
      "types": [ "locality", "political" ]
    }, {
      "long_name": "Jackson",
      "short_name": "Jackson",
      "types": [ "administrative_area_level_2", "political" ]
    }, {
      "long_name": "Mississippi",
      "short_name": "MS",
      "types": [ "administrative_area_level_1", "political" ]
    }, {
      "long_name": "United States",
      "short_name": "US",
      "types": [ "country", "political" ]
    } ],
    "geometry": {
      "location": {
        "lat": 30.4115881,
        "lng": -88.5344601
      },
      "location_type": "APPROXIMATE",
      "viewport": {
        "southwest": {
          "lat": 30.3730894,
          "lng": -88.5984898
        },
        "northeast": {
          "lat": 30.4500716,
          "lng": -88.4704304
        }
      },
      "bounds": {
        "southwest": {
          "lat": 30.3875890,
          "lng": -88.6030050
        },
        "northeast": {
          "lat": 30.4727600,
          "lng": -88.4743970
        }
      }
    }
  } ]
}
