{
  "status": "OK",
  "results": [ {
    "types": [ "locality", "political" ],
    "formatted_address": "Ocean Springs, MS, USA",
    "address_components": [ {
      "long_name": "Ocean Springs",
      "short_name": "Ocean Springs",
      "types": [ "locality", "political" ]
    }, {
      "long_name": "Jackson",
      "short_name": "Jackson",
      "types": [ "administrative_area_level_2", "political" ]
    }, {
      "long_name": "Mississippi",
      "short_name": "MS",
      "types": [ "administrative_area_level_1", "political" ]
    }, {
      "long_name": "United States",
      "short_name": "US",
      "types": [ "country", "political" ]
    } ],
    "geometry": {
      "location": {
        "lat": 30.4113097,
        "lng": -88.8278057
      },
      "location_type": "APPROXIMATE",
      "viewport": {
        "southwest": {
          "lat": 30.3728109,
          "lng": -88.8918354
        },
        "northeast": {
          "lat": 30.4497933,
          "lng": -88.7637760
        }
      },
      "bounds": {
        "southwest": {
          "lat": 30.3817990,
          "lng": -88.8618429
        },
        "northeast": {
          "lat": 30.4280140,
          "lng": -88.7194859
        }
      }
    }
  } ]
}
