{
  "status": "OK",
  "results": [ {
    "types": [ "locality", "political" ],
    "formatted_address": "Oxford, MS, USA",
    "address_components": [ {
      "long_name": "Oxford",
      "short_name": "Oxford",
      "types": [ "locality", "political" ]
    }, {
      "long_name": "Lafayette",
      "short_name": "Lafayette",
      "types": [ "administrative_area_level_2", "political" ]
    }, {
      "long_name": "Mississippi",
      "short_name": "MS",
      "types": [ "administrative_area_level_1", "political" ]
    }, {
      "long_name": "United States",
      "short_name": "US",
      "types": [ "country", "political" ]
    } ],
    "geometry": {
      "location": {
        "lat": 34.3664951,
        "lng": -89.5192484
      },
      "location_type": "APPROXIMATE",
      "viewport": {
        "southwest": {
          "lat": 34.3296458,
          "lng": -89.5832781
        },
        "northeast": {
          "lat": 34.4033282,
          "lng": -89.4552187
        }
      },
      "bounds": {
        "southwest": {
          "lat": 34.3214470,
          "lng": -89.5715180
        },
        "northeast": {
          "lat": 34.3985610,
          "lng": -89.4752570
        }
      }
    }
  } ]
}
