{
  "status": "OK",
  "results": [ {
    "types": [ "locality", "political" ],
    "formatted_address": "Philadelphia, MS, USA",
    "address_components": [ {
      "long_name": "Philadelphia",
      "short_name": "Philadelphia",
      "types": [ "locality", "political" ]
    }, {
      "long_name": "Neshoba",
      "short_name": "Neshoba",
      "types": [ "administrative_area_level_2", "political" ]
    }, {
      "long_name": "Mississippi",
      "short_name": "MS",
      "types": [ "administrative_area_level_1", "political" ]
    }, {
      "long_name": "United States",
      "short_name": "US",
      "types": [ "country", "political" ]
    } ],
    "geometry": {
      "location": {
        "lat": 32.7715227,
        "lng": -89.1167275
      },
      "location_type": "APPROXIMATE",
      "viewport": {
        "southwest": {
          "lat": 32.7339866,
          "lng": -89.1807572
        },
        "northeast": {
          "lat": 32.8090429,
          "lng": -89.0526978
        }
      },
      "bounds": {
        "southwest": {
          "lat": 32.7485990,
          "lng": -89.1893429
        },
        "northeast": {
          "lat": 32.8126449,
          "lng": -89.0772210
        }
      }
    }
  } ]
}
