{
  "status": "OK",
  "results": [ {
    "types": [ "locality", "political" ],
    "formatted_address": "Port Gibson, MS, USA",
    "address_components": [ {
      "long_name": "Port Gibson",
      "short_name": "Port Gibson",
      "types": [ "locality", "political" ]
    }, {
      "long_name": "Claiborne",
      "short_name": "Claiborne",
      "types": [ "administrative_area_level_2", "political" ]
    }, {
      "long_name": "Mississippi",
      "short_name": "MS",
      "types": [ "administrative_area_level_1", "political" ]
    }, {
      "long_name": "United States",
      "short_name": "US",
      "types": [ "country", "political" ]
    } ],
    "geometry": {
      "location": {
        "lat": 31.9609914,
        "lng": -90.9839943
      },
      "location_type": "APPROXIMATE",
      "viewport": {
        "southwest": {
          "lat": 31.9515244,
          "lng": -91.0000017
        },
        "northeast": {
          "lat": 31.9704574,
          "lng": -90.9679869
        }
      },
      "bounds": {
        "southwest": {
          "lat": 31.9425420,
          "lng": -90.9963940
        },
        "northeast": {
          "lat": 31.9745820,
          "lng": -90.9700680
        }
      }
    }
  } ]
}
