{
  "status": "OK",
  "results": [ {
    "types": [ "locality", "political" ],
    "formatted_address": "Shaw, MS 38773, USA",
    "address_components": [ {
      "long_name": "Shaw",
      "short_name": "Shaw",
      "types": [ "locality", "political" ]
    }, {
      "long_name": "5",
      "short_name": "5",
      "types": [ "administrative_area_level_3", "political" ]
    }, {
      "long_name": "Bolivar",
      "short_name": "Bolivar",
      "types": [ "administrative_area_level_2", "political" ]
    }, {
      "long_name": "Mississippi",
      "short_name": "MS",
      "types": [ "administrative_area_level_1", "political" ]
    }, {
      "long_name": "United States",
      "short_name": "US",
      "types": [ "country", "political" ]
    }, {
      "long_name": "38773",
      "short_name": "38773",
      "types": [ "postal_code" ]
    } ],
    "geometry": {
      "location": {
        "lat": 33.6017815,
        "lng": -90.7737075
      },
      "location_type": "APPROXIMATE",
      "viewport": {
        "southwest": {
          "lat": 33.5924875,
          "lng": -90.7897149
        },
        "northeast": {
          "lat": 33.6110745,
          "lng": -90.7577001
        }
      },
      "bounds": {
        "southwest": {
          "lat": 33.5927669,
          "lng": -90.7813149
        },
        "northeast": {
          "lat": 33.6108160,
          "lng": -90.7608170
        }
      }
    }
  } ]
}
