{
  "status": "OK",
  "results": [ {
    "types": [ "locality", "political" ],
    "formatted_address": "Belton, SC, USA",
    "address_components": [ {
      "long_name": "Belton",
      "short_name": "Belton",
      "types": [ "locality", "political" ]
    }, {
      "long_name": "Anderson",
      "short_name": "Anderson",
      "types": [ "administrative_area_level_2", "political" ]
    }, {
      "long_name": "South Carolina",
      "short_name": "SC",
      "types": [ "administrative_area_level_1", "political" ]
    }, {
      "long_name": "United States",
      "short_name": "US",
      "types": [ "country", "political" ]
    } ],
    "geometry": {
      "location": {
        "lat": 34.5228881,
        "lng": -82.4942948
      },
      "location_type": "APPROXIMATE",
      "viewport": {
        "southwest": {
          "lat": 34.5044999,
          "lng": -82.5263096
        },
        "northeast": {
          "lat": 34.5412722,
          "lng": -82.4622800
        }
      },
      "bounds": {
        "southwest": {
          "lat": 34.5078720,
          "lng": -82.5211889
        },
        "northeast": {
          "lat": 34.5452639,
          "lng": -82.4717560
        }
      }
    }
  } ]
}
