{
  "status": "OK",
  "results": [ {
    "types": [ "locality", "political" ],
    "formatted_address": "Bluffton, SC, USA",
    "address_components": [ {
      "long_name": "Bluffton",
      "short_name": "Bluffton",
      "types": [ "locality", "political" ]
    }, {
      "long_name": "Beaufort",
      "short_name": "Beaufort",
      "types": [ "administrative_area_level_2", "political" ]
    }, {
      "long_name": "South Carolina",
      "short_name": "SC",
      "types": [ "administrative_area_level_1", "political" ]
    }, {
      "long_name": "United States",
      "short_name": "US",
      "types": [ "country", "political" ]
    } ],
    "geometry": {
      "location": {
        "lat": 32.2371465,
        "lng": -80.8603868
      },
      "location_type": "APPROXIMATE",
      "viewport": {
        "southwest": {
          "lat": 32.1616115,
          "lng": -80.9884462
        },
        "northeast": {
          "lat": 32.3126188,
          "lng": -80.7323274
        }
      },
      "bounds": {
        "southwest": {
          "lat": 32.1262410,
          "lng": -81.0141529
        },
        "northeast": {
          "lat": 32.2909680,
          "lng": -80.8483760
        }
      }
    }
  } ]
}
