{
  "status": "OK",
  "results": [ {
    "types": [ "locality", "political" ],
    "formatted_address": "Branchville, SC, USA",
    "address_components": [ {
      "long_name": "Branchville",
      "short_name": "Branchville",
      "types": [ "locality", "political" ]
    }, {
      "long_name": "Orangeburg",
      "short_name": "Orangeburg",
      "types": [ "administrative_area_level_2", "political" ]
    }, {
      "long_name": "South Carolina",
      "short_name": "SC",
      "types": [ "administrative_area_level_1", "political" ]
    }, {
      "long_name": "United States",
      "short_name": "US",
      "types": [ "country", "political" ]
    } ],
    "geometry": {
      "location": {
        "lat": 33.2512710,
        "lng": -80.8156518
      },
      "location_type": "APPROXIMATE",
      "viewport": {
        "southwest": {
          "lat": 33.2419394,
          "lng": -80.8316592
        },
        "northeast": {
          "lat": 33.2606016,
          "lng": -80.7996444
        }
      },
      "bounds": {
        "southwest": {
          "lat": 33.2367850,
          "lng": -80.8335539
        },
        "northeast": {
          "lat": 33.2661570,
          "lng": -80.7978490
        }
      }
    }
  } ]
}
