{
  "status": "OK",
  "results": [ {
    "types": [ "locality", "political" ],
    "formatted_address": "Coward, SC, USA",
    "address_components": [ {
      "long_name": "Coward",
      "short_name": "Coward",
      "types": [ "locality", "political" ]
    }, {
      "long_name": "Florence",
      "short_name": "Florence",
      "types": [ "administrative_area_level_2", "political" ]
    }, {
      "long_name": "South Carolina",
      "short_name": "SC",
      "types": [ "administrative_area_level_1", "political" ]
    }, {
      "long_name": "United States",
      "short_name": "US",
      "types": [ "country", "political" ]
    } ],
    "geometry": {
      "location": {
        "lat": 33.9732170,
        "lng": -79.7470111
      },
      "location_type": "APPROXIMATE",
      "viewport": {
        "southwest": {
          "lat": 33.9547084,
          "lng": -79.7790259
        },
        "northeast": {
          "lat": 33.9917216,
          "lng": -79.7149963
        }
      },
      "bounds": {
        "southwest": {
          "lat": 33.9563610,
          "lng": -79.7668030
        },
        "northeast": {
          "lat": 33.9983700,
          "lng": -79.7310190
        }
      }
    }
  } ]
}
