{
  "status": "OK",
  "results": [ {
    "types": [ "locality", "political" ],
    "formatted_address": "Duncan, SC, USA",
    "address_components": [ {
      "long_name": "Duncan",
      "short_name": "Duncan",
      "types": [ "locality", "political" ]
    }, {
      "long_name": "Spartanburg",
      "short_name": "Spartanburg",
      "types": [ "administrative_area_level_2", "political" ]
    }, {
      "long_name": "South Carolina",
      "short_name": "SC",
      "types": [ "administrative_area_level_1", "political" ]
    }, {
      "long_name": "United States",
      "short_name": "US",
      "types": [ "country", "political" ]
    } ],
    "geometry": {
      "location": {
        "lat": 34.9378962,
        "lng": -82.1451096
      },
      "location_type": "APPROXIMATE",
      "viewport": {
        "southwest": {
          "lat": 34.9013000,
          "lng": -82.2091393
        },
        "northeast": {
          "lat": 34.9744761,
          "lng": -82.0810799
        }
      },
      "bounds": {
        "southwest": {
          "lat": 34.9110410,
          "lng": -82.1684690
        },
        "northeast": {
          "lat": 34.9740040,
          "lng": -82.1008049
        }
      }
    }
  } ]
}
