{
  "status": "OK",
  "results": [ {
    "types": [ "locality", "political" ],
    "formatted_address": "Easley, SC, USA",
    "address_components": [ {
      "long_name": "Easley",
      "short_name": "Easley",
      "types": [ "locality", "political" ]
    }, {
      "long_name": "Pickens",
      "short_name": "Pickens",
      "types": [ "administrative_area_level_2", "political" ]
    }, {
      "long_name": "South Carolina",
      "short_name": "SC",
      "types": [ "administrative_area_level_1", "political" ]
    }, {
      "long_name": "United States",
      "short_name": "US",
      "types": [ "country", "political" ]
    } ],
    "geometry": {
      "location": {
        "lat": 34.8298380,
        "lng": -82.6015206
      },
      "location_type": "APPROXIMATE",
      "viewport": {
        "southwest": {
          "lat": 34.7931936,
          "lng": -82.6655503
        },
        "northeast": {
          "lat": 34.8664661,
          "lng": -82.5374909
        }
      },
      "bounds": {
        "southwest": {
          "lat": 34.7888890,
          "lng": -82.6392110
        },
        "northeast": {
          "lat": 34.8533550,
          "lng": -82.5278390
        }
      }
    }
  } ]
}
