{
  "status": "OK",
  "results": [ {
    "types": [ "locality", "political" ],
    "formatted_address": "Ehrhardt, SC, USA",
    "address_components": [ {
      "long_name": "Ehrhardt",
      "short_name": "Ehrhardt",
      "types": [ "locality", "political" ]
    }, {
      "long_name": "Bamberg",
      "short_name": "Bamberg",
      "types": [ "administrative_area_level_2", "political" ]
    }, {
      "long_name": "South Carolina",
      "short_name": "SC",
      "types": [ "administrative_area_level_1", "political" ]
    }, {
      "long_name": "United States",
      "short_name": "US",
      "types": [ "country", "political" ]
    } ],
    "geometry": {
      "location": {
        "lat": 33.0968264,
        "lng": -81.0142681
      },
      "location_type": "APPROXIMATE",
      "viewport": {
        "southwest": {
          "lat": 33.0874783,
          "lng": -81.0302755
        },
        "northeast": {
          "lat": 33.1061735,
          "lng": -80.9982607
        }
      },
      "bounds": {
        "southwest": {
          "lat": 33.0842050,
          "lng": -81.0318760
        },
        "northeast": {
          "lat": 33.1129419,
          "lng": -80.9968959
        }
      }
    }
  } ]
}
