{
  "status": "OK",
  "results": [ {
    "types": [ "locality", "political" ],
    "formatted_address": "Forest Acres, SC, USA",
    "address_components": [ {
      "long_name": "Forest Acres",
      "short_name": "Forest Acres",
      "types": [ "locality", "political" ]
    }, {
      "long_name": "Columbia",
      "short_name": "Columbia",
      "types": [ "administrative_area_level_3", "political" ]
    }, {
      "long_name": "Richland",
      "short_name": "Richland",
      "types": [ "administrative_area_level_2", "political" ]
    }, {
      "long_name": "South Carolina",
      "short_name": "SC",
      "types": [ "administrative_area_level_1", "political" ]
    }, {
      "long_name": "United States",
      "short_name": "US",
      "types": [ "country", "political" ]
    } ],
    "geometry": {
      "location": {
        "lat": 34.0193220,
        "lng": -80.9898128
      },
      "location_type": "APPROXIMATE",
      "viewport": {
        "southwest": {
          "lat": 33.9823208,
          "lng": -81.0538425
        },
        "northeast": {
          "lat": 34.0563071,
          "lng": -80.9257831
        }
      },
      "bounds": {
        "southwest": {
          "lat": 34.0095079,
          "lng": -80.9960519
        },
        "northeast": {
          "lat": 34.0813519,
          "lng": -80.9385640
        }
      }
    }
  } ]
}
