{
  "status": "OK",
  "results": [ {
    "types": [ "locality", "political" ],
    "formatted_address": "Goose Creek, SC, USA",
    "address_components": [ {
      "long_name": "Goose Creek",
      "short_name": "Goose Creek",
      "types": [ "locality", "political" ]
    }, {
      "long_name": "Berkeley",
      "short_name": "Berkeley",
      "types": [ "administrative_area_level_2", "political" ]
    }, {
      "long_name": "South Carolina",
      "short_name": "SC",
      "types": [ "administrative_area_level_1", "political" ]
    }, {
      "long_name": "United States",
      "short_name": "US",
      "types": [ "country", "political" ]
    } ],
    "geometry": {
      "location": {
        "lat": 32.9810059,
        "lng": -80.0325867
      },
      "location_type": "APPROXIMATE",
      "viewport": {
        "southwest": {
          "lat": 32.9060950,
          "lng": -80.1606461
        },
        "northeast": {
          "lat": 33.0558533,
          "lng": -79.9045273
        }
      },
      "bounds": {
        "southwest": {
          "lat": 32.9101260,
          "lng": -80.1440679
        },
        "northeast": {
          "lat": 33.0764820,
          "lng": -79.9207660
        }
      }
    }
  } ]
}
