{
  "status": "OK",
  "results": [ {
    "types": [ "locality", "political" ],
    "formatted_address": "Hemingway, SC, USA",
    "address_components": [ {
      "long_name": "Hemingway",
      "short_name": "Hemingway",
      "types": [ "locality", "political" ]
    }, {
      "long_name": "Williamsburg",
      "short_name": "Williamsburg",
      "types": [ "administrative_area_level_2", "political" ]
    }, {
      "long_name": "South Carolina",
      "short_name": "SC",
      "types": [ "administrative_area_level_1", "political" ]
    }, {
      "long_name": "United States",
      "short_name": "US",
      "types": [ "country", "political" ]
    } ],
    "geometry": {
      "location": {
        "lat": 33.7537774,
        "lng": -79.4475566
      },
      "location_type": "APPROXIMATE",
      "viewport": {
        "southwest": {
          "lat": 33.7444998,
          "lng": -79.4635640
        },
        "northeast": {
          "lat": 33.7630540,
          "lng": -79.4315492
        }
      },
      "bounds": {
        "southwest": {
          "lat": 33.7458839,
          "lng": -79.4579260
        },
        "northeast": {
          "lat": 33.7630960,
          "lng": -79.4342400
        }
      }
    }
  } ]
}
