{
  "status": "OK",
  "results": [ {
    "types": [ "locality", "political" ],
    "formatted_address": "Irmo, SC, USA",
    "address_components": [ {
      "long_name": "Irmo",
      "short_name": "Irmo",
      "types": [ "locality", "political" ]
    }, {
      "long_name": "Richland",
      "short_name": "Richland",
      "types": [ "administrative_area_level_2", "political" ]
    }, {
      "long_name": "South Carolina",
      "short_name": "SC",
      "types": [ "administrative_area_level_1", "political" ]
    }, {
      "long_name": "United States",
      "short_name": "US",
      "types": [ "country", "political" ]
    } ],
    "geometry": {
      "location": {
        "lat": 34.0859829,
        "lng": -81.1831513
      },
      "location_type": "APPROXIMATE",
      "viewport": {
        "southwest": {
          "lat": 34.0490108,
          "lng": -81.2471810
        },
        "northeast": {
          "lat": 34.1229389,
          "lng": -81.1191216
        }
      },
      "bounds": {
        "southwest": {
          "lat": 34.0472070,
          "lng": -81.2263550
        },
        "northeast": {
          "lat": 34.1296180,
          "lng": -81.1513629
        }
      }
    }
  } ]
}
