{
  "status": "OK",
  "results": [ {
    "types": [ "locality", "political" ],
    "formatted_address": "Isle of Palms, SC, USA",
    "address_components": [ {
      "long_name": "Isle of Palms",
      "short_name": "Isle of Palms",
      "types": [ "locality", "political" ]
    }, {
      "long_name": "Mount Pleasant",
      "short_name": "Mount Pleasant",
      "types": [ "administrative_area_level_3", "political" ]
    }, {
      "long_name": "Charleston",
      "short_name": "Charleston",
      "types": [ "administrative_area_level_2", "political" ]
    }, {
      "long_name": "South Carolina",
      "short_name": "SC",
      "types": [ "administrative_area_level_1", "political" ]
    }, {
      "long_name": "United States",
      "short_name": "US",
      "types": [ "country", "political" ]
    } ],
    "geometry": {
      "location": {
        "lat": 32.7987470,
        "lng": -79.7544860
      },
      "location_type": "APPROXIMATE",
      "viewport": {
        "southwest": {
          "lat": 32.7612224,
          "lng": -79.8185157
        },
        "northeast": {
          "lat": 32.8362557,
          "lng": -79.6904563
        }
      },
      "bounds": {
        "southwest": {
          "lat": 32.7732320,
          "lng": -79.8125570
        },
        "northeast": {
          "lat": 32.8286120,
          "lng": -79.7155720
        }
      }
    }
  } ]
}
