{
  "status": "OK",
  "results": [ {
    "types": [ "locality", "political" ],
    "formatted_address": "Iva, SC, USA",
    "address_components": [ {
      "long_name": "Iva",
      "short_name": "Iva",
      "types": [ "locality", "political" ]
    }, {
      "long_name": "Anderson",
      "short_name": "Anderson",
      "types": [ "administrative_area_level_2", "political" ]
    }, {
      "long_name": "South Carolina",
      "short_name": "SC",
      "types": [ "administrative_area_level_1", "political" ]
    }, {
      "long_name": "United States",
      "short_name": "US",
      "types": [ "country", "political" ]
    } ],
    "geometry": {
      "location": {
        "lat": 34.3064966,
        "lng": -82.6637430
      },
      "location_type": "APPROXIMATE",
      "viewport": {
        "southwest": {
          "lat": 34.2972792,
          "lng": -82.6797504
        },
        "northeast": {
          "lat": 34.3157130,
          "lng": -82.6477356
        }
      },
      "bounds": {
        "southwest": {
          "lat": 34.2986060,
          "lng": -82.6721460
        },
        "northeast": {
          "lat": 34.3170260,
          "lng": -82.6549409
        }
      }
    }
  } ]
}
