{
  "status": "OK",
  "results": [ {
    "types": [ "locality", "political" ],
    "formatted_address": "Landrum, SC, USA",
    "address_components": [ {
      "long_name": "Landrum",
      "short_name": "Landrum",
      "types": [ "locality", "political" ]
    }, {
      "long_name": "Spartanburg",
      "short_name": "Spartanburg",
      "types": [ "administrative_area_level_2", "political" ]
    }, {
      "long_name": "South Carolina",
      "short_name": "SC",
      "types": [ "administrative_area_level_1", "political" ]
    }, {
      "long_name": "United States",
      "short_name": "US",
      "types": [ "country", "political" ]
    } ],
    "geometry": {
      "location": {
        "lat": 35.1751148,
        "lng": -82.1892795
      },
      "location_type": "APPROXIMATE",
      "viewport": {
        "southwest": {
          "lat": 35.1568718,
          "lng": -82.2212943
        },
        "northeast": {
          "lat": 35.1933537,
          "lng": -82.1572647
        }
      },
      "bounds": {
        "southwest": {
          "lat": 35.1607540,
          "lng": -82.2067520
        },
        "northeast": {
          "lat": 35.1871889,
          "lng": -82.1585130
        }
      }
    }
  } ]
}
