{
  "status": "OK",
  "results": [ {
    "types": [ "locality", "political" ],
    "formatted_address": "Lincolnville, SC, USA",
    "address_components": [ {
      "long_name": "Lincolnville",
      "short_name": "Lincolnville",
      "types": [ "locality", "political" ]
    }, {
      "long_name": "Charleston",
      "short_name": "Charleston",
      "types": [ "administrative_area_level_2", "political" ]
    }, {
      "long_name": "South Carolina",
      "short_name": "SC",
      "types": [ "administrative_area_level_1", "political" ]
    }, {
      "long_name": "United States",
      "short_name": "US",
      "types": [ "country", "political" ]
    } ],
    "geometry": {
      "location": {
        "lat": 33.0068378,
        "lng": -80.1553696
      },
      "location_type": "APPROXIMATE",
      "viewport": {
        "southwest": {
          "lat": 32.9974802,
          "lng": -80.1713770
        },
        "northeast": {
          "lat": 33.0161945,
          "lng": -80.1393622
        }
      },
      "bounds": {
        "southwest": {
          "lat": 32.9952089,
          "lng": -80.1680410
        },
        "northeast": {
          "lat": 33.0190700,
          "lng": -80.1417489
        }
      }
    }
  } ]
}
