{
  "status": "OK",
  "results": [ {
    "types": [ "locality", "political" ],
    "formatted_address": "Lyman, SC, USA",
    "address_components": [ {
      "long_name": "Lyman",
      "short_name": "Lyman",
      "types": [ "locality", "political" ]
    }, {
      "long_name": "Wellford",
      "short_name": "Wellford",
      "types": [ "administrative_area_level_3", "political" ]
    }, {
      "long_name": "Spartanburg",
      "short_name": "Spartanburg",
      "types": [ "administrative_area_level_2", "political" ]
    }, {
      "long_name": "South Carolina",
      "short_name": "SC",
      "types": [ "administrative_area_level_1", "political" ]
    }, {
      "long_name": "United States",
      "short_name": "US",
      "types": [ "country", "political" ]
    } ],
    "geometry": {
      "location": {
        "lat": 34.9481741,
        "lng": -82.1273312
      },
      "location_type": "APPROXIMATE",
      "viewport": {
        "southwest": {
          "lat": 34.9298803,
          "lng": -82.1593460
        },
        "northeast": {
          "lat": 34.9664638,
          "lng": -82.0953164
        }
      },
      "bounds": {
        "southwest": {
          "lat": 34.9276370,
          "lng": -82.1683170
        },
        "northeast": {
          "lat": 34.9809769,
          "lng": -82.0821630
        }
      }
    }
  } ]
}
