{
  "status": "OK",
  "results": [ {
    "types": [ "locality", "political" ],
    "formatted_address": "Mullins, SC, USA",
    "address_components": [ {
      "long_name": "Mullins",
      "short_name": "Mullins",
      "types": [ "locality", "political" ]
    }, {
      "long_name": "Marion",
      "short_name": "Marion",
      "types": [ "administrative_area_level_2", "political" ]
    }, {
      "long_name": "South Carolina",
      "short_name": "SC",
      "types": [ "administrative_area_level_1", "political" ]
    }, {
      "long_name": "United States",
      "short_name": "US",
      "types": [ "country", "political" ]
    } ],
    "geometry": {
      "location": {
        "lat": 34.2057166,
        "lng": -79.2544902
      },
      "location_type": "APPROXIMATE",
      "viewport": {
        "southwest": {
          "lat": 34.1872587,
          "lng": -79.2865050
        },
        "northeast": {
          "lat": 34.2241704,
          "lng": -79.2224754
        }
      },
      "bounds": {
        "southwest": {
          "lat": 34.1848010,
          "lng": -79.2683210
        },
        "northeast": {
          "lat": 34.2241209,
          "lng": -79.2349519
        }
      }
    }
  } ]
}
