{
  "status": "OK",
  "results": [ {
    "types": [ "locality", "political" ],
    "formatted_address": "New Ellenton, SC, USA",
    "address_components": [ {
      "long_name": "New Ellenton",
      "short_name": "New Ellenton",
      "types": [ "locality", "political" ]
    }, {
      "long_name": "Aiken",
      "short_name": "Aiken",
      "types": [ "administrative_area_level_2", "political" ]
    }, {
      "long_name": "South Carolina",
      "short_name": "SC",
      "types": [ "administrative_area_level_1", "political" ]
    }, {
      "long_name": "United States",
      "short_name": "US",
      "types": [ "country", "political" ]
    } ],
    "geometry": {
      "location": {
        "lat": 33.4215310,
        "lng": -81.6856654
      },
      "location_type": "APPROXIMATE",
      "viewport": {
        "southwest": {
          "lat": 33.3842714,
          "lng": -81.7496951
        },
        "northeast": {
          "lat": 33.4587747,
          "lng": -81.6216357
        }
      },
      "bounds": {
        "southwest": {
          "lat": 33.3803440,
          "lng": -81.7048540
        },
        "northeast": {
          "lat": 33.4526280,
          "lng": -81.6263939
        }
      }
    }
  } ]
}
