{
  "status": "OK",
  "results": [ {
    "types": [ "locality", "political" ],
    "formatted_address": "Pawleys Island, SC, USA",
    "address_components": [ {
      "long_name": "Pawleys Island",
      "short_name": "Pawleys Island",
      "types": [ "locality", "political" ]
    }, {
      "long_name": "Georgetown",
      "short_name": "Georgetown",
      "types": [ "administrative_area_level_2", "political" ]
    }, {
      "long_name": "South Carolina",
      "short_name": "SC",
      "types": [ "administrative_area_level_1", "political" ]
    }, {
      "long_name": "United States",
      "short_name": "US",
      "types": [ "country", "political" ]
    } ],
    "geometry": {
      "location": {
        "lat": 33.4332236,
        "lng": -79.1214313
      },
      "location_type": "APPROXIMATE",
      "viewport": {
        "southwest": {
          "lat": 33.4145983,
          "lng": -79.1534461
        },
        "northeast": {
          "lat": 33.4518449,
          "lng": -79.0894165
        }
      },
      "bounds": {
        "southwest": {
          "lat": 33.3986630,
          "lng": -79.1394890
        },
        "northeast": {
          "lat": 33.4480930,
          "lng": -79.1086550
        }
      }
    }
  } ]
}
