{
  "status": "OK",
  "results": [ {
    "types": [ "locality", "political" ],
    "formatted_address": "Pine Ridge, SC, USA",
    "address_components": [ {
      "long_name": "Pine Ridge",
      "short_name": "Pine Ridge",
      "types": [ "locality", "political" ]
    }, {
      "long_name": "West Columbia-Cayce",
      "short_name": "West Columbia-Cayce",
      "types": [ "administrative_area_level_3", "political" ]
    }, {
      "long_name": "Lexington",
      "short_name": "Lexington",
      "types": [ "administrative_area_level_2", "political" ]
    }, {
      "long_name": "South Carolina",
      "short_name": "SC",
      "types": [ "administrative_area_level_1", "political" ]
    }, {
      "long_name": "United States",
      "short_name": "US",
      "types": [ "country", "political" ]
    } ],
    "geometry": {
      "location": {
        "lat": 33.9104304,
        "lng": -81.1045395
      },
      "location_type": "APPROXIMATE",
      "viewport": {
        "southwest": {
          "lat": 33.8919081,
          "lng": -81.1365543
        },
        "northeast": {
          "lat": 33.9289487,
          "lng": -81.0725247
        }
      },
      "bounds": {
        "southwest": {
          "lat": 33.8959210,
          "lng": -81.1208990
        },
        "northeast": {
          "lat": 33.9282660,
          "lng": -81.0766950
        }
      }
    }
  } ]
}
