{
  "status": "OK",
  "results": [ {
    "types": [ "locality", "political" ],
    "formatted_address": "Prosperity, SC, USA",
    "address_components": [ {
      "long_name": "Prosperity",
      "short_name": "Prosperity",
      "types": [ "locality", "political" ]
    }, {
      "long_name": "Newberry",
      "short_name": "Newberry",
      "types": [ "administrative_area_level_2", "political" ]
    }, {
      "long_name": "South Carolina",
      "short_name": "SC",
      "types": [ "administrative_area_level_1", "political" ]
    }, {
      "long_name": "United States",
      "short_name": "US",
      "types": [ "country", "political" ]
    } ],
    "geometry": {
      "location": {
        "lat": 34.2093079,
        "lng": -81.5331602
      },
      "location_type": "APPROXIMATE",
      "viewport": {
        "southwest": {
          "lat": 34.1908508,
          "lng": -81.5651750
        },
        "northeast": {
          "lat": 34.2277610,
          "lng": -81.5011454
        }
      },
      "bounds": {
        "southwest": {
          "lat": 34.1971829,
          "lng": -81.5582290
        },
        "northeast": {
          "lat": 34.2280609,
          "lng": -81.5169780
        }
      }
    }
  } ]
}
