{
  "status": "OK",
  "results": [ {
    "types": [ "locality", "political" ],
    "formatted_address": "Salley, SC, USA",
    "address_components": [ {
      "long_name": "Salley",
      "short_name": "Salley",
      "types": [ "locality", "political" ]
    }, {
      "long_name": "Aiken",
      "short_name": "Aiken",
      "types": [ "administrative_area_level_2", "political" ]
    }, {
      "long_name": "South Carolina",
      "short_name": "SC",
      "types": [ "administrative_area_level_1", "political" ]
    }, {
      "long_name": "United States",
      "short_name": "US",
      "types": [ "country", "political" ]
    } ],
    "geometry": {
      "location": {
        "lat": 33.5657050,
        "lng": -81.3034371
      },
      "location_type": "APPROXIMATE",
      "viewport": {
        "southwest": {
          "lat": 33.5564071,
          "lng": -81.3194445
        },
        "northeast": {
          "lat": 33.5750019,
          "lng": -81.2874297
        }
      },
      "bounds": {
        "southwest": {
          "lat": 33.5592470,
          "lng": -81.3127320
        },
        "northeast": {
          "lat": 33.5737189,
          "lng": -81.2953270
        }
      }
    }
  } ]
}
