{
  "status": "OK",
  "results": [ {
    "types": [ "locality", "political" ],
    "formatted_address": "St Stephen, SC, USA",
    "address_components": [ {
      "long_name": "St Stephen",
      "short_name": "St Stephen",
      "types": [ "locality", "political" ]
    }, {
      "long_name": "St. Stephen",
      "short_name": "St. Stephen",
      "types": [ "administrative_area_level_3", "political" ]
    }, {
      "long_name": "Berkeley",
      "short_name": "Berkeley",
      "types": [ "administrative_area_level_2", "political" ]
    }, {
      "long_name": "South Carolina",
      "short_name": "SC",
      "types": [ "administrative_area_level_1", "political" ]
    }, {
      "long_name": "United States",
      "short_name": "US",
      "types": [ "country", "political" ]
    } ],
    "geometry": {
      "location": {
        "lat": 33.4050240,
        "lng": -79.9233650
      },
      "location_type": "APPROXIMATE",
      "viewport": {
        "southwest": {
          "lat": 33.3863926,
          "lng": -79.9553798
        },
        "northeast": {
          "lat": 33.4236514,
          "lng": -79.8913502
        }
      },
      "bounds": {
        "southwest": {
          "lat": 33.3911200,
          "lng": -79.9515689
        },
        "northeast": {
          "lat": 33.4213200,
          "lng": -79.9076110
        }
      }
    }
  } ]
}
