{
  "status": "OK",
  "results": [ {
    "types": [ "locality", "political" ],
    "formatted_address": "Summerville, SC, USA",
    "address_components": [ {
      "long_name": "Summerville",
      "short_name": "Summerville",
      "types": [ "locality", "political" ]
    }, {
      "long_name": "Dorchester",
      "short_name": "Dorchester",
      "types": [ "administrative_area_level_2", "political" ]
    }, {
      "long_name": "South Carolina",
      "short_name": "SC",
      "types": [ "administrative_area_level_1", "political" ]
    }, {
      "long_name": "United States",
      "short_name": "US",
      "types": [ "country", "political" ]
    } ],
    "geometry": {
      "location": {
        "lat": 33.0185039,
        "lng": -80.1756481
      },
      "location_type": "APPROXIMATE",
      "viewport": {
        "southwest": {
          "lat": 32.9810723,
          "lng": -80.2396778
        },
        "northeast": {
          "lat": 33.0559196,
          "lng": -80.1116184
        }
      },
      "bounds": {
        "southwest": {
          "lat": 32.9448540,
          "lng": -80.2354780
        },
        "northeast": {
          "lat": 33.0547860,
          "lng": -80.1247970
        }
      }
    }
  } ]
}
