{
  "status": "OK",
  "results": [ {
    "types": [ "locality", "political" ],
    "formatted_address": "Wellford, SC, USA",
    "address_components": [ {
      "long_name": "Wellford",
      "short_name": "Wellford",
      "types": [ "locality", "political" ]
    }, {
      "long_name": "Spartanburg",
      "short_name": "Spartanburg",
      "types": [ "administrative_area_level_2", "political" ]
    }, {
      "long_name": "South Carolina",
      "short_name": "SC",
      "types": [ "administrative_area_level_1", "political" ]
    }, {
      "long_name": "United States",
      "short_name": "US",
      "types": [ "country", "political" ]
    } ],
    "geometry": {
      "location": {
        "lat": 34.9509521,
        "lng": -82.1059416
      },
      "location_type": "APPROXIMATE",
      "viewport": {
        "southwest": {
          "lat": 34.9326589,
          "lng": -82.1379564
        },
        "northeast": {
          "lat": 34.9692412,
          "lng": -82.0739268
        }
      },
      "bounds": {
        "southwest": {
          "lat": 34.9395049,
          "lng": -82.1196339
        },
        "northeast": {
          "lat": 34.9870300,
          "lng": -82.0767690
        }
      }
    }
  } ]
}
