{
  "status": "OK",
  "results": [ {
    "types": [ "locality", "political" ],
    "formatted_address": "Bayard, WV, USA",
    "address_components": [ {
      "long_name": "Bayard",
      "short_name": "Bayard",
      "types": [ "locality", "political" ]
    }, {
      "long_name": "Grant",
      "short_name": "Grant",
      "types": [ "administrative_area_level_2", "political" ]
    }, {
      "long_name": "West Virginia",
      "short_name": "WV",
      "types": [ "administrative_area_level_1", "political" ]
    }, {
      "long_name": "United States",
      "short_name": "US",
      "types": [ "country", "political" ]
    } ],
    "geometry": {
      "location": {
        "lat": 39.2728826,
        "lng": -79.3644902
      },
      "location_type": "APPROXIMATE",
      "viewport": {
        "southwest": {
          "lat": 39.2642442,
          "lng": -79.3804976
        },
        "northeast": {
          "lat": 39.2815199,
          "lng": -79.3484828
        }
      },
      "bounds": {
        "southwest": {
          "lat": 39.2651420,
          "lng": -79.3725889
        },
        "northeast": {
          "lat": 39.2761719,
          "lng": -79.3576820
        }
      }
    }
  } ]
}
