{
  "status": "OK",
  "results": [ {
    "types": [ "locality", "political" ],
    "formatted_address": "Bethany, WV, USA",
    "address_components": [ {
      "long_name": "Bethany",
      "short_name": "Bethany",
      "types": [ "locality", "political" ]
    }, {
      "long_name": "Brooke",
      "short_name": "Brooke",
      "types": [ "administrative_area_level_2", "political" ]
    }, {
      "long_name": "West Virginia",
      "short_name": "WV",
      "types": [ "administrative_area_level_1", "political" ]
    }, {
      "long_name": "United States",
      "short_name": "US",
      "types": [ "country", "political" ]
    } ],
    "geometry": {
      "location": {
        "lat": 40.2056270,
        "lng": -80.5567384
      },
      "location_type": "APPROXIMATE",
      "viewport": {
        "southwest": {
          "lat": 40.1971047,
          "lng": -80.5727458
        },
        "northeast": {
          "lat": 40.2141482,
          "lng": -80.5407310
        }
      },
      "bounds": {
        "southwest": {
          "lat": 40.1964240,
          "lng": -80.5730959
        },
        "northeast": {
          "lat": 40.2124540,
          "lng": -80.5508550
        }
      }
    }
  } ]
}
