{
  "status": "OK",
  "results": [ {
    "types": [ "locality", "political" ],
    "formatted_address": "Buckhannon, WV, USA",
    "address_components": [ {
      "long_name": "Buckhannon",
      "short_name": "Buckhannon",
      "types": [ "locality", "political" ]
    }, {
      "long_name": "Upshur",
      "short_name": "Upshur",
      "types": [ "administrative_area_level_2", "political" ]
    }, {
      "long_name": "West Virginia",
      "short_name": "WV",
      "types": [ "administrative_area_level_1", "political" ]
    }, {
      "long_name": "United States",
      "short_name": "US",
      "types": [ "country", "political" ]
    } ],
    "geometry": {
      "location": {
        "lat": 38.9939872,
        "lng": -80.2320276
      },
      "location_type": "APPROXIMATE",
      "viewport": {
        "southwest": {
          "lat": 38.9766408,
          "lng": -80.2640424
        },
        "northeast": {
          "lat": 39.0113293,
          "lng": -80.2000128
        }
      },
      "bounds": {
        "southwest": {
          "lat": 38.9716839,
          "lng": -80.2753980
        },
        "northeast": {
          "lat": 39.0090260,
          "lng": -80.1959639
        }
      }
    }
  } ]
}
