{
  "status": "OK",
  "results": [ {
    "types": [ "locality", "political" ],
    "formatted_address": "Clarksburg, WV, USA",
    "address_components": [ {
      "long_name": "Clarksburg",
      "short_name": "Clarksburg",
      "types": [ "locality", "political" ]
    }, {
      "long_name": "Harrison",
      "short_name": "Harrison",
      "types": [ "administrative_area_level_2", "political" ]
    }, {
      "long_name": "West Virginia",
      "short_name": "WV",
      "types": [ "administrative_area_level_1", "political" ]
    }, {
      "long_name": "United States",
      "short_name": "US",
      "types": [ "country", "political" ]
    } ],
    "geometry": {
      "location": {
        "lat": 39.2806451,
        "lng": -80.3445341
      },
      "location_type": "APPROXIMATE",
      "viewport": {
        "southwest": {
          "lat": 39.2460890,
          "lng": -80.4085638
        },
        "northeast": {
          "lat": 39.3151841,
          "lng": -80.2805044
        }
      },
      "bounds": {
        "southwest": {
          "lat": 39.2499290,
          "lng": -80.4007759
        },
        "northeast": {
          "lat": 39.3361910,
          "lng": -80.2449479
        }
      }
    }
  } ]
}
