{
  "status": "OK",
  "results": [ {
    "types": [ "locality", "political" ],
    "formatted_address": "Huntington, WV, USA",
    "address_components": [ {
      "long_name": "Huntington",
      "short_name": "Huntington",
      "types": [ "locality", "political" ]
    }, {
      "long_name": "Cabell",
      "short_name": "Cabell",
      "types": [ "administrative_area_level_2", "political" ]
    }, {
      "long_name": "West Virginia",
      "short_name": "WV",
      "types": [ "administrative_area_level_1", "political" ]
    }, {
      "long_name": "United States",
      "short_name": "US",
      "types": [ "country", "political" ]
    } ],
    "geometry": {
      "location": {
        "lat": 38.4192496,
        "lng": -82.4451540
      },
      "location_type": "APPROXIMATE",
      "viewport": {
        "southwest": {
          "lat": 38.3842727,
          "lng": -82.5091837
        },
        "northeast": {
          "lat": 38.4542096,
          "lng": -82.3811243
        }
      },
      "bounds": {
        "southwest": {
          "lat": 38.3759940,
          "lng": -82.5306789
        },
        "northeast": {
          "lat": 38.4393470,
          "lng": -82.3531929
        }
      }
    }
  } ]
}
