{
  "status": "OK",
  "results": [ {
    "types": [ "locality", "political" ],
    "formatted_address": "Lewisburg, WV, USA",
    "address_components": [ {
      "long_name": "Lewisburg",
      "short_name": "Lewisburg",
      "types": [ "locality", "political" ]
    }, {
      "long_name": "Greenbrier",
      "short_name": "Greenbrier",
      "types": [ "administrative_area_level_2", "political" ]
    }, {
      "long_name": "West Virginia",
      "short_name": "WV",
      "types": [ "administrative_area_level_1", "political" ]
    }, {
      "long_name": "United States",
      "short_name": "US",
      "types": [ "country", "political" ]
    } ],
    "geometry": {
      "location": {
        "lat": 37.8017879,
        "lng": -80.4456303
      },
      "location_type": "APPROXIMATE",
      "viewport": {
        "southwest": {
          "lat": 37.7841531,
          "lng": -80.4776451
        },
        "northeast": {
          "lat": 37.8194185,
          "lng": -80.4136155
        }
      },
      "bounds": {
        "southwest": {
          "lat": 37.7908739,
          "lng": -80.4623309
        },
        "northeast": {
          "lat": 37.8351879,
          "lng": -80.4105089
        }
      }
    }
  } ]
}
