{
  "status": "OK",
  "results": [ {
    "types": [ "locality", "political" ],
    "formatted_address": "Matoaka, WV, USA",
    "address_components": [ {
      "long_name": "Matoaka",
      "short_name": "Matoaka",
      "types": [ "locality", "political" ]
    }, {
      "long_name": "Mercer",
      "short_name": "Mercer",
      "types": [ "administrative_area_level_2", "political" ]
    }, {
      "long_name": "West Virginia",
      "short_name": "WV",
      "types": [ "administrative_area_level_1", "political" ]
    }, {
      "long_name": "United States",
      "short_name": "US",
      "types": [ "country", "political" ]
    } ],
    "geometry": {
      "location": {
        "lat": 37.4201162,
        "lng": -81.2431548
      },
      "location_type": "APPROXIMATE",
      "viewport": {
        "southwest": {
          "lat": 37.4112540,
          "lng": -81.2591622
        },
        "northeast": {
          "lat": 37.4289774,
          "lng": -81.2271474
        }
      },
      "bounds": {
        "southwest": {
          "lat": 37.4133330,
          "lng": -81.2486179
        },
        "northeast": {
          "lat": 37.4222619,
          "lng": -81.2349680
        }
      }
    }
  } ]
}
