{
  "status": "OK",
  "results": [ {
    "types": [ "locality", "political" ],
    "formatted_address": "Moundsville, WV, USA",
    "address_components": [ {
      "long_name": "Moundsville",
      "short_name": "Moundsville",
      "types": [ "locality", "political" ]
    }, {
      "long_name": "Marshall",
      "short_name": "Marshall",
      "types": [ "administrative_area_level_2", "political" ]
    }, {
      "long_name": "West Virginia",
      "short_name": "WV",
      "types": [ "administrative_area_level_1", "political" ]
    }, {
      "long_name": "United States",
      "short_name": "US",
      "types": [ "country", "political" ]
    } ],
    "geometry": {
      "location": {
        "lat": 39.9203526,
        "lng": -80.7431407
      },
      "location_type": "APPROXIMATE",
      "viewport": {
        "southwest": {
          "lat": 39.9032355,
          "lng": -80.7751555
        },
        "northeast": {
          "lat": 39.9374654,
          "lng": -80.7111259
        }
      },
      "bounds": {
        "southwest": {
          "lat": 39.9047879,
          "lng": -80.7620800
        },
        "northeast": {
          "lat": 39.9396170,
          "lng": -80.7181210
        }
      }
    }
  } ]
}
