{
  "status": "OK",
  "results": [ {
    "types": [ "locality", "political" ],
    "formatted_address": "Princeton, WV, USA",
    "address_components": [ {
      "long_name": "Princeton",
      "short_name": "Princeton",
      "types": [ "locality", "political" ]
    }, {
      "long_name": "Mercer",
      "short_name": "Mercer",
      "types": [ "administrative_area_level_2", "political" ]
    }, {
      "long_name": "West Virginia",
      "short_name": "WV",
      "types": [ "administrative_area_level_1", "political" ]
    }, {
      "long_name": "United States",
      "short_name": "US",
      "types": [ "country", "political" ]
    } ],
    "geometry": {
      "location": {
        "lat": 37.3662293,
        "lng": -81.1025918
      },
      "location_type": "APPROXIMATE",
      "viewport": {
        "southwest": {
          "lat": 37.3484911,
          "lng": -81.1346066
        },
        "northeast": {
          "lat": 37.3839633,
          "lng": -81.0705770
        }
      },
      "bounds": {
        "southwest": {
          "lat": 37.3512000,
          "lng": -81.1228220
        },
        "northeast": {
          "lat": 37.3881100,
          "lng": -81.0682120
        }
      }
    }
  } ]
}
