{
  "status": "OK",
  "results": [ {
    "types": [ "locality", "political" ],
    "formatted_address": "Rivesville, WV, USA",
    "address_components": [ {
      "long_name": "Rivesville",
      "short_name": "Rivesville",
      "types": [ "locality", "political" ]
    }, {
      "long_name": "Marion",
      "short_name": "Marion",
      "types": [ "administrative_area_level_2", "political" ]
    }, {
      "long_name": "West Virginia",
      "short_name": "WV",
      "types": [ "administrative_area_level_1", "political" ]
    }, {
      "long_name": "United States",
      "short_name": "US",
      "types": [ "country", "political" ]
    } ],
    "geometry": {
      "location": {
        "lat": 39.5298059,
        "lng": -80.1167417
      },
      "location_type": "APPROXIMATE",
      "viewport": {
        "southwest": {
          "lat": 39.5211993,
          "lng": -80.1327491
        },
        "northeast": {
          "lat": 39.5384115,
          "lng": -80.1007343
        }
      },
      "bounds": {
        "southwest": {
          "lat": 39.5267550,
          "lng": -80.1330140
        },
        "northeast": {
          "lat": 39.5369320,
          "lng": -80.1076930
        }
      }
    }
  } ]
}
