{
  "status": "OK",
  "results": [ {
    "types": [ "locality", "political" ],
    "formatted_address": "Ronceverte, WV, USA",
    "address_components": [ {
      "long_name": "Ronceverte",
      "short_name": "Ronceverte",
      "types": [ "locality", "political" ]
    }, {
      "long_name": "Greenbrier",
      "short_name": "Greenbrier",
      "types": [ "administrative_area_level_2", "political" ]
    }, {
      "long_name": "West Virginia",
      "short_name": "WV",
      "types": [ "administrative_area_level_1", "political" ]
    }, {
      "long_name": "United States",
      "short_name": "US",
      "types": [ "country", "political" ]
    } ],
    "geometry": {
      "location": {
        "lat": 37.7498438,
        "lng": -80.4628519
      },
      "location_type": "APPROXIMATE",
      "viewport": {
        "southwest": {
          "lat": 37.7321966,
          "lng": -80.4948667
        },
        "northeast": {
          "lat": 37.7674867,
          "lng": -80.4308371
        }
      },
      "bounds": {
        "southwest": {
          "lat": 37.7367510,
          "lng": -80.5036729
        },
        "northeast": {
          "lat": 37.7587690,
          "lng": -80.4473589
        }
      }
    }
  } ]
}
