{
  "status": "OK",
  "results": [ {
    "types": [ "locality", "political" ],
    "formatted_address": "Shinnston, WV, USA",
    "address_components": [ {
      "long_name": "Shinnston",
      "short_name": "Shinnston",
      "types": [ "locality", "political" ]
    }, {
      "long_name": "Harrison",
      "short_name": "Harrison",
      "types": [ "administrative_area_level_2", "political" ]
    }, {
      "long_name": "West Virginia",
      "short_name": "WV",
      "types": [ "administrative_area_level_1", "political" ]
    }, {
      "long_name": "United States",
      "short_name": "US",
      "types": [ "country", "political" ]
    } ],
    "geometry": {
      "location": {
        "lat": 39.3956423,
        "lng": -80.3000866
      },
      "location_type": "APPROXIMATE",
      "viewport": {
        "southwest": {
          "lat": 39.3783948,
          "lng": -80.3321014
        },
        "northeast": {
          "lat": 39.4128856,
          "lng": -80.2680718
        }
      },
      "bounds": {
        "southwest": {
          "lat": 39.3746490,
          "lng": -80.3131250
        },
        "northeast": {
          "lat": 39.4100780,
          "lng": -80.2801820
        }
      }
    }
  } ]
}
