{
  "status": "OK",
  "results": [ {
    "types": [ "locality", "political" ],
    "formatted_address": "Triadelphia, WV, USA",
    "address_components": [ {
      "long_name": "Triadelphia",
      "short_name": "Triadelphia",
      "types": [ "locality", "political" ]
    }, {
      "long_name": "Ohio",
      "short_name": "Ohio",
      "types": [ "administrative_area_level_2", "political" ]
    }, {
      "long_name": "West Virginia",
      "short_name": "WV",
      "types": [ "administrative_area_level_1", "political" ]
    }, {
      "long_name": "United States",
      "short_name": "US",
      "types": [ "country", "political" ]
    } ],
    "geometry": {
      "location": {
        "lat": 40.0525734,
        "lng": -80.6284097
      },
      "location_type": "APPROXIMATE",
      "viewport": {
        "southwest": {
          "lat": 40.0354894,
          "lng": -80.6604245
        },
        "northeast": {
          "lat": 40.0696531,
          "lng": -80.5963949
        }
      },
      "bounds": {
        "southwest": {
          "lat": 40.0351420,
          "lng": -80.6429950
        },
        "northeast": {
          "lat": 40.0643679,
          "lng": -80.6057639
        }
      }
    }
  } ]
}
