{
  "status": "OK",
  "results": [ {
    "types": [ "locality", "political" ],
    "formatted_address": "West Logan, WV, USA",
    "address_components": [ {
      "long_name": "West Logan",
      "short_name": "West Logan",
      "types": [ "locality", "political" ]
    }, {
      "long_name": "Logan",
      "short_name": "Logan",
      "types": [ "administrative_area_level_2", "political" ]
    }, {
      "long_name": "West Virginia",
      "short_name": "WV",
      "types": [ "administrative_area_level_1", "political" ]
    }, {
      "long_name": "United States",
      "short_name": "US",
      "types": [ "country", "political" ]
    } ],
    "geometry": {
      "location": {
        "lat": 37.8667699,
        "lng": -81.9865138
      },
      "location_type": "APPROXIMATE",
      "viewport": {
        "southwest": {
          "lat": 37.8579608,
          "lng": -82.0025212
        },
        "northeast": {
          "lat": 37.8755779,
          "lng": -81.9705064
        }
      },
      "bounds": {
        "southwest": {
          "lat": 37.8616910,
          "lng": -81.9989399
        },
        "northeast": {
          "lat": 37.8747110,
          "lng": -81.9852830
        }
      }
    }
  } ]
}
