{
  "status": "OK",
  "results": [ {
    "types": [ "locality", "political" ],
    "formatted_address": "Williamstown, WV, USA",
    "address_components": [ {
      "long_name": "Williamstown",
      "short_name": "Williamstown",
      "types": [ "locality", "political" ]
    }, {
      "long_name": "Wood",
      "short_name": "Wood",
      "types": [ "administrative_area_level_2", "political" ]
    }, {
      "long_name": "West Virginia",
      "short_name": "WV",
      "types": [ "administrative_area_level_1", "political" ]
    }, {
      "long_name": "United States",
      "short_name": "US",
      "types": [ "country", "political" ]
    } ],
    "geometry": {
      "location": {
        "lat": 39.4006299,
        "lng": -81.4481766
      },
      "location_type": "APPROXIMATE",
      "viewport": {
        "southwest": {
          "lat": 39.3920073,
          "lng": -81.4641840
        },
        "northeast": {
          "lat": 39.4092514,
          "lng": -81.4321692
        }
      },
      "bounds": {
        "southwest": {
          "lat": 39.3883940,
          "lng": -81.4712639
        },
        "northeast": {
          "lat": 39.4103740,
          "lng": -81.4349419
        }
      }
    }
  } ]
}
