{
  "status": "OK",
  "results": [ {
    "types": [ "locality", "political" ],
    "formatted_address": "Bristol, TN, USA",
    "address_components": [ {
      "long_name": "Bristol",
      "short_name": "Bristol",
      "types": [ "locality", "political" ]
    }, {
      "long_name": "Sullivan",
      "short_name": "Sullivan",
      "types": [ "administrative_area_level_2", "political" ]
    }, {
      "long_name": "Tennessee",
      "short_name": "TN",
      "types": [ "administrative_area_level_1", "political" ]
    }, {
      "long_name": "United States",
      "short_name": "US",
      "types": [ "country", "political" ]
    } ],
    "geometry": {
      "location": {
        "lat": 36.5951059,
        "lng": -82.1887444
      },
      "location_type": "APPROXIMATE",
      "viewport": {
        "southwest": {
          "lat": 36.5234055,
          "lng": -82.3168038
        },
        "northeast": {
          "lat": 36.6667398,
          "lng": -82.0606850
        }
      },
      "bounds": {
        "southwest": {
          "lat": 36.4679940,
          "lng": -82.3228429
        },
        "northeast": {
          "lat": 36.5960180,
          "lng": -82.0959750
        }
      }
    }
  } ]
}
