{
  "status": "OK",
  "results": [ {
    "types": [ "locality", "political" ],
    "formatted_address": "Caryville, TN, USA",
    "address_components": [ {
      "long_name": "Caryville",
      "short_name": "Caryville",
      "types": [ "locality", "political" ]
    }, {
      "long_name": "Campbell",
      "short_name": "Campbell",
      "types": [ "administrative_area_level_2", "political" ]
    }, {
      "long_name": "Tennessee",
      "short_name": "TN",
      "types": [ "administrative_area_level_1", "political" ]
    }, {
      "long_name": "United States",
      "short_name": "US",
      "types": [ "country", "political" ]
    } ],
    "geometry": {
      "location": {
        "lat": 36.2989682,
        "lng": -84.2232612
      },
      "location_type": "APPROXIMATE",
      "viewport": {
        "southwest": {
          "lat": 36.2269938,
          "lng": -84.3513206
        },
        "northeast": {
          "lat": 36.3708763,
          "lng": -84.0952018
        }
      },
      "bounds": {
        "southwest": {
          "lat": 36.2857720,
          "lng": -84.2592449
        },
        "northeast": {
          "lat": 36.3846769,
          "lng": -84.1744059
        }
      }
    }
  } ]
}
