{
  "status": "OK",
  "results": [ {
    "types": [ "locality", "political" ],
    "formatted_address": "Centerville, TN, USA",
    "address_components": [ {
      "long_name": "Centerville",
      "short_name": "Centerville",
      "types": [ "locality", "political" ]
    }, {
      "long_name": "Hickman",
      "short_name": "Hickman",
      "types": [ "administrative_area_level_2", "political" ]
    }, {
      "long_name": "Tennessee",
      "short_name": "TN",
      "types": [ "administrative_area_level_1", "political" ]
    }, {
      "long_name": "United States",
      "short_name": "US",
      "types": [ "country", "political" ]
    } ],
    "geometry": {
      "location": {
        "lat": 35.7789565,
        "lng": -87.4669587
      },
      "location_type": "APPROXIMATE",
      "viewport": {
        "southwest": {
          "lat": 35.7427393,
          "lng": -87.5309884
        },
        "northeast": {
          "lat": 35.8151572,
          "lng": -87.4029290
        }
      },
      "bounds": {
        "southwest": {
          "lat": 35.7540679,
          "lng": -87.5191919
        },
        "northeast": {
          "lat": 35.8502049,
          "lng": -87.4105429
        }
      }
    }
  } ]
}
