{
  "status": "OK",
  "results": [ {
    "types": [ "locality", "political" ],
    "formatted_address": "Clarksburg, TN, USA",
    "address_components": [ {
      "long_name": "Clarksburg",
      "short_name": "Clarksburg",
      "types": [ "locality", "political" ]
    }, {
      "long_name": "Carroll",
      "short_name": "Carroll",
      "types": [ "administrative_area_level_2", "political" ]
    }, {
      "long_name": "Tennessee",
      "short_name": "TN",
      "types": [ "administrative_area_level_1", "political" ]
    }, {
      "long_name": "United States",
      "short_name": "US",
      "types": [ "country", "political" ]
    } ],
    "geometry": {
      "location": {
        "lat": 35.8717309,
        "lng": -88.3931039
      },
      "location_type": "APPROXIMATE",
      "viewport": {
        "southwest": {
          "lat": 35.8536455,
          "lng": -88.4251187
        },
        "northeast": {
          "lat": 35.8898122,
          "lng": -88.3610891
        }
      },
      "bounds": {
        "southwest": {
          "lat": 35.8213420,
          "lng": -88.4184389
        },
        "northeast": {
          "lat": 35.8876799,
          "lng": -88.3779910
        }
      }
    }
  } ]
}
