{
  "status": "OK",
  "results": [ {
    "types": [ "locality", "political" ],
    "formatted_address": "Collierville, TN, USA",
    "address_components": [ {
      "long_name": "Collierville",
      "short_name": "Collierville",
      "types": [ "locality", "political" ]
    }, {
      "long_name": "Shelby",
      "short_name": "Shelby",
      "types": [ "administrative_area_level_2", "political" ]
    }, {
      "long_name": "Tennessee",
      "short_name": "TN",
      "types": [ "administrative_area_level_1", "political" ]
    }, {
      "long_name": "United States",
      "short_name": "US",
      "types": [ "country", "political" ]
    } ],
    "geometry": {
      "location": {
        "lat": 35.0420360,
        "lng": -89.6645266
      },
      "location_type": "APPROXIMATE",
      "viewport": {
        "southwest": {
          "lat": 35.0054863,
          "lng": -89.7285563
        },
        "northeast": {
          "lat": 35.0785694,
          "lng": -89.6004969
        }
      },
      "bounds": {
        "southwest": {
          "lat": 35.0061500,
          "lng": -89.7437480
        },
        "northeast": {
          "lat": 35.1106909,
          "lng": -89.6408819
        }
      }
    }
  } ]
}
