{
  "status": "OK",
  "results": [ {
    "types": [ "locality", "political" ],
    "formatted_address": "Cookeville, TN, USA",
    "address_components": [ {
      "long_name": "Cookeville",
      "short_name": "Cookeville",
      "types": [ "locality", "political" ]
    }, {
      "long_name": "Putnam",
      "short_name": "Putnam",
      "types": [ "administrative_area_level_2", "political" ]
    }, {
      "long_name": "Tennessee",
      "short_name": "TN",
      "types": [ "administrative_area_level_1", "political" ]
    }, {
      "long_name": "United States",
      "short_name": "US",
      "types": [ "country", "political" ]
    } ],
    "geometry": {
      "location": {
        "lat": 36.1628390,
        "lng": -85.5016423
      },
      "location_type": "APPROXIMATE",
      "viewport": {
        "southwest": {
          "lat": 36.1267974,
          "lng": -85.5656720
        },
        "northeast": {
          "lat": 36.1988640,
          "lng": -85.4376126
        }
      },
      "bounds": {
        "southwest": {
          "lat": 36.0804660,
          "lng": -85.5898189
        },
        "northeast": {
          "lat": 36.1991620,
          "lng": -85.4413670
        }
      }
    }
  } ]
}
