{
  "status": "OK",
  "results": [ {
    "types": [ "locality", "political" ],
    "formatted_address": "Cumberland City, TN, USA",
    "address_components": [ {
      "long_name": "Cumberland City",
      "short_name": "Cumberland City",
      "types": [ "locality", "political" ]
    }, {
      "long_name": "Cumberland City-Carlisle",
      "short_name": "Cumberland City-Carlisle",
      "types": [ "administrative_area_level_3", "political" ]
    }, {
      "long_name": "Stewart",
      "short_name": "Stewart",
      "types": [ "administrative_area_level_2", "political" ]
    }, {
      "long_name": "Tennessee",
      "short_name": "TN",
      "types": [ "administrative_area_level_1", "political" ]
    }, {
      "long_name": "United States",
      "short_name": "US",
      "types": [ "country", "political" ]
    } ],
    "geometry": {
      "location": {
        "lat": 36.3933859,
        "lng": -87.6364056
      },
      "location_type": "APPROXIMATE",
      "viewport": {
        "southwest": {
          "lat": 36.3754203,
          "lng": -87.6684204
        },
        "northeast": {
          "lat": 36.4113473,
          "lng": -87.6043908
        }
      },
      "bounds": {
        "southwest": {
          "lat": 36.3678720,
          "lng": -87.6715289
        },
        "northeast": {
          "lat": 36.4055580,
          "lng": -87.6100630
        }
      }
    }
  } ]
}
