{
  "status": "OK",
  "results": [ {
    "types": [ "locality", "political" ],
    "formatted_address": "Dandridge, TN, USA",
    "address_components": [ {
      "long_name": "Dandridge",
      "short_name": "Dandridge",
      "types": [ "locality", "political" ]
    }, {
      "long_name": "Jefferson",
      "short_name": "Jefferson",
      "types": [ "administrative_area_level_2", "political" ]
    }, {
      "long_name": "Tennessee",
      "short_name": "TN",
      "types": [ "administrative_area_level_1", "political" ]
    }, {
      "long_name": "United States",
      "short_name": "US",
      "types": [ "country", "political" ]
    } ],
    "geometry": {
      "location": {
        "lat": 36.0153693,
        "lng": -83.4148895
      },
      "location_type": "APPROXIMATE",
      "viewport": {
        "southwest": {
          "lat": 35.9792601,
          "lng": -83.4789192
        },
        "northeast": {
          "lat": 36.0514620,
          "lng": -83.3508598
        }
      },
      "bounds": {
        "southwest": {
          "lat": 35.9992699,
          "lng": -83.4744259
        },
        "northeast": {
          "lat": 36.0617270,
          "lng": -83.3856730
        }
      }
    }
  } ]
}
