{
  "status": "OK",
  "results": [ {
    "types": [ "locality", "political" ],
    "formatted_address": "Decatur, TN, USA",
    "address_components": [ {
      "long_name": "Decatur",
      "short_name": "Decatur",
      "types": [ "locality", "political" ]
    }, {
      "long_name": "Meigs",
      "short_name": "Meigs",
      "types": [ "administrative_area_level_2", "political" ]
    }, {
      "long_name": "Tennessee",
      "short_name": "TN",
      "types": [ "administrative_area_level_1", "political" ]
    }, {
      "long_name": "United States",
      "short_name": "US",
      "types": [ "country", "political" ]
    } ],
    "geometry": {
      "location": {
        "lat": 35.5147939,
        "lng": -84.7902223
      },
      "location_type": "APPROXIMATE",
      "viewport": {
        "southwest": {
          "lat": 35.4966274,
          "lng": -84.8222371
        },
        "northeast": {
          "lat": 35.5329563,
          "lng": -84.7582075
        }
      },
      "bounds": {
        "southwest": {
          "lat": 35.5035910,
          "lng": -84.8128090
        },
        "northeast": {
          "lat": 35.5413039,
          "lng": -84.7735699
        }
      }
    }
  } ]
}
