{
  "status": "OK",
  "results": [ {
    "types": [ "locality", "political" ],
    "formatted_address": "Dover, TN, USA",
    "address_components": [ {
      "long_name": "Dover",
      "short_name": "Dover",
      "types": [ "locality", "political" ]
    }, {
      "long_name": "Stewart",
      "short_name": "Stewart",
      "types": [ "administrative_area_level_2", "political" ]
    }, {
      "long_name": "Tennessee",
      "short_name": "TN",
      "types": [ "administrative_area_level_1", "political" ]
    }, {
      "long_name": "United States",
      "short_name": "US",
      "types": [ "country", "political" ]
    } ],
    "geometry": {
      "location": {
        "lat": 36.4878291,
        "lng": -87.8383567
      },
      "location_type": "APPROXIMATE",
      "viewport": {
        "southwest": {
          "lat": 36.4698854,
          "lng": -87.8703715
        },
        "northeast": {
          "lat": 36.5057687,
          "lng": -87.8063419
        }
      },
      "bounds": {
        "southwest": {
          "lat": 36.4689410,
          "lng": -87.8943760
        },
        "northeast": {
          "lat": 36.4959930,
          "lng": -87.8081850
        }
      }
    }
  } ]
}
