{
  "status": "OK",
  "results": [ {
    "types": [ "locality", "political" ],
    "formatted_address": "Gates, TN, USA",
    "address_components": [ {
      "long_name": "Gates",
      "short_name": "Gates",
      "types": [ "locality", "political" ]
    }, {
      "long_name": "Lauderdale",
      "short_name": "Lauderdale",
      "types": [ "administrative_area_level_2", "political" ]
    }, {
      "long_name": "Tennessee",
      "short_name": "TN",
      "types": [ "administrative_area_level_1", "political" ]
    }, {
      "long_name": "United States",
      "short_name": "US",
      "types": [ "country", "political" ]
    } ],
    "geometry": {
      "location": {
        "lat": 35.8384082,
        "lng": -89.4061836
      },
      "location_type": "APPROXIMATE",
      "viewport": {
        "southwest": {
          "lat": 35.8293622,
          "lng": -89.4221910
        },
        "northeast": {
          "lat": 35.8474531,
          "lng": -89.3901762
        }
      },
      "bounds": {
        "southwest": {
          "lat": 35.8292030,
          "lng": -89.4200640
        },
        "northeast": {
          "lat": 35.8500850,
          "lng": -89.3995030
        }
      }
    }
  } ]
}
