{
  "status": "OK",
  "results": [ {
    "types": [ "locality", "political" ],
    "formatted_address": "Germantown, TN, USA",
    "address_components": [ {
      "long_name": "Germantown",
      "short_name": "Germantown",
      "types": [ "locality", "political" ]
    }, {
      "long_name": "Shelby",
      "short_name": "Shelby",
      "types": [ "administrative_area_level_2", "political" ]
    }, {
      "long_name": "Tennessee",
      "short_name": "TN",
      "types": [ "administrative_area_level_1", "political" ]
    }, {
      "long_name": "United States",
      "short_name": "US",
      "types": [ "country", "political" ]
    } ],
    "geometry": {
      "location": {
        "lat": 35.0867577,
        "lng": -89.8100858
      },
      "location_type": "APPROXIMATE",
      "viewport": {
        "southwest": {
          "lat": 35.0502280,
          "lng": -89.8741155
        },
        "northeast": {
          "lat": 35.1232711,
          "lng": -89.7460561
        }
      },
      "bounds": {
        "southwest": {
          "lat": 35.0285019,
          "lng": -89.8453909
        },
        "northeast": {
          "lat": 35.1214900,
          "lng": -89.7350589
        }
      }
    }
  } ]
}
