{
  "status": "OK",
  "results": [ {
    "types": [ "locality", "political" ],
    "formatted_address": "Jackson, TN, USA",
    "address_components": [ {
      "long_name": "Jackson",
      "short_name": "Jackson",
      "types": [ "locality", "political" ]
    }, {
      "long_name": "Madison",
      "short_name": "Madison",
      "types": [ "administrative_area_level_2", "political" ]
    }, {
      "long_name": "Tennessee",
      "short_name": "TN",
      "types": [ "administrative_area_level_1", "political" ]
    }, {
      "long_name": "United States",
      "short_name": "US",
      "types": [ "country", "political" ]
    } ],
    "geometry": {
      "location": {
        "lat": 35.6145169,
        "lng": -88.8139469
      },
      "location_type": "APPROXIMATE",
      "viewport": {
        "southwest": {
          "lat": 35.5419166,
          "lng": -88.9420063
        },
        "northeast": {
          "lat": 35.6870514,
          "lng": -88.6858875
        }
      },
      "bounds": {
        "southwest": {
          "lat": 35.5402259,
          "lng": -88.9204599
        },
        "northeast": {
          "lat": 35.7562880,
          "lng": -88.7567579
        }
      }
    }
  } ]
}
