{
  "status": "OK",
  "results": [ {
    "types": [ "locality", "political" ],
    "formatted_address": "Kimball, TN, USA",
    "address_components": [ {
      "long_name": "Kimball",
      "short_name": "Kimball",
      "types": [ "locality", "political" ]
    }, {
      "long_name": "Marion",
      "short_name": "Marion",
      "types": [ "administrative_area_level_2", "political" ]
    }, {
      "long_name": "Tennessee",
      "short_name": "TN",
      "types": [ "administrative_area_level_1", "political" ]
    }, {
      "long_name": "United States",
      "short_name": "US",
      "types": [ "country", "political" ]
    } ],
    "geometry": {
      "location": {
        "lat": 35.0478571,
        "lng": -85.6719138
      },
      "location_type": "APPROXIMATE",
      "viewport": {
        "southwest": {
          "lat": 35.0295856,
          "lng": -85.7039286
        },
        "northeast": {
          "lat": 35.0661245,
          "lng": -85.6398990
        }
      },
      "bounds": {
        "southwest": {
          "lat": 35.0273989,
          "lng": -85.7190490
        },
        "northeast": {
          "lat": 35.0645180,
          "lng": -85.6429299
        }
      }
    }
  } ]
}
