{
  "status": "OK",
  "results": [ {
    "types": [ "locality", "political" ],
    "formatted_address": "Kingston, TN, USA",
    "address_components": [ {
      "long_name": "Kingston",
      "short_name": "Kingston",
      "types": [ "locality", "political" ]
    }, {
      "long_name": "Roane",
      "short_name": "Roane",
      "types": [ "administrative_area_level_2", "political" ]
    }, {
      "long_name": "Tennessee",
      "short_name": "TN",
      "types": [ "administrative_area_level_1", "political" ]
    }, {
      "long_name": "United States",
      "short_name": "US",
      "types": [ "country", "political" ]
    } ],
    "geometry": {
      "location": {
        "lat": 35.8809084,
        "lng": -84.5085447
      },
      "location_type": "APPROXIMATE",
      "viewport": {
        "southwest": {
          "lat": 35.8447377,
          "lng": -84.5725744
        },
        "northeast": {
          "lat": 35.9170626,
          "lng": -84.4445150
        }
      },
      "bounds": {
        "southwest": {
          "lat": 35.8369230,
          "lng": -84.5332560
        },
        "northeast": {
          "lat": 35.8927039,
          "lng": -84.4262900
        }
      }
    }
  } ]
}
