{
  "status": "OK",
  "results": [ {
    "types": [ "locality", "political" ],
    "formatted_address": "La Vergne, TN, USA",
    "address_components": [ {
      "long_name": "La Vergne",
      "short_name": "La Vergne",
      "types": [ "locality", "political" ]
    }, {
      "long_name": "Rutherford",
      "short_name": "Rutherford",
      "types": [ "administrative_area_level_2", "political" ]
    }, {
      "long_name": "Tennessee",
      "short_name": "TN",
      "types": [ "administrative_area_level_1", "political" ]
    }, {
      "long_name": "United States",
      "short_name": "US",
      "types": [ "country", "political" ]
    } ],
    "geometry": {
      "location": {
        "lat": 36.0156178,
        "lng": -86.5819394
      },
      "location_type": "APPROXIMATE",
      "viewport": {
        "southwest": {
          "lat": 35.9433830,
          "lng": -86.7099988
        },
        "northeast": {
          "lat": 36.0877864,
          "lng": -86.4538800
        }
      },
      "bounds": {
        "southwest": {
          "lat": 35.9545990,
          "lng": -86.6244280
        },
        "northeast": {
          "lat": 36.0878170,
          "lng": -86.4938930
        }
      }
    }
  } ]
}
