{
  "status": "OK",
  "results": [ {
    "types": [ "locality", "political" ],
    "formatted_address": "Lawrenceburg, TN, USA",
    "address_components": [ {
      "long_name": "Lawrenceburg",
      "short_name": "Lawrenceburg",
      "types": [ "locality", "political" ]
    }, {
      "long_name": "Lawrence",
      "short_name": "Lawrence",
      "types": [ "administrative_area_level_2", "political" ]
    }, {
      "long_name": "Tennessee",
      "short_name": "TN",
      "types": [ "administrative_area_level_1", "political" ]
    }, {
      "long_name": "United States",
      "short_name": "US",
      "types": [ "country", "political" ]
    } ],
    "geometry": {
      "location": {
        "lat": 35.2423023,
        "lng": -87.3347389
      },
      "location_type": "APPROXIMATE",
      "viewport": {
        "southwest": {
          "lat": 35.2058423,
          "lng": -87.3987686
        },
        "northeast": {
          "lat": 35.2787459,
          "lng": -87.2707092
        }
      },
      "bounds": {
        "southwest": {
          "lat": 35.1825569,
          "lng": -87.3930170
        },
        "northeast": {
          "lat": 35.3043849,
          "lng": -87.2946760
        }
      }
    }
  } ]
}
