{
  "status": "OK",
  "results": [ {
    "types": [ "locality", "political" ],
    "formatted_address": "Lexington, TN, USA",
    "address_components": [ {
      "long_name": "Lexington",
      "short_name": "Lexington",
      "types": [ "locality", "political" ]
    }, {
      "long_name": "Henderson",
      "short_name": "Henderson",
      "types": [ "administrative_area_level_2", "political" ]
    }, {
      "long_name": "Tennessee",
      "short_name": "TN",
      "types": [ "administrative_area_level_1", "political" ]
    }, {
      "long_name": "United States",
      "short_name": "US",
      "types": [ "country", "political" ]
    } ],
    "geometry": {
      "location": {
        "lat": 35.6509029,
        "lng": -88.3933796
      },
      "location_type": "APPROXIMATE",
      "viewport": {
        "southwest": {
          "lat": 35.6146275,
          "lng": -88.4574093
        },
        "northeast": {
          "lat": 35.6871618,
          "lng": -88.3293499
        }
      },
      "bounds": {
        "southwest": {
          "lat": 35.6110959,
          "lng": -88.4511280
        },
        "northeast": {
          "lat": 35.7250090,
          "lng": -88.3456619
        }
      }
    }
  } ]
}
