{
  "status": "OK",
  "results": [ {
    "types": [ "locality", "political" ],
    "formatted_address": "McEwen, TN, USA",
    "address_components": [ {
      "long_name": "McEwen",
      "short_name": "Mc Ewen",
      "types": [ "locality", "political" ]
    }, {
      "long_name": "Humphreys",
      "short_name": "Humphreys",
      "types": [ "administrative_area_level_2", "political" ]
    }, {
      "long_name": "Tennessee",
      "short_name": "TN",
      "types": [ "administrative_area_level_1", "political" ]
    }, {
      "long_name": "United States",
      "short_name": "US",
      "types": [ "country", "political" ]
    } ],
    "geometry": {
      "location": {
        "lat": 36.1078375,
        "lng": -87.6330745
      },
      "location_type": "APPROXIMATE",
      "viewport": {
        "southwest": {
          "lat": 36.0898061,
          "lng": -87.6650893
        },
        "northeast": {
          "lat": 36.1258647,
          "lng": -87.6010597
        }
      },
      "bounds": {
        "southwest": {
          "lat": 36.0942830,
          "lng": -87.6527409
        },
        "northeast": {
          "lat": 36.1271230,
          "lng": -87.6202220
        }
      }
    }
  } ]
}
