{
  "status": "OK",
  "results": [ {
    "types": [ "locality", "political" ],
    "formatted_address": "Mountain City, TN, USA",
    "address_components": [ {
      "long_name": "Mountain City",
      "short_name": "Mountain City",
      "types": [ "locality", "political" ]
    }, {
      "long_name": "Johnson",
      "short_name": "Johnson",
      "types": [ "administrative_area_level_2", "political" ]
    }, {
      "long_name": "Tennessee",
      "short_name": "TN",
      "types": [ "administrative_area_level_1", "political" ]
    }, {
      "long_name": "United States",
      "short_name": "US",
      "types": [ "country", "political" ]
    } ],
    "geometry": {
      "location": {
        "lat": 36.4745636,
        "lng": -81.8048380
      },
      "location_type": "APPROXIMATE",
      "viewport": {
        "southwest": {
          "lat": 36.4566168,
          "lng": -81.8368528
        },
        "northeast": {
          "lat": 36.4925063,
          "lng": -81.7728232
        }
      },
      "bounds": {
        "southwest": {
          "lat": 36.4330230,
          "lng": -81.8262670
        },
        "northeast": {
          "lat": 36.4924330,
          "lng": -81.7901200
        }
      }
    }
  } ]
}
