{
  "status": "OK",
  "results": [ {
    "types": [ "locality", "political" ],
    "formatted_address": "Mt Juliet, TN, USA",
    "address_components": [ {
      "long_name": "Mt Juliet",
      "short_name": "Mt Juliet",
      "types": [ "locality", "political" ]
    }, {
      "long_name": "Wilson",
      "short_name": "Wilson",
      "types": [ "administrative_area_level_2", "political" ]
    }, {
      "long_name": "Tennessee",
      "short_name": "TN",
      "types": [ "administrative_area_level_1", "political" ]
    }, {
      "long_name": "United States",
      "short_name": "US",
      "types": [ "country", "political" ]
    } ],
    "geometry": {
      "location": {
        "lat": 36.2000550,
        "lng": -86.5186054
      },
      "location_type": "APPROXIMATE",
      "viewport": {
        "southwest": {
          "lat": 36.1279895,
          "lng": -86.6466648
        },
        "northeast": {
          "lat": 36.2720542,
          "lng": -86.3905460
        }
      },
      "bounds": {
        "southwest": {
          "lat": 36.1536240,
          "lng": -86.5839970
        },
        "northeast": {
          "lat": 36.2776749,
          "lng": -86.4339930
        }
      }
    }
  } ]
}
