{
  "status": "OK",
  "results": [ {
    "types": [ "locality", "political" ],
    "formatted_address": "Munford, TN, USA",
    "address_components": [ {
      "long_name": "Munford",
      "short_name": "Munford",
      "types": [ "locality", "political" ]
    }, {
      "long_name": "Tipton",
      "short_name": "Tipton",
      "types": [ "administrative_area_level_2", "political" ]
    }, {
      "long_name": "Tennessee",
      "short_name": "TN",
      "types": [ "administrative_area_level_1", "political" ]
    }, {
      "long_name": "United States",
      "short_name": "US",
      "types": [ "country", "political" ]
    } ],
    "geometry": {
      "location": {
        "lat": 35.4492499,
        "lng": -89.8150833
      },
      "location_type": "APPROXIMATE",
      "viewport": {
        "southwest": {
          "lat": 35.4128832,
          "lng": -89.8791130
        },
        "northeast": {
          "lat": 35.4856002,
          "lng": -89.7510536
        }
      },
      "bounds": {
        "southwest": {
          "lat": 35.3879040,
          "lng": -89.8527079
        },
        "northeast": {
          "lat": 35.4698939,
          "lng": -89.7569860
        }
      }
    }
  } ]
}
