{
  "status": "OK",
  "results": [ {
    "types": [ "locality", "political" ],
    "formatted_address": "Oak Ridge, TN, USA",
    "address_components": [ {
      "long_name": "Oak Ridge",
      "short_name": "Oak Ridge",
      "types": [ "locality", "political" ]
    }, {
      "long_name": "Anderson",
      "short_name": "Anderson",
      "types": [ "administrative_area_level_2", "political" ]
    }, {
      "long_name": "Tennessee",
      "short_name": "TN",
      "types": [ "administrative_area_level_1", "political" ]
    }, {
      "long_name": "United States",
      "short_name": "US",
      "types": [ "country", "political" ]
    } ],
    "geometry": {
      "location": {
        "lat": 36.0103561,
        "lng": -84.2696449
      },
      "location_type": "APPROXIMATE",
      "viewport": {
        "southwest": {
          "lat": 35.9381165,
          "lng": -84.3977043
        },
        "northeast": {
          "lat": 36.0825296,
          "lng": -84.1415855
        }
      },
      "bounds": {
        "southwest": {
          "lat": 35.8748650,
          "lng": -84.4363340
        },
        "northeast": {
          "lat": 36.0646879,
          "lng": -84.1556119
        }
      }
    }
  } ]
}
