{
  "status": "OK",
  "results": [ {
    "types": [ "locality", "political" ],
    "formatted_address": "Paris, TN, USA",
    "address_components": [ {
      "long_name": "Paris",
      "short_name": "Paris",
      "types": [ "locality", "political" ]
    }, {
      "long_name": "Henry",
      "short_name": "Henry",
      "types": [ "administrative_area_level_2", "political" ]
    }, {
      "long_name": "Tennessee",
      "short_name": "TN",
      "types": [ "administrative_area_level_1", "political" ]
    }, {
      "long_name": "United States",
      "short_name": "US",
      "types": [ "country", "political" ]
    } ],
    "geometry": {
      "location": {
        "lat": 36.3020023,
        "lng": -88.3267107
      },
      "location_type": "APPROXIMATE",
      "viewport": {
        "southwest": {
          "lat": 36.2660248,
          "lng": -88.3907404
        },
        "northeast": {
          "lat": 36.3379632,
          "lng": -88.2626810
        }
      },
      "bounds": {
        "southwest": {
          "lat": 36.2660000,
          "lng": -88.3671150
        },
        "northeast": {
          "lat": 36.3291320,
          "lng": -88.2650759
        }
      }
    }
  } ]
}
