{
  "status": "OK",
  "results": [ {
    "types": [ "locality", "political" ],
    "formatted_address": "Pikeville, TN, USA",
    "address_components": [ {
      "long_name": "Pikeville",
      "short_name": "Pikeville",
      "types": [ "locality", "political" ]
    }, {
      "long_name": "Bledsoe",
      "short_name": "Bledsoe",
      "types": [ "administrative_area_level_2", "political" ]
    }, {
      "long_name": "Tennessee",
      "short_name": "TN",
      "types": [ "administrative_area_level_1", "political" ]
    }, {
      "long_name": "United States",
      "short_name": "US",
      "types": [ "country", "political" ]
    } ],
    "geometry": {
      "location": {
        "lat": 35.6056231,
        "lng": -85.1888498
      },
      "location_type": "APPROXIMATE",
      "viewport": {
        "southwest": {
          "lat": 35.5874772,
          "lng": -85.2208646
        },
        "northeast": {
          "lat": 35.6237649,
          "lng": -85.1568350
        }
      },
      "bounds": {
        "southwest": {
          "lat": 35.5778989,
          "lng": -85.2223499
        },
        "northeast": {
          "lat": 35.6278409,
          "lng": -85.1837130
        }
      }
    }
  } ]
}
