{
  "status": "OK",
  "results": [ {
    "types": [ "locality", "political" ],
    "formatted_address": "Powells Crossroads, TN 37397, USA",
    "address_components": [ {
      "long_name": "Powells Crossroads",
      "short_name": "Powells Crossroads",
      "types": [ "locality", "political" ]
    }, {
      "long_name": "Whitwell",
      "short_name": "Whitwell",
      "types": [ "administrative_area_level_3", "political" ]
    }, {
      "long_name": "Marion",
      "short_name": "Marion",
      "types": [ "administrative_area_level_2", "political" ]
    }, {
      "long_name": "Tennessee",
      "short_name": "TN",
      "types": [ "administrative_area_level_1", "political" ]
    }, {
      "long_name": "United States",
      "short_name": "US",
      "types": [ "country", "political" ]
    }, {
      "long_name": "37397",
      "short_name": "37397",
      "types": [ "postal_code" ]
    } ],
    "geometry": {
      "location": {
        "lat": 35.1895180,
        "lng": -85.4857978
      },
      "location_type": "APPROXIMATE",
      "viewport": {
        "southwest": {
          "lat": 35.1712782,
          "lng": -85.5178126
        },
        "northeast": {
          "lat": 35.2077537,
          "lng": -85.4537830
        }
      },
      "bounds": {
        "southwest": {
          "lat": 35.1594879,
          "lng": -85.5083150
        },
        "northeast": {
          "lat": 35.2060430,
          "lng": -85.4559979
        }
      }
    }
  } ]
}
