{
  "status": "OK",
  "results": [ {
    "types": [ "locality", "political" ],
    "formatted_address": "Puryear, TN, USA",
    "address_components": [ {
      "long_name": "Puryear",
      "short_name": "Puryear",
      "types": [ "locality", "political" ]
    }, {
      "long_name": "Henry",
      "short_name": "Henry",
      "types": [ "administrative_area_level_2", "political" ]
    }, {
      "long_name": "Tennessee",
      "short_name": "TN",
      "types": [ "administrative_area_level_1", "political" ]
    }, {
      "long_name": "United States",
      "short_name": "US",
      "types": [ "country", "political" ]
    } ],
    "geometry": {
      "location": {
        "lat": 36.4442234,
        "lng": -88.3344865
      },
      "location_type": "APPROXIMATE",
      "viewport": {
        "southwest": {
          "lat": 36.4352470,
          "lng": -88.3504939
        },
        "northeast": {
          "lat": 36.4531988,
          "lng": -88.3184791
        }
      },
      "bounds": {
        "southwest": {
          "lat": 36.4295339,
          "lng": -88.3415770
        },
        "northeast": {
          "lat": 36.4632480,
          "lng": -88.3215240
        }
      }
    }
  } ]
}
