{
  "status": "OK",
  "results": [ {
    "types": [ "locality", "political" ],
    "formatted_address": "Ridgetop, TN, USA",
    "address_components": [ {
      "long_name": "Ridgetop",
      "short_name": "Ridgetop",
      "types": [ "locality", "political" ]
    }, {
      "long_name": "Robertson",
      "short_name": "Robertson",
      "types": [ "administrative_area_level_2", "political" ]
    }, {
      "long_name": "Tennessee",
      "short_name": "TN",
      "types": [ "administrative_area_level_1", "political" ]
    }, {
      "long_name": "United States",
      "short_name": "US",
      "types": [ "country", "political" ]
    } ],
    "geometry": {
      "location": {
        "lat": 36.3950488,
        "lng": -86.7794419
      },
      "location_type": "APPROXIMATE",
      "viewport": {
        "southwest": {
          "lat": 36.3770836,
          "lng": -86.8114567
        },
        "northeast": {
          "lat": 36.4130099,
          "lng": -86.7474271
        }
      },
      "bounds": {
        "southwest": {
          "lat": 36.3845729,
          "lng": -86.7982080
        },
        "northeast": {
          "lat": 36.4204469,
          "lng": -86.7465390
        }
      }
    }
  } ]
}
