{
  "status": "OK",
  "results": [ {
    "types": [ "locality", "political" ],
    "formatted_address": "Ridgely, TN, USA",
    "address_components": [ {
      "long_name": "Ridgely",
      "short_name": "Ridgely",
      "types": [ "locality", "political" ]
    }, {
      "long_name": "Lake",
      "short_name": "Lake",
      "types": [ "administrative_area_level_2", "political" ]
    }, {
      "long_name": "Tennessee",
      "short_name": "TN",
      "types": [ "administrative_area_level_1", "political" ]
    }, {
      "long_name": "United States",
      "short_name": "US",
      "types": [ "country", "political" ]
    } ],
    "geometry": {
      "location": {
        "lat": 36.2634010,
        "lng": -89.4878528
      },
      "location_type": "APPROXIMATE",
      "viewport": {
        "southwest": {
          "lat": 36.2454054,
          "lng": -89.5198676
        },
        "northeast": {
          "lat": 36.2813924,
          "lng": -89.4558380
        }
      },
      "bounds": {
        "southwest": {
          "lat": 36.2481140,
          "lng": -89.4950800
        },
        "northeast": {
          "lat": 36.2795009,
          "lng": -89.4660980
        }
      }
    }
  } ]
}
