{
  "status": "OK",
  "results": [ {
    "types": [ "locality", "political" ],
    "formatted_address": "Rockwood, TN, USA",
    "address_components": [ {
      "long_name": "Rockwood",
      "short_name": "Rockwood",
      "types": [ "locality", "political" ]
    }, {
      "long_name": "Roane",
      "short_name": "Roane",
      "types": [ "administrative_area_level_2", "political" ]
    }, {
      "long_name": "Tennessee",
      "short_name": "TN",
      "types": [ "administrative_area_level_1", "political" ]
    }, {
      "long_name": "United States",
      "short_name": "US",
      "types": [ "country", "political" ]
    } ],
    "geometry": {
      "location": {
        "lat": 35.8656284,
        "lng": -84.6849400
      },
      "location_type": "APPROXIMATE",
      "viewport": {
        "southwest": {
          "lat": 35.8294507,
          "lng": -84.7489697
        },
        "northeast": {
          "lat": 35.9017896,
          "lng": -84.6209103
        }
      },
      "bounds": {
        "southwest": {
          "lat": 35.8281300,
          "lng": -84.7144380
        },
        "northeast": {
          "lat": 35.8965300,
          "lng": -84.6093190
        }
      }
    }
  } ]
}
