{
  "status": "OK",
  "results": [ {
    "types": [ "locality", "political" ],
    "formatted_address": "Smithville, TN, USA",
    "address_components": [ {
      "long_name": "Smithville",
      "short_name": "Smithville",
      "types": [ "locality", "political" ]
    }, {
      "long_name": "DeKalb",
      "short_name": "DeKalb",
      "types": [ "administrative_area_level_2", "political" ]
    }, {
      "long_name": "Tennessee",
      "short_name": "TN",
      "types": [ "administrative_area_level_1", "political" ]
    }, {
      "long_name": "United States",
      "short_name": "US",
      "types": [ "country", "political" ]
    } ],
    "geometry": {
      "location": {
        "lat": 35.9606185,
        "lng": -85.8141516
      },
      "location_type": "APPROXIMATE",
      "viewport": {
        "southwest": {
          "lat": 35.9425534,
          "lng": -85.8461664
        },
        "northeast": {
          "lat": 35.9786795,
          "lng": -85.7821368
        }
      },
      "bounds": {
        "southwest": {
          "lat": 35.9335150,
          "lng": -85.8549889
        },
        "northeast": {
          "lat": 35.9926249,
          "lng": -85.7883090
        }
      }
    }
  } ]
}
