{
  "status": "OK",
  "results": [ {
    "types": [ "locality", "political" ],
    "formatted_address": "Soddy-Daisy, TN, USA",
    "address_components": [ {
      "long_name": "Soddy-Daisy",
      "short_name": "Soddy-Daisy",
      "types": [ "locality", "political" ]
    }, {
      "long_name": "Hamilton",
      "short_name": "Hamilton",
      "types": [ "administrative_area_level_2", "political" ]
    }, {
      "long_name": "Tennessee",
      "short_name": "TN",
      "types": [ "administrative_area_level_1", "political" ]
    }, {
      "long_name": "United States",
      "short_name": "US",
      "types": [ "country", "political" ]
    } ],
    "geometry": {
      "location": {
        "lat": 35.2359025,
        "lng": -85.1907904
      },
      "location_type": "APPROXIMATE",
      "viewport": {
        "southwest": {
          "lat": 35.1629604,
          "lng": -85.3188498
        },
        "northeast": {
          "lat": 35.3087790,
          "lng": -85.0627310
        }
      },
      "bounds": {
        "southwest": {
          "lat": 35.1852430,
          "lng": -85.2539580
        },
        "northeast": {
          "lat": 35.3335180,
          "lng": -85.1192210
        }
      }
    }
  } ]
}
