{
  "status": "OK",
  "results": [ {
    "types": [ "locality", "political" ],
    "formatted_address": "Sparta, TN, USA",
    "address_components": [ {
      "long_name": "Sparta",
      "short_name": "Sparta",
      "types": [ "locality", "political" ]
    }, {
      "long_name": "White",
      "short_name": "White",
      "types": [ "administrative_area_level_2", "political" ]
    }, {
      "long_name": "Tennessee",
      "short_name": "TN",
      "types": [ "administrative_area_level_1", "political" ]
    }, {
      "long_name": "United States",
      "short_name": "US",
      "types": [ "country", "political" ]
    } ],
    "geometry": {
      "location": {
        "lat": 35.9258985,
        "lng": -85.4641421
      },
      "location_type": "APPROXIMATE",
      "viewport": {
        "southwest": {
          "lat": 35.9078255,
          "lng": -85.4961569
        },
        "northeast": {
          "lat": 35.9439674,
          "lng": -85.4321273
        }
      },
      "bounds": {
        "southwest": {
          "lat": 35.9066170,
          "lng": -85.4977250
        },
        "northeast": {
          "lat": 35.9690070,
          "lng": -85.4413340
        }
      }
    }
  } ]
}
