{
  "status": "OK",
  "results": [ {
    "types": [ "locality", "political" ],
    "formatted_address": "Spring Hill, TN, USA",
    "address_components": [ {
      "long_name": "Spring Hill",
      "short_name": "Spring Hill",
      "types": [ "locality", "political" ]
    }, {
      "long_name": "Maury",
      "short_name": "Maury",
      "types": [ "administrative_area_level_2", "political" ]
    }, {
      "long_name": "Tennessee",
      "short_name": "TN",
      "types": [ "administrative_area_level_1", "political" ]
    }, {
      "long_name": "United States",
      "short_name": "US",
      "types": [ "country", "political" ]
    } ],
    "geometry": {
      "location": {
        "lat": 35.7511790,
        "lng": -86.9300023
      },
      "location_type": "APPROXIMATE",
      "viewport": {
        "southwest": {
          "lat": 35.7149492,
          "lng": -86.9940320
        },
        "northeast": {
          "lat": 35.7873924,
          "lng": -86.8659726
        }
      },
      "bounds": {
        "southwest": {
          "lat": 35.6900890,
          "lng": -86.9906429
        },
        "northeast": {
          "lat": 35.7949730,
          "lng": -86.8566220
        }
      }
    }
  } ]
}
