{
  "status": "OK",
  "results": [ {
    "types": [ "locality", "political" ],
    "formatted_address": "Surgoinsville, TN, USA",
    "address_components": [ {
      "long_name": "Surgoinsville",
      "short_name": "Surgoinsville",
      "types": [ "locality", "political" ]
    }, {
      "long_name": "Hawkins",
      "short_name": "Hawkins",
      "types": [ "administrative_area_level_2", "political" ]
    }, {
      "long_name": "Tennessee",
      "short_name": "TN",
      "types": [ "administrative_area_level_1", "political" ]
    }, {
      "long_name": "United States",
      "short_name": "US",
      "types": [ "country", "political" ]
    } ],
    "geometry": {
      "location": {
        "lat": 36.4709298,
        "lng": -82.8518290
      },
      "location_type": "APPROXIMATE",
      "viewport": {
        "southwest": {
          "lat": 36.4350303,
          "lng": -82.9158587
        },
        "northeast": {
          "lat": 36.5068127,
          "lng": -82.7877993
        }
      },
      "bounds": {
        "southwest": {
          "lat": 36.4517899,
          "lng": -82.9086289
        },
        "northeast": {
          "lat": 36.5106530,
          "lng": -82.7914289
        }
      }
    }
  } ]
}
