{
  "status": "OK",
  "results": [ {
    "types": [ "locality", "political" ],
    "formatted_address": "Tellico Plains, TN, USA",
    "address_components": [ {
      "long_name": "Tellico Plains",
      "short_name": "Tellico Plains",
      "types": [ "locality", "political" ]
    }, {
      "long_name": "Monroe",
      "short_name": "Monroe",
      "types": [ "administrative_area_level_2", "political" ]
    }, {
      "long_name": "Tennessee",
      "short_name": "TN",
      "types": [ "administrative_area_level_1", "political" ]
    }, {
      "long_name": "United States",
      "short_name": "US",
      "types": [ "country", "political" ]
    } ],
    "geometry": {
      "location": {
        "lat": 35.3628550,
        "lng": -84.2940870
      },
      "location_type": "APPROXIMATE",
      "viewport": {
        "southwest": {
          "lat": 35.3446542,
          "lng": -84.3261018
        },
        "northeast": {
          "lat": 35.3810517,
          "lng": -84.2620722
        }
      },
      "bounds": {
        "southwest": {
          "lat": 35.3525090,
          "lng": -84.3168960
        },
        "northeast": {
          "lat": 35.3877070,
          "lng": -84.2795419
        }
      }
    }
  } ]
}
