{
  "status": "OK",
  "results": [ {
    "types": [ "locality", "political" ],
    "formatted_address": "Toone, TN, USA",
    "address_components": [ {
      "long_name": "Toone",
      "short_name": "Toone",
      "types": [ "locality", "political" ]
    }, {
      "long_name": "Hardeman",
      "short_name": "Hardeman",
      "types": [ "administrative_area_level_2", "political" ]
    }, {
      "long_name": "Tennessee",
      "short_name": "TN",
      "types": [ "administrative_area_level_1", "political" ]
    }, {
      "long_name": "United States",
      "short_name": "US",
      "types": [ "country", "political" ]
    } ],
    "geometry": {
      "location": {
        "lat": 35.3523026,
        "lng": -88.9525607
      },
      "location_type": "APPROXIMATE",
      "viewport": {
        "southwest": {
          "lat": 35.3432015,
          "lng": -88.9685681
        },
        "northeast": {
          "lat": 35.3614027,
          "lng": -88.9365533
        }
      },
      "bounds": {
        "southwest": {
          "lat": 35.3430190,
          "lng": -88.9678570
        },
        "northeast": {
          "lat": 35.3706820,
          "lng": -88.9403770
        }
      }
    }
  } ]
}
