{
  "status": "OK",
  "results": [ {
    "types": [ "locality", "political" ],
    "formatted_address": "Trenton, TN, USA",
    "address_components": [ {
      "long_name": "Trenton",
      "short_name": "Trenton",
      "types": [ "locality", "political" ]
    }, {
      "long_name": "Gibson",
      "short_name": "Gibson",
      "types": [ "administrative_area_level_2", "political" ]
    }, {
      "long_name": "Tennessee",
      "short_name": "TN",
      "types": [ "administrative_area_level_1", "political" ]
    }, {
      "long_name": "United States",
      "short_name": "US",
      "types": [ "country", "political" ]
    } ],
    "geometry": {
      "location": {
        "lat": 35.9806239,
        "lng": -88.9414538
      },
      "location_type": "APPROXIMATE",
      "viewport": {
        "southwest": {
          "lat": 35.9444988,
          "lng": -89.0054835
        },
        "northeast": {
          "lat": 36.0167325,
          "lng": -88.8774241
        }
      },
      "bounds": {
        "southwest": {
          "lat": 35.9335540,
          "lng": -88.9766590
        },
        "northeast": {
          "lat": 36.0096130,
          "lng": -88.9227449
        }
      }
    }
  } ]
}
