{
  "status": "OK",
  "results": [ {
    "types": [ "locality", "political" ],
    "formatted_address": "Wartburg, TN, USA",
    "address_components": [ {
      "long_name": "Wartburg",
      "short_name": "Wartburg",
      "types": [ "locality", "political" ]
    }, {
      "long_name": "Morgan",
      "short_name": "Morgan",
      "types": [ "administrative_area_level_2", "political" ]
    }, {
      "long_name": "Tennessee",
      "short_name": "TN",
      "types": [ "administrative_area_level_1", "political" ]
    }, {
      "long_name": "United States",
      "short_name": "US",
      "types": [ "country", "political" ]
    } ],
    "geometry": {
      "location": {
        "lat": 36.1047979,
        "lng": -84.5971620
      },
      "location_type": "APPROXIMATE",
      "viewport": {
        "southwest": {
          "lat": 36.0957824,
          "lng": -84.6131694
        },
        "northeast": {
          "lat": 36.1138124,
          "lng": -84.5811546
        }
      },
      "bounds": {
        "southwest": {
          "lat": 36.0973780,
          "lng": -84.6034700
        },
        "northeast": {
          "lat": 36.1104689,
          "lng": -84.5712140
        }
      }
    }
  } ]
}
