{
  "status": "OK",
  "results": [ {
    "types": [ "locality", "political" ],
    "formatted_address": "Watertown, TN, USA",
    "address_components": [ {
      "long_name": "Watertown",
      "short_name": "Watertown",
      "types": [ "locality", "political" ]
    }, {
      "long_name": "Wilson",
      "short_name": "Wilson",
      "types": [ "administrative_area_level_2", "political" ]
    }, {
      "long_name": "Tennessee",
      "short_name": "TN",
      "types": [ "administrative_area_level_1", "political" ]
    }, {
      "long_name": "United States",
      "short_name": "US",
      "types": [ "country", "political" ]
    } ],
    "geometry": {
      "location": {
        "lat": 36.1003358,
        "lng": -86.1319341
      },
      "location_type": "APPROXIMATE",
      "viewport": {
        "southwest": {
          "lat": 36.0913198,
          "lng": -86.1479415
        },
        "northeast": {
          "lat": 36.1093508,
          "lng": -86.1159267
        }
      },
      "bounds": {
        "southwest": {
          "lat": 36.0916080,
          "lng": -86.1631280
        },
        "northeast": {
          "lat": 36.1105890,
          "lng": -86.1197880
        }
      }
    }
  } ]
}
