{
  "status": "OK",
  "results": [ {
    "types": [ "locality", "political" ],
    "formatted_address": "White Bluff, TN, USA",
    "address_components": [ {
      "long_name": "White Bluff",
      "short_name": "White Bluff",
      "types": [ "locality", "political" ]
    }, {
      "long_name": "Burns-White Bluff",
      "short_name": "Burns-White Bluff",
      "types": [ "administrative_area_level_3", "political" ]
    }, {
      "long_name": "Dickson",
      "short_name": "Dickson",
      "types": [ "administrative_area_level_2", "political" ]
    }, {
      "long_name": "Tennessee",
      "short_name": "TN",
      "types": [ "administrative_area_level_1", "political" ]
    }, {
      "long_name": "United States",
      "short_name": "US",
      "types": [ "country", "political" ]
    } ],
    "geometry": {
      "location": {
        "lat": 36.1075593,
        "lng": -87.2208409
      },
      "location_type": "APPROXIMATE",
      "viewport": {
        "southwest": {
          "lat": 36.0895279,
          "lng": -87.2528557
        },
        "northeast": {
          "lat": 36.1255866,
          "lng": -87.1888261
        }
      },
      "bounds": {
        "southwest": {
          "lat": 36.0852630,
          "lng": -87.2535499
        },
        "northeast": {
          "lat": 36.1312220,
          "lng": -87.1726429
        }
      }
    }
  } ]
}
