{
  "status": "OK",
  "results": [ {
    "types": [ "locality", "political" ],
    "formatted_address": "Whiteville, TN, USA",
    "address_components": [ {
      "long_name": "Whiteville",
      "short_name": "Whiteville",
      "types": [ "locality", "political" ]
    }, {
      "long_name": "Hardeman",
      "short_name": "Hardeman",
      "types": [ "administrative_area_level_2", "political" ]
    }, {
      "long_name": "Tennessee",
      "short_name": "TN",
      "types": [ "administrative_area_level_1", "political" ]
    }, {
      "long_name": "United States",
      "short_name": "US",
      "types": [ "country", "political" ]
    } ],
    "geometry": {
      "location": {
        "lat": 35.3264714,
        "lng": -89.1495102
      },
      "location_type": "APPROXIMATE",
      "viewport": {
        "southwest": {
          "lat": 35.3082624,
          "lng": -89.1815250
        },
        "northeast": {
          "lat": 35.3446763,
          "lng": -89.1174954
        }
      },
      "bounds": {
        "southwest": {
          "lat": 35.2832480,
          "lng": -89.1650849
        },
        "northeast": {
          "lat": 35.3366840,
          "lng": -89.1320339
        }
      }
    }
  } ]
}
