{
  "status": "OK",
  "results": [ {
    "types": [ "locality", "political" ],
    "formatted_address": "Winchester, TN, USA",
    "address_components": [ {
      "long_name": "Winchester",
      "short_name": "Winchester",
      "types": [ "locality", "political" ]
    }, {
      "long_name": "Franklin",
      "short_name": "Franklin",
      "types": [ "administrative_area_level_2", "political" ]
    }, {
      "long_name": "Tennessee",
      "short_name": "TN",
      "types": [ "administrative_area_level_1", "political" ]
    }, {
      "long_name": "United States",
      "short_name": "US",
      "types": [ "country", "political" ]
    } ],
    "geometry": {
      "location": {
        "lat": 35.1859163,
        "lng": -86.1122071
      },
      "location_type": "APPROXIMATE",
      "viewport": {
        "southwest": {
          "lat": 35.1494310,
          "lng": -86.1762368
        },
        "northeast": {
          "lat": 35.2223852,
          "lng": -86.0481774
        }
      },
      "bounds": {
        "southwest": {
          "lat": 35.1551240,
          "lng": -86.1647850
        },
        "northeast": {
          "lat": 35.2374880,
          "lng": -86.0399149
        }
      }
    }
  } ]
}
