{
  "status": "OK",
  "results": [ {
    "types": [ "locality", "political" ],
    "formatted_address": "Winfield, TN, USA",
    "address_components": [ {
      "long_name": "Winfield",
      "short_name": "Winfield",
      "types": [ "locality", "political" ]
    }, {
      "long_name": "Scott",
      "short_name": "Scott",
      "types": [ "administrative_area_level_2", "political" ]
    }, {
      "long_name": "Tennessee",
      "short_name": "TN",
      "types": [ "administrative_area_level_1", "political" ]
    }, {
      "long_name": "United States",
      "short_name": "US",
      "types": [ "country", "political" ]
    } ],
    "geometry": {
      "location": {
        "lat": 36.5559123,
        "lng": -84.4516041
      },
      "location_type": "APPROXIMATE",
      "viewport": {
        "southwest": {
          "lat": 36.5200522,
          "lng": -84.5156338
        },
        "northeast": {
          "lat": 36.5917558,
          "lng": -84.3875744
        }
      },
      "bounds": {
        "southwest": {
          "lat": 36.5236359,
          "lng": -84.4857220
        },
        "northeast": {
          "lat": 36.5961600,
          "lng": -84.4161280
        }
      }
    }
  } ]
}
