{
  "status": "OK",
  "results": [ {
    "types": [ "locality", "political" ],
    "formatted_address": "Alice, TX, USA",
    "address_components": [ {
      "long_name": "Alice",
      "short_name": "Alice",
      "types": [ "locality", "political" ]
    }, {
      "long_name": "Jim Wells",
      "short_name": "Jim Wells",
      "types": [ "administrative_area_level_2", "political" ]
    }, {
      "long_name": "Texas",
      "short_name": "TX",
      "types": [ "administrative_area_level_1", "political" ]
    }, {
      "long_name": "United States",
      "short_name": "US",
      "types": [ "country", "political" ]
    } ],
    "geometry": {
      "location": {
        "lat": 27.7522487,
        "lng": -98.0697249
      },
      "location_type": "APPROXIMATE",
      "viewport": {
        "southwest": {
          "lat": 27.7127436,
          "lng": -98.1337546
        },
        "northeast": {
          "lat": 27.7917394,
          "lng": -98.0056952
        }
      },
      "bounds": {
        "southwest": {
          "lat": 27.7134000,
          "lng": -98.1091170
        },
        "northeast": {
          "lat": 27.8058180,
          "lng": -98.0171189
        }
      }
    }
  } ]
}
