{
  "status": "OK",
  "results": [ {
    "types": [ "locality", "political" ],
    "formatted_address": "Allen, TX, USA",
    "address_components": [ {
      "long_name": "Allen",
      "short_name": "Allen",
      "types": [ "locality", "political" ]
    }, {
      "long_name": "Plano",
      "short_name": "Plano",
      "types": [ "administrative_area_level_3", "political" ]
    }, {
      "long_name": "Collin",
      "short_name": "Collin",
      "types": [ "administrative_area_level_2", "political" ]
    }, {
      "long_name": "Texas",
      "short_name": "TX",
      "types": [ "administrative_area_level_1", "political" ]
    }, {
      "long_name": "United States",
      "short_name": "US",
      "types": [ "country", "political" ]
    } ],
    "geometry": {
      "location": {
        "lat": 33.1031744,
        "lng": -96.6705503
      },
      "location_type": "APPROXIMATE",
      "viewport": {
        "southwest": {
          "lat": 33.0657788,
          "lng": -96.7345800
        },
        "northeast": {
          "lat": 33.1405541,
          "lng": -96.6065206
        }
      },
      "bounds": {
        "southwest": {
          "lat": 33.0708110,
          "lng": -96.7365750
        },
        "northeast": {
          "lat": 33.1575650,
          "lng": -96.6088089
        }
      }
    }
  } ]
}
