{
  "status": "OK",
  "results": [ {
    "types": [ "locality", "political" ],
    "formatted_address": "Angleton, TX, USA",
    "address_components": [ {
      "long_name": "Angleton",
      "short_name": "Angleton",
      "types": [ "locality", "political" ]
    }, {
      "long_name": "Brazoria",
      "short_name": "Brazoria",
      "types": [ "administrative_area_level_2", "political" ]
    }, {
      "long_name": "Texas",
      "short_name": "TX",
      "types": [ "administrative_area_level_1", "political" ]
    }, {
      "long_name": "United States",
      "short_name": "US",
      "types": [ "country", "political" ]
    } ],
    "geometry": {
      "location": {
        "lat": 29.1694100,
        "lng": -95.4318847
      },
      "location_type": "APPROXIMATE",
      "viewport": {
        "southwest": {
          "lat": 29.1304308,
          "lng": -95.4959144
        },
        "northeast": {
          "lat": 29.2083744,
          "lng": -95.3678550
        }
      },
      "bounds": {
        "southwest": {
          "lat": 29.0871860,
          "lng": -95.4599800
        },
        "northeast": {
          "lat": 29.2054890,
          "lng": -95.3932750
        }
      }
    }
  } ]
}
