{
  "status": "OK",
  "results": [ {
    "types": [ "locality", "political" ],
    "formatted_address": "Argyle, TX, USA",
    "address_components": [ {
      "long_name": "Argyle",
      "short_name": "Argyle",
      "types": [ "locality", "political" ]
    }, {
      "long_name": "Justin-Roanoke",
      "short_name": "Justin-Roanoke",
      "types": [ "administrative_area_level_3", "political" ]
    }, {
      "long_name": "Denton",
      "short_name": "Denton",
      "types": [ "administrative_area_level_2", "political" ]
    }, {
      "long_name": "Texas",
      "short_name": "TX",
      "types": [ "administrative_area_level_1", "political" ]
    }, {
      "long_name": "United States",
      "short_name": "US",
      "types": [ "country", "political" ]
    } ],
    "geometry": {
      "location": {
        "lat": 33.1212321,
        "lng": -97.1833475
      },
      "location_type": "APPROXIMATE",
      "viewport": {
        "southwest": {
          "lat": 33.0838442,
          "lng": -97.2473772
        },
        "northeast": {
          "lat": 33.1586041,
          "lng": -97.1193178
        }
      },
      "bounds": {
        "southwest": {
          "lat": 33.0855199,
          "lng": -97.2293540
        },
        "northeast": {
          "lat": 33.1346280,
          "lng": -97.1395070
        }
      }
    }
  } ]
}
