{
  "status": "OK",
  "results": [ {
    "types": [ "locality", "political" ],
    "formatted_address": "Baytown, TX, USA",
    "address_components": [ {
      "long_name": "Baytown",
      "short_name": "Baytown",
      "types": [ "locality", "political" ]
    }, {
      "long_name": "Harris",
      "short_name": "Harris",
      "types": [ "administrative_area_level_2", "political" ]
    }, {
      "long_name": "Texas",
      "short_name": "TX",
      "types": [ "administrative_area_level_1", "political" ]
    }, {
      "long_name": "United States",
      "short_name": "US",
      "types": [ "country", "political" ]
    } ],
    "geometry": {
      "location": {
        "lat": 29.7355047,
        "lng": -94.9774274
      },
      "location_type": "APPROXIMATE",
      "viewport": {
        "southwest": {
          "lat": 29.6579647,
          "lng": -95.1054868
        },
        "northeast": {
          "lat": 29.8129848,
          "lng": -94.8493680
        }
      },
      "bounds": {
        "southwest": {
          "lat": 29.6623710,
          "lng": -95.0565649
        },
        "northeast": {
          "lat": 29.8292690,
          "lng": -94.8489439
        }
      }
    }
  } ]
}
