{
  "status": "OK",
  "results": [ {
    "types": [ "locality", "political" ],
    "formatted_address": "Bellville, TX, USA",
    "address_components": [ {
      "long_name": "Bellville",
      "short_name": "Bellville",
      "types": [ "locality", "political" ]
    }, {
      "long_name": "Austin",
      "short_name": "Austin",
      "types": [ "administrative_area_level_2", "political" ]
    }, {
      "long_name": "Texas",
      "short_name": "TX",
      "types": [ "administrative_area_level_1", "political" ]
    }, {
      "long_name": "United States",
      "short_name": "US",
      "types": [ "country", "political" ]
    } ],
    "geometry": {
      "location": {
        "lat": 29.9502253,
        "lng": -96.2571858
      },
      "location_type": "APPROXIMATE",
      "viewport": {
        "southwest": {
          "lat": 29.9308875,
          "lng": -96.2892006
        },
        "northeast": {
          "lat": 29.9695593,
          "lng": -96.2251710
        }
      },
      "bounds": {
        "southwest": {
          "lat": 29.9235170,
          "lng": -96.2875310
        },
        "northeast": {
          "lat": 29.9657840,
          "lng": -96.2439390
        }
      }
    }
  } ]
}
