{
  "status": "OK",
  "results": [ {
    "types": [ "locality", "political" ],
    "formatted_address": "Beverly Hills, TX, USA",
    "address_components": [ {
      "long_name": "Beverly Hills",
      "short_name": "Beverly Hills",
      "types": [ "locality", "political" ]
    }, {
      "long_name": "Waco",
      "short_name": "Waco",
      "types": [ "administrative_area_level_3", "political" ]
    }, {
      "long_name": "McLennan",
      "short_name": "McLennan",
      "types": [ "administrative_area_level_2", "political" ]
    }, {
      "long_name": "Texas",
      "short_name": "TX",
      "types": [ "administrative_area_level_1", "political" ]
    }, {
      "long_name": "United States",
      "short_name": "US",
      "types": [ "country", "political" ]
    } ],
    "geometry": {
      "location": {
        "lat": 31.5215557,
        "lng": -97.1538919
      },
      "location_type": "APPROXIMATE",
      "viewport": {
        "southwest": {
          "lat": 31.5120437,
          "lng": -97.1698993
        },
        "northeast": {
          "lat": 31.5310668,
          "lng": -97.1378845
        }
      },
      "bounds": {
        "southwest": {
          "lat": 31.5122950,
          "lng": -97.1695809
        },
        "northeast": {
          "lat": 31.5318570,
          "lng": -97.1386390
        }
      }
    }
  } ]
}
