{
  "status": "OK",
  "results": [ {
    "types": [ "locality", "political" ],
    "formatted_address": "Bowie, TX, USA",
    "address_components": [ {
      "long_name": "Bowie",
      "short_name": "Bowie",
      "types": [ "locality", "political" ]
    }, {
      "long_name": "Montague",
      "short_name": "Montague",
      "types": [ "administrative_area_level_2", "political" ]
    }, {
      "long_name": "Texas",
      "short_name": "TX",
      "types": [ "administrative_area_level_1", "political" ]
    }, {
      "long_name": "United States",
      "short_name": "US",
      "types": [ "country", "political" ]
    } ],
    "geometry": {
      "location": {
        "lat": 33.5589953,
        "lng": -97.8486457
      },
      "location_type": "APPROXIMATE",
      "viewport": {
        "southwest": {
          "lat": 33.5403970,
          "lng": -97.8806605
        },
        "northeast": {
          "lat": 33.5775896,
          "lng": -97.8166309
        }
      },
      "bounds": {
        "southwest": {
          "lat": 33.5319639,
          "lng": -97.8694469
        },
        "northeast": {
          "lat": 33.5853800,
          "lng": -97.8178219
        }
      }
    }
  } ]
}
