{
  "status": "OK",
  "results": [ {
    "types": [ "locality", "political" ],
    "formatted_address": "Bullard, TX, USA",
    "address_components": [ {
      "long_name": "Bullard",
      "short_name": "Bullard",
      "types": [ "locality", "political" ]
    }, {
      "long_name": "Smith",
      "short_name": "Smith",
      "types": [ "administrative_area_level_2", "political" ]
    }, {
      "long_name": "Texas",
      "short_name": "TX",
      "types": [ "administrative_area_level_1", "political" ]
    }, {
      "long_name": "United States",
      "short_name": "US",
      "types": [ "country", "political" ]
    } ],
    "geometry": {
      "location": {
        "lat": 32.1398804,
        "lng": -95.3202290
      },
      "location_type": "APPROXIMATE",
      "viewport": {
        "southwest": {
          "lat": 32.1304319,
          "lng": -95.3362364
        },
        "northeast": {
          "lat": 32.1493280,
          "lng": -95.3042216
        }
      },
      "bounds": {
        "southwest": {
          "lat": 32.1287170,
          "lng": -95.3421209
        },
        "northeast": {
          "lat": 32.1570580,
          "lng": -95.3046940
        }
      }
    }
  } ]
}
