{
  "status": "OK",
  "results": [ {
    "types": [ "locality", "political" ],
    "formatted_address": "Burkburnett, TX, USA",
    "address_components": [ {
      "long_name": "Burkburnett",
      "short_name": "Burkburnett",
      "types": [ "locality", "political" ]
    }, {
      "long_name": "Wichita",
      "short_name": "Wichita",
      "types": [ "administrative_area_level_2", "political" ]
    }, {
      "long_name": "Texas",
      "short_name": "TX",
      "types": [ "administrative_area_level_1", "political" ]
    }, {
      "long_name": "United States",
      "short_name": "US",
      "types": [ "country", "political" ]
    } ],
    "geometry": {
      "location": {
        "lat": 34.0978711,
        "lng": -98.5706134
      },
      "location_type": "APPROXIMATE",
      "viewport": {
        "southwest": {
          "lat": 34.0609041,
          "lng": -98.6346431
        },
        "northeast": {
          "lat": 34.1348219,
          "lng": -98.5065837
        }
      },
      "bounds": {
        "southwest": {
          "lat": 34.0350279,
          "lng": -98.6050130
        },
        "northeast": {
          "lat": 34.1047230,
          "lng": -98.5170519
        }
      }
    }
  } ]
}
