{
  "status": "OK",
  "results": [ {
    "types": [ "locality", "political" ],
    "formatted_address": "Caddo Mills, TX, USA",
    "address_components": [ {
      "long_name": "Caddo Mills",
      "short_name": "Caddo Mills",
      "types": [ "locality", "political" ]
    }, {
      "long_name": "Hunt",
      "short_name": "Hunt",
      "types": [ "administrative_area_level_2", "political" ]
    }, {
      "long_name": "Texas",
      "short_name": "TX",
      "types": [ "administrative_area_level_1", "political" ]
    }, {
      "long_name": "United States",
      "short_name": "US",
      "types": [ "country", "political" ]
    } ],
    "geometry": {
      "location": {
        "lat": 33.0656732,
        "lng": -96.2277554
      },
      "location_type": "APPROXIMATE",
      "viewport": {
        "southwest": {
          "lat": 33.0469694,
          "lng": -96.2597702
        },
        "northeast": {
          "lat": 33.0843730,
          "lng": -96.1957406
        }
      },
      "bounds": {
        "southwest": {
          "lat": 33.0281090,
          "lng": -96.2526099
        },
        "northeast": {
          "lat": 33.0826050,
          "lng": -96.2095159
        }
      }
    }
  } ]
}
