{
  "status": "OK",
  "results": [ {
    "types": [ "locality", "political" ],
    "formatted_address": "Celina, TX, USA",
    "address_components": [ {
      "long_name": "Celina",
      "short_name": "Celina",
      "types": [ "locality", "political" ]
    }, {
      "long_name": "Collin",
      "short_name": "Collin",
      "types": [ "administrative_area_level_2", "political" ]
    }, {
      "long_name": "Texas",
      "short_name": "TX",
      "types": [ "administrative_area_level_1", "political" ]
    }, {
      "long_name": "United States",
      "short_name": "US",
      "types": [ "country", "political" ]
    } ],
    "geometry": {
      "location": {
        "lat": 33.3245586,
        "lng": -96.7844417
      },
      "location_type": "APPROXIMATE",
      "viewport": {
        "southwest": {
          "lat": 33.2499403,
          "lng": -96.9125011
        },
        "northeast": {
          "lat": 33.3991131,
          "lng": -96.6563823
        }
      },
      "bounds": {
        "southwest": {
          "lat": 33.2480330,
          "lng": -96.8391530
        },
        "northeast": {
          "lat": 33.4036640,
          "lng": -96.7136429
        }
      }
    }
  } ]
}
