{
  "status": "OK",
  "results": [ {
    "types": [ "locality", "political" ],
    "formatted_address": "Chillicothe, TX, USA",
    "address_components": [ {
      "long_name": "Chillicothe",
      "short_name": "Chillicothe",
      "types": [ "locality", "political" ]
    }, {
      "long_name": "Hardeman",
      "short_name": "Hardeman",
      "types": [ "administrative_area_level_2", "political" ]
    }, {
      "long_name": "Texas",
      "short_name": "TX",
      "types": [ "administrative_area_level_1", "political" ]
    }, {
      "long_name": "United States",
      "short_name": "US",
      "types": [ "country", "political" ]
    } ],
    "geometry": {
      "location": {
        "lat": 34.2564708,
        "lng": -99.5167558
      },
      "location_type": "APPROXIMATE",
      "viewport": {
        "southwest": {
          "lat": 34.2472479,
          "lng": -99.5327632
        },
        "northeast": {
          "lat": 34.2656927,
          "lng": -99.5007484
        }
      },
      "bounds": {
        "southwest": {
          "lat": 34.2423930,
          "lng": -99.5263519
        },
        "northeast": {
          "lat": 34.2655309,
          "lng": -99.5021979
        }
      }
    }
  } ]
}
