{
  "status": "OK",
  "results": [ {
    "types": [ "locality", "political" ],
    "formatted_address": "Clint, TX, USA",
    "address_components": [ {
      "long_name": "Clint",
      "short_name": "Clint",
      "types": [ "locality", "political" ]
    }, {
      "long_name": "El Paso East",
      "short_name": "El Paso East",
      "types": [ "administrative_area_level_3", "political" ]
    }, {
      "long_name": "El Paso",
      "short_name": "El Paso",
      "types": [ "administrative_area_level_2", "political" ]
    }, {
      "long_name": "Texas",
      "short_name": "TX",
      "types": [ "administrative_area_level_1", "political" ]
    }, {
      "long_name": "United States",
      "short_name": "US",
      "types": [ "country", "political" ]
    } ],
    "geometry": {
      "location": {
        "lat": 31.5923370,
        "lng": -106.2241449
      },
      "location_type": "APPROXIMATE",
      "viewport": {
        "southwest": {
          "lat": 31.5828322,
          "lng": -106.2401523
        },
        "northeast": {
          "lat": 31.6018409,
          "lng": -106.2081375
        }
      },
      "bounds": {
        "southwest": {
          "lat": 31.5754340,
          "lng": -106.2475910
        },
        "northeast": {
          "lat": 31.6034430,
          "lng": -106.2086610
        }
      }
    }
  } ]
}
