{
  "status": "OK",
  "results": [ {
    "types": [ "locality", "political" ],
    "formatted_address": "Commerce, TX, USA",
    "address_components": [ {
      "long_name": "Commerce",
      "short_name": "Commerce",
      "types": [ "locality", "political" ]
    }, {
      "long_name": "Hunt",
      "short_name": "Hunt",
      "types": [ "administrative_area_level_2", "political" ]
    }, {
      "long_name": "Texas",
      "short_name": "TX",
      "types": [ "administrative_area_level_1", "political" ]
    }, {
      "long_name": "United States",
      "short_name": "US",
      "types": [ "country", "political" ]
    } ],
    "geometry": {
      "location": {
        "lat": 33.2470567,
        "lng": -95.8999656
      },
      "location_type": "APPROXIMATE",
      "viewport": {
        "southwest": {
          "lat": 33.2097224,
          "lng": -95.9639953
        },
        "northeast": {
          "lat": 33.2843751,
          "lng": -95.8359359
        }
      },
      "bounds": {
        "southwest": {
          "lat": 33.2119790,
          "lng": -95.9379690
        },
        "northeast": {
          "lat": 33.3002860,
          "lng": -95.8738060
        }
      }
    }
  } ]
}
