{
  "status": "OK",
  "results": [ {
    "types": [ "locality", "political" ],
    "formatted_address": "Coppell, TX, USA",
    "address_components": [ {
      "long_name": "Coppell",
      "short_name": "Coppell",
      "types": [ "locality", "political" ]
    }, {
      "long_name": "Dallas",
      "short_name": "Dallas",
      "types": [ "administrative_area_level_2", "political" ]
    }, {
      "long_name": "Texas",
      "short_name": "TX",
      "types": [ "administrative_area_level_1", "political" ]
    }, {
      "long_name": "United States",
      "short_name": "US",
      "types": [ "country", "political" ]
    } ],
    "geometry": {
      "location": {
        "lat": 32.9545687,
        "lng": -97.0150078
      },
      "location_type": "APPROXIMATE",
      "viewport": {
        "southwest": {
          "lat": 32.9171100,
          "lng": -97.0790375
        },
        "northeast": {
          "lat": 32.9920115,
          "lng": -96.9509781
        }
      },
      "bounds": {
        "southwest": {
          "lat": 32.9226070,
          "lng": -97.0326240
        },
        "northeast": {
          "lat": 32.9945010,
          "lng": -96.9327270
        }
      }
    }
  } ]
}
