{
  "status": "OK",
  "results": [ {
    "types": [ "locality", "political" ],
    "formatted_address": "Corsicana, TX, USA",
    "address_components": [ {
      "long_name": "Corsicana",
      "short_name": "Corsicana",
      "types": [ "locality", "political" ]
    }, {
      "long_name": "Navarro",
      "short_name": "Navarro",
      "types": [ "administrative_area_level_2", "political" ]
    }, {
      "long_name": "Texas",
      "short_name": "TX",
      "types": [ "administrative_area_level_1", "political" ]
    }, {
      "long_name": "United States",
      "short_name": "US",
      "types": [ "country", "political" ]
    } ],
    "geometry": {
      "location": {
        "lat": 32.0954304,
        "lng": -96.4688727
      },
      "location_type": "APPROXIMATE",
      "viewport": {
        "southwest": {
          "lat": 32.0576120,
          "lng": -96.5329024
        },
        "northeast": {
          "lat": 32.1332332,
          "lng": -96.4048430
        }
      },
      "bounds": {
        "southwest": {
          "lat": 32.0200800,
          "lng": -96.5373149
        },
        "northeast": {
          "lat": 32.1312190,
          "lng": -96.3851140
        }
      }
    }
  } ]
}
