{
  "status": "OK",
  "results": [ {
    "types": [ "locality", "political" ],
    "formatted_address": "Crandall, TX, USA",
    "address_components": [ {
      "long_name": "Crandall",
      "short_name": "Crandall",
      "types": [ "locality", "political" ]
    }, {
      "long_name": "Kaufman",
      "short_name": "Kaufman",
      "types": [ "administrative_area_level_2", "political" ]
    }, {
      "long_name": "Texas",
      "short_name": "TX",
      "types": [ "administrative_area_level_1", "political" ]
    }, {
      "long_name": "United States",
      "short_name": "US",
      "types": [ "country", "political" ]
    } ],
    "geometry": {
      "location": {
        "lat": 32.6279113,
        "lng": -96.4558196
      },
      "location_type": "APPROXIMATE",
      "viewport": {
        "southwest": {
          "lat": 32.6091150,
          "lng": -96.4878344
        },
        "northeast": {
          "lat": 32.6467036,
          "lng": -96.4238048
        }
      },
      "bounds": {
        "southwest": {
          "lat": 32.5995960,
          "lng": -96.4821159
        },
        "northeast": {
          "lat": 32.6529180,
          "lng": -96.4083100
        }
      }
    }
  } ]
}
