{
  "status": "OK",
  "results": [ {
    "types": [ "locality", "political" ],
    "formatted_address": "Crystal City, TX, USA",
    "address_components": [ {
      "long_name": "Crystal City",
      "short_name": "Crystal City",
      "types": [ "locality", "political" ]
    }, {
      "long_name": "Zavala",
      "short_name": "Zavala",
      "types": [ "administrative_area_level_2", "political" ]
    }, {
      "long_name": "Texas",
      "short_name": "TX",
      "types": [ "administrative_area_level_1", "political" ]
    }, {
      "long_name": "United States",
      "short_name": "US",
      "types": [ "country", "political" ]
    } ],
    "geometry": {
      "location": {
        "lat": 28.6774795,
        "lng": -99.8281104
      },
      "location_type": "APPROXIMATE",
      "viewport": {
        "southwest": {
          "lat": 28.6578991,
          "lng": -99.8601252
        },
        "northeast": {
          "lat": 28.6970563,
          "lng": -99.7960956
        }
      },
      "bounds": {
        "southwest": {
          "lat": 28.6696280,
          "lng": -99.8414720
        },
        "northeast": {
          "lat": 28.7115630,
          "lng": -99.8086979
        }
      }
    }
  } ]
}
