{
  "status": "OK",
  "results": [ {
    "types": [ "locality", "political" ],
    "formatted_address": "Dilley, TX, USA",
    "address_components": [ {
      "long_name": "Dilley",
      "short_name": "Dilley",
      "types": [ "locality", "political" ]
    }, {
      "long_name": "Frio",
      "short_name": "Frio",
      "types": [ "administrative_area_level_2", "political" ]
    }, {
      "long_name": "Texas",
      "short_name": "TX",
      "types": [ "administrative_area_level_1", "political" ]
    }, {
      "long_name": "United States",
      "short_name": "US",
      "types": [ "country", "political" ]
    } ],
    "geometry": {
      "location": {
        "lat": 28.6674802,
        "lng": -99.1705887
      },
      "location_type": "APPROXIMATE",
      "viewport": {
        "southwest": {
          "lat": 28.6478979,
          "lng": -99.2026035
        },
        "northeast": {
          "lat": 28.6870588,
          "lng": -99.1385739
        }
      },
      "bounds": {
        "southwest": {
          "lat": 28.6550400,
          "lng": -99.1980739
        },
        "northeast": {
          "lat": 28.6841169,
          "lng": -99.1575869
        }
      }
    }
  } ]
}
