{
  "status": "OK",
  "results": [ {
    "types": [ "locality", "political" ],
    "formatted_address": "Dimmitt, TX, USA",
    "address_components": [ {
      "long_name": "Dimmitt",
      "short_name": "Dimmitt",
      "types": [ "locality", "political" ]
    }, {
      "long_name": "Dimmitt North",
      "short_name": "Dimmitt North",
      "types": [ "administrative_area_level_3", "political" ]
    }, {
      "long_name": "Castro",
      "short_name": "Castro",
      "types": [ "administrative_area_level_2", "political" ]
    }, {
      "long_name": "Texas",
      "short_name": "TX",
      "types": [ "administrative_area_level_1", "political" ]
    }, {
      "long_name": "United States",
      "short_name": "US",
      "types": [ "country", "political" ]
    } ],
    "geometry": {
      "location": {
        "lat": 34.5509028,
        "lng": -102.3118607
      },
      "location_type": "APPROXIMATE",
      "viewport": {
        "southwest": {
          "lat": 34.5325208,
          "lng": -102.3438755
        },
        "northeast": {
          "lat": 34.5692807,
          "lng": -102.2798459
        }
      },
      "bounds": {
        "southwest": {
          "lat": 34.5251310,
          "lng": -102.3417330
        },
        "northeast": {
          "lat": 34.5606200,
          "lng": -102.2976010
        }
      }
    }
  } ]
}
