{
  "status": "OK",
  "results": [ {
    "types": [ "locality", "political" ],
    "formatted_address": "Dumas, TX, USA",
    "address_components": [ {
      "long_name": "Dumas",
      "short_name": "Dumas",
      "types": [ "locality", "political" ]
    }, {
      "long_name": "Moore",
      "short_name": "Moore",
      "types": [ "administrative_area_level_2", "political" ]
    }, {
      "long_name": "Texas",
      "short_name": "TX",
      "types": [ "administrative_area_level_1", "political" ]
    }, {
      "long_name": "United States",
      "short_name": "US",
      "types": [ "country", "political" ]
    } ],
    "geometry": {
      "location": {
        "lat": 35.8655949,
        "lng": -101.9732353
      },
      "location_type": "APPROXIMATE",
      "viewport": {
        "southwest": {
          "lat": 35.8475081,
          "lng": -102.0052501
        },
        "northeast": {
          "lat": 35.8836776,
          "lng": -101.9412205
        }
      },
      "bounds": {
        "southwest": {
          "lat": 35.8339770,
          "lng": -101.9819710
        },
        "northeast": {
          "lat": 35.8944050,
          "lng": -101.9456690
        }
      }
    }
  } ]
}
