{
  "status": "OK",
  "results": [ {
    "types": [ "locality", "political" ],
    "formatted_address": "Duncanville, TX, USA",
    "address_components": [ {
      "long_name": "Duncanville",
      "short_name": "Duncanville",
      "types": [ "locality", "political" ]
    }, {
      "long_name": "Southwest",
      "short_name": "Southwest",
      "types": [ "administrative_area_level_3", "political" ]
    }, {
      "long_name": "Dallas",
      "short_name": "Dallas",
      "types": [ "administrative_area_level_2", "political" ]
    }, {
      "long_name": "Texas",
      "short_name": "TX",
      "types": [ "administrative_area_level_1", "political" ]
    }, {
      "long_name": "United States",
      "short_name": "US",
      "types": [ "country", "political" ]
    } ],
    "geometry": {
      "location": {
        "lat": 32.6518004,
        "lng": -96.9083366
      },
      "location_type": "APPROXIMATE",
      "viewport": {
        "southwest": {
          "lat": 32.6330092,
          "lng": -96.9403514
        },
        "northeast": {
          "lat": 32.6705877,
          "lng": -96.8763218
        }
      },
      "bounds": {
        "southwest": {
          "lat": 32.6187180,
          "lng": -96.9433140
        },
        "northeast": {
          "lat": 32.6766700,
          "lng": -96.8825810
        }
      }
    }
  } ]
}
