{
  "status": "OK",
  "results": [ {
    "types": [ "locality", "political" ],
    "formatted_address": "El Campo, TX, USA",
    "address_components": [ {
      "long_name": "El Campo",
      "short_name": "El Campo",
      "types": [ "locality", "political" ]
    }, {
      "long_name": "Wharton",
      "short_name": "Wharton",
      "types": [ "administrative_area_level_2", "political" ]
    }, {
      "long_name": "Texas",
      "short_name": "TX",
      "types": [ "administrative_area_level_1", "political" ]
    }, {
      "long_name": "United States",
      "short_name": "US",
      "types": [ "country", "political" ]
    } ],
    "geometry": {
      "location": {
        "lat": 29.1966405,
        "lng": -96.2696867
      },
      "location_type": "APPROXIMATE",
      "viewport": {
        "southwest": {
          "lat": 29.1771579,
          "lng": -96.3017015
        },
        "northeast": {
          "lat": 29.2161194,
          "lng": -96.2376719
        }
      },
      "bounds": {
        "southwest": {
          "lat": 29.1747880,
          "lng": -96.3065989
        },
        "northeast": {
          "lat": 29.2230980,
          "lng": -96.2334609
        }
      }
    }
  } ]
}
