{
  "status": "OK",
  "results": [ {
    "types": [ "locality", "political" ],
    "formatted_address": "Everman, TX 76140, USA",
    "address_components": [ {
      "long_name": "Everman",
      "short_name": "Everman",
      "types": [ "locality", "political" ]
    }, {
      "long_name": "Fort Worth",
      "short_name": "Fort Worth",
      "types": [ "administrative_area_level_3", "political" ]
    }, {
      "long_name": "Tarrant",
      "short_name": "Tarrant",
      "types": [ "administrative_area_level_2", "political" ]
    }, {
      "long_name": "Texas",
      "short_name": "TX",
      "types": [ "administrative_area_level_1", "political" ]
    }, {
      "long_name": "United States",
      "short_name": "US",
      "types": [ "country", "political" ]
    }, {
      "long_name": "76140",
      "short_name": "76140",
      "types": [ "postal_code" ]
    } ],
    "geometry": {
      "location": {
        "lat": 32.6309680,
        "lng": -97.2891817
      },
      "location_type": "APPROXIMATE",
      "viewport": {
        "southwest": {
          "lat": 32.6121724,
          "lng": -97.3211965
        },
        "northeast": {
          "lat": 32.6497597,
          "lng": -97.2571669
        }
      },
      "bounds": {
        "southwest": {
          "lat": 32.6164870,
          "lng": -97.3013010
        },
        "northeast": {
          "lat": 32.6433369,
          "lng": -97.2614409
        }
      }
    }
  } ]
}
