{
  "status": "OK",
  "results": [ {
    "types": [ "locality", "political" ],
    "formatted_address": "Farmersville, TX, USA",
    "address_components": [ {
      "long_name": "Farmersville",
      "short_name": "Farmersville",
      "types": [ "locality", "political" ]
    }, {
      "long_name": "Collin",
      "short_name": "Collin",
      "types": [ "administrative_area_level_2", "political" ]
    }, {
      "long_name": "Texas",
      "short_name": "TX",
      "types": [ "administrative_area_level_1", "political" ]
    }, {
      "long_name": "United States",
      "short_name": "US",
      "types": [ "country", "political" ]
    } ],
    "geometry": {
      "location": {
        "lat": 33.1634493,
        "lng": -96.3599821
      },
      "location_type": "APPROXIMATE",
      "viewport": {
        "southwest": {
          "lat": 33.1260793,
          "lng": -96.4240118
        },
        "northeast": {
          "lat": 33.2008034,
          "lng": -96.2959524
        }
      },
      "bounds": {
        "southwest": {
          "lat": 33.1061160,
          "lng": -96.4233299
        },
        "northeast": {
          "lat": 33.2255959,
          "lng": -96.2958000
        }
      }
    }
  } ]
}
