{
  "status": "OK",
  "results": [ {
    "types": [ "locality", "political" ],
    "formatted_address": "Farwell, TX, USA",
    "address_components": [ {
      "long_name": "Farwell",
      "short_name": "Farwell",
      "types": [ "locality", "political" ]
    }, {
      "long_name": "Parmer",
      "short_name": "Parmer",
      "types": [ "administrative_area_level_2", "political" ]
    }, {
      "long_name": "Texas",
      "short_name": "TX",
      "types": [ "administrative_area_level_1", "political" ]
    }, {
      "long_name": "United States",
      "short_name": "US",
      "types": [ "country", "political" ]
    } ],
    "geometry": {
      "location": {
        "lat": 34.3834090,
        "lng": -103.0380016
      },
      "location_type": "APPROXIMATE",
      "viewport": {
        "southwest": {
          "lat": 34.3742001,
          "lng": -103.0540090
        },
        "northeast": {
          "lat": 34.3926169,
          "lng": -103.0219942
        }
      },
      "bounds": {
        "southwest": {
          "lat": 34.3763260,
          "lng": -103.0437800
        },
        "northeast": {
          "lat": 34.3971170,
          "lng": -103.0262590
        }
      }
    }
  } ]
}
