{
  "status": "OK",
  "results": [ {
    "types": [ "locality", "political" ],
    "formatted_address": "Flatonia, TX, USA",
    "address_components": [ {
      "long_name": "Flatonia",
      "short_name": "Flatonia",
      "types": [ "locality", "political" ]
    }, {
      "long_name": "Fayette",
      "short_name": "Fayette",
      "types": [ "administrative_area_level_2", "political" ]
    }, {
      "long_name": "Texas",
      "short_name": "TX",
      "types": [ "administrative_area_level_1", "political" ]
    }, {
      "long_name": "United States",
      "short_name": "US",
      "types": [ "country", "political" ]
    } ],
    "geometry": {
      "location": {
        "lat": 29.6877325,
        "lng": -97.1085972
      },
      "location_type": "APPROXIMATE",
      "viewport": {
        "southwest": {
          "lat": 29.6780387,
          "lng": -97.1246046
        },
        "northeast": {
          "lat": 29.6974254,
          "lng": -97.0925898
        }
      },
      "bounds": {
        "southwest": {
          "lat": 29.6787470,
          "lng": -97.1172799
        },
        "northeast": {
          "lat": 29.7036080,
          "lng": -97.0898979
        }
      }
    }
  } ]
}
