{
  "status": "OK",
  "results": [ {
    "types": [ "locality", "political" ],
    "formatted_address": "Florence, TX, USA",
    "address_components": [ {
      "long_name": "Florence",
      "short_name": "Florence",
      "types": [ "locality", "political" ]
    }, {
      "long_name": "Williamson",
      "short_name": "Williamson",
      "types": [ "administrative_area_level_2", "political" ]
    }, {
      "long_name": "Texas",
      "short_name": "TX",
      "types": [ "administrative_area_level_1", "political" ]
    }, {
      "long_name": "United States",
      "short_name": "US",
      "types": [ "country", "political" ]
    } ],
    "geometry": {
      "location": {
        "lat": 30.8412954,
        "lng": -97.7936268
      },
      "location_type": "APPROXIMATE",
      "viewport": {
        "southwest": {
          "lat": 30.8317148,
          "lng": -97.8096342
        },
        "northeast": {
          "lat": 30.8508751,
          "lng": -97.7776194
        }
      },
      "bounds": {
        "southwest": {
          "lat": 30.8295410,
          "lng": -97.8009979
        },
        "northeast": {
          "lat": 30.8508450,
          "lng": -97.7849239
        }
      }
    }
  } ]
}
