{
  "status": "OK",
  "results": [ {
    "types": [ "locality", "political" ],
    "formatted_address": "Forney, TX, USA",
    "address_components": [ {
      "long_name": "Forney",
      "short_name": "Forney",
      "types": [ "locality", "political" ]
    }, {
      "long_name": "Kaufman",
      "short_name": "Kaufman",
      "types": [ "administrative_area_level_2", "political" ]
    }, {
      "long_name": "Texas",
      "short_name": "TX",
      "types": [ "administrative_area_level_1", "political" ]
    }, {
      "long_name": "United States",
      "short_name": "US",
      "types": [ "country", "political" ]
    } ],
    "geometry": {
      "location": {
        "lat": 32.7481845,
        "lng": -96.4719312
      },
      "location_type": "APPROXIMATE",
      "viewport": {
        "southwest": {
          "lat": 32.7106386,
          "lng": -96.5359609
        },
        "northeast": {
          "lat": 32.7857146,
          "lng": -96.4079015
        }
      },
      "bounds": {
        "southwest": {
          "lat": 32.7057060,
          "lng": -96.4947250
        },
        "northeast": {
          "lat": 32.7798480,
          "lng": -96.3926560
        }
      }
    }
  } ]
}
