{
  "status": "OK",
  "results": [ {
    "types": [ "locality", "political" ],
    "formatted_address": "Gilmer, TX, USA",
    "address_components": [ {
      "long_name": "Gilmer",
      "short_name": "Gilmer",
      "types": [ "locality", "political" ]
    }, {
      "long_name": "Upshur",
      "short_name": "Upshur",
      "types": [ "administrative_area_level_2", "political" ]
    }, {
      "long_name": "Texas",
      "short_name": "TX",
      "types": [ "administrative_area_level_1", "political" ]
    }, {
      "long_name": "United States",
      "short_name": "US",
      "types": [ "country", "political" ]
    } ],
    "geometry": {
      "location": {
        "lat": 32.7287472,
        "lng": -94.9424379
      },
      "location_type": "APPROXIMATE",
      "viewport": {
        "southwest": {
          "lat": 32.7099721,
          "lng": -94.9744527
        },
        "northeast": {
          "lat": 32.7475183,
          "lng": -94.9104231
        }
      },
      "bounds": {
        "southwest": {
          "lat": 32.6970650,
          "lng": -94.9769029
        },
        "northeast": {
          "lat": 32.7626390,
          "lng": -94.9204920
        }
      }
    }
  } ]
}
