{
  "status": "OK",
  "results": [ {
    "types": [ "locality", "political" ],
    "formatted_address": "Gladewater, TX, USA",
    "address_components": [ {
      "long_name": "Gladewater",
      "short_name": "Gladewater",
      "types": [ "locality", "political" ]
    }, {
      "long_name": "Gregg",
      "short_name": "Gregg",
      "types": [ "administrative_area_level_2", "political" ]
    }, {
      "long_name": "Texas",
      "short_name": "TX",
      "types": [ "administrative_area_level_1", "political" ]
    }, {
      "long_name": "United States",
      "short_name": "US",
      "types": [ "country", "political" ]
    } ],
    "geometry": {
      "location": {
        "lat": 32.5365333,
        "lng": -94.9427168
      },
      "location_type": "APPROXIMATE",
      "viewport": {
        "southwest": {
          "lat": 32.4988985,
          "lng": -95.0067465
        },
        "northeast": {
          "lat": 32.5741523,
          "lng": -94.8786871
        }
      },
      "bounds": {
        "southwest": {
          "lat": 32.5097710,
          "lng": -94.9863680
        },
        "northeast": {
          "lat": 32.5847100,
          "lng": -94.9033480
        }
      }
    }
  } ]
}
