{
  "status": "OK",
  "results": [ {
    "types": [ "locality", "political" ],
    "formatted_address": "Godley, TX, USA",
    "address_components": [ {
      "long_name": "Godley",
      "short_name": "Godley",
      "types": [ "locality", "political" ]
    }, {
      "long_name": "Johnson",
      "short_name": "Johnson",
      "types": [ "administrative_area_level_2", "political" ]
    }, {
      "long_name": "Texas",
      "short_name": "TX",
      "types": [ "administrative_area_level_1", "political" ]
    }, {
      "long_name": "United States",
      "short_name": "US",
      "types": [ "country", "political" ]
    } ],
    "geometry": {
      "location": {
        "lat": 32.4490290,
        "lng": -97.5266886
      },
      "location_type": "APPROXIMATE",
      "viewport": {
        "southwest": {
          "lat": 32.4301953,
          "lng": -97.5587034
        },
        "northeast": {
          "lat": 32.4678588,
          "lng": -97.4946738
        }
      },
      "bounds": {
        "southwest": {
          "lat": 32.4363419,
          "lng": -97.5512870
        },
        "northeast": {
          "lat": 32.4636140,
          "lng": -97.5205929
        }
      }
    }
  } ]
}
