{
  "status": "OK",
  "results": [ {
    "types": [ "locality", "political" ],
    "formatted_address": "Grapevine, TX, USA",
    "address_components": [ {
      "long_name": "Grapevine",
      "short_name": "Grapevine",
      "types": [ "locality", "political" ]
    }, {
      "long_name": "Tarrant",
      "short_name": "Tarrant",
      "types": [ "administrative_area_level_2", "political" ]
    }, {
      "long_name": "Texas",
      "short_name": "TX",
      "types": [ "administrative_area_level_1", "political" ]
    }, {
      "long_name": "United States",
      "short_name": "US",
      "types": [ "country", "political" ]
    } ],
    "geometry": {
      "location": {
        "lat": 32.9342919,
        "lng": -97.0780654
      },
      "location_type": "APPROXIMATE",
      "viewport": {
        "southwest": {
          "lat": 32.8968246,
          "lng": -97.1420951
        },
        "northeast": {
          "lat": 32.9717433,
          "lng": -97.0140357
        }
      },
      "bounds": {
        "southwest": {
          "lat": 32.8784930,
          "lng": -97.1296689
        },
        "northeast": {
          "lat": 32.9936430,
          "lng": -97.0158210
        }
      }
    }
  } ]
}
