{
  "status": "OK",
  "results": [ {
    "types": [ "locality", "political" ],
    "formatted_address": "Hemphill, TX, USA",
    "address_components": [ {
      "long_name": "Hemphill",
      "short_name": "Hemphill",
      "types": [ "locality", "political" ]
    }, {
      "long_name": "Sabine",
      "short_name": "Sabine",
      "types": [ "administrative_area_level_2", "political" ]
    }, {
      "long_name": "Texas",
      "short_name": "TX",
      "types": [ "administrative_area_level_1", "political" ]
    }, {
      "long_name": "United States",
      "short_name": "US",
      "types": [ "country", "political" ]
    } ],
    "geometry": {
      "location": {
        "lat": 31.3407403,
        "lng": -93.8468520
      },
      "location_type": "APPROXIMATE",
      "viewport": {
        "southwest": {
          "lat": 31.3312099,
          "lng": -93.8628594
        },
        "northeast": {
          "lat": 31.3502697,
          "lng": -93.8308446
        }
      },
      "bounds": {
        "southwest": {
          "lat": 31.3306840,
          "lng": -93.8749820
        },
        "northeast": {
          "lat": 31.3564430,
          "lng": -93.8342469
        }
      }
    }
  } ]
}
