{
  "status": "OK",
  "results": [ {
    "types": [ "locality", "political" ],
    "formatted_address": "Hempstead, TX, USA",
    "address_components": [ {
      "long_name": "Hempstead",
      "short_name": "Hempstead",
      "types": [ "locality", "political" ]
    }, {
      "long_name": "Waller",
      "short_name": "Waller",
      "types": [ "administrative_area_level_2", "political" ]
    }, {
      "long_name": "Texas",
      "short_name": "TX",
      "types": [ "administrative_area_level_1", "political" ]
    }, {
      "long_name": "United States",
      "short_name": "US",
      "types": [ "country", "political" ]
    } ],
    "geometry": {
      "location": {
        "lat": 30.0974405,
        "lng": -96.0782918
      },
      "location_type": "APPROXIMATE",
      "viewport": {
        "southwest": {
          "lat": 30.0781314,
          "lng": -96.1103066
        },
        "northeast": {
          "lat": 30.1167458,
          "lng": -96.0462770
        }
      },
      "bounds": {
        "southwest": {
          "lat": 30.0773350,
          "lng": -96.1113610
        },
        "northeast": {
          "lat": 30.1270499,
          "lng": -96.0458230
        }
      }
    }
  } ]
}
