{
  "status": "OK",
  "results": [ {
    "types": [ "locality", "political" ],
    "formatted_address": "Henderson, TX, USA",
    "address_components": [ {
      "long_name": "Henderson",
      "short_name": "Henderson",
      "types": [ "locality", "political" ]
    }, {
      "long_name": "Rusk",
      "short_name": "Rusk",
      "types": [ "administrative_area_level_2", "political" ]
    }, {
      "long_name": "Texas",
      "short_name": "TX",
      "types": [ "administrative_area_level_1", "political" ]
    }, {
      "long_name": "United States",
      "short_name": "US",
      "types": [ "country", "political" ]
    } ],
    "geometry": {
      "location": {
        "lat": 32.1532156,
        "lng": -94.7993802
      },
      "location_type": "APPROXIMATE",
      "viewport": {
        "southwest": {
          "lat": 32.1154211,
          "lng": -94.8634099
        },
        "northeast": {
          "lat": 32.1909944,
          "lng": -94.7353505
        }
      },
      "bounds": {
        "southwest": {
          "lat": 32.1213160,
          "lng": -94.8357259
        },
        "northeast": {
          "lat": 32.1973410,
          "lng": -94.7518889
        }
      }
    }
  } ]
}
