{
  "status": "OK",
  "results": [ {
    "types": [ "locality", "political" ],
    "formatted_address": "Highland Village, TX, USA",
    "address_components": [ {
      "long_name": "Highland Village",
      "short_name": "Highland Village",
      "types": [ "locality", "political" ]
    }, {
      "long_name": "Lewisville",
      "short_name": "Lewisville",
      "types": [ "administrative_area_level_3", "political" ]
    }, {
      "long_name": "Denton",
      "short_name": "Denton",
      "types": [ "administrative_area_level_2", "political" ]
    }, {
      "long_name": "Texas",
      "short_name": "TX",
      "types": [ "administrative_area_level_1", "political" ]
    }, {
      "long_name": "United States",
      "short_name": "US",
      "types": [ "country", "political" ]
    } ],
    "geometry": {
      "location": {
        "lat": 33.0917880,
        "lng": -97.0466759
      },
      "location_type": "APPROXIMATE",
      "viewport": {
        "southwest": {
          "lat": 33.0730898,
          "lng": -97.0786907
        },
        "northeast": {
          "lat": 33.1104823,
          "lng": -97.0146611
        }
      },
      "bounds": {
        "southwest": {
          "lat": 33.0715099,
          "lng": -97.0879499
        },
        "northeast": {
          "lat": 33.1177099,
          "lng": -97.0277270
        }
      }
    }
  } ]
}
