{
  "status": "OK",
  "results": [ {
    "types": [ "locality", "political" ],
    "formatted_address": "Hitchcock, TX, USA",
    "address_components": [ {
      "long_name": "Hitchcock",
      "short_name": "Hitchcock",
      "types": [ "locality", "political" ]
    }, {
      "long_name": "Galveston",
      "short_name": "Galveston",
      "types": [ "administrative_area_level_2", "political" ]
    }, {
      "long_name": "Texas",
      "short_name": "TX",
      "types": [ "administrative_area_level_1", "political" ]
    }, {
      "long_name": "United States",
      "short_name": "US",
      "types": [ "country", "political" ]
    } ],
    "geometry": {
      "location": {
        "lat": 29.3482905,
        "lng": -95.0160368
      },
      "location_type": "APPROXIMATE",
      "viewport": {
        "southwest": {
          "lat": 29.1925569,
          "lng": -95.2721556
        },
        "northeast": {
          "lat": 29.5037865,
          "lng": -94.7599180
        }
      },
      "bounds": {
        "southwest": {
          "lat": 29.1477120,
          "lng": -95.1450400
        },
        "northeast": {
          "lat": 29.3751860,
          "lng": -94.9057589
        }
      }
    }
  } ]
}
