{
  "status": "OK",
  "results": [ {
    "types": [ "locality", "political" ],
    "formatted_address": "Hooks, TX, USA",
    "address_components": [ {
      "long_name": "Hooks",
      "short_name": "Hooks",
      "types": [ "locality", "political" ]
    }, {
      "long_name": "Bowie",
      "short_name": "Bowie",
      "types": [ "administrative_area_level_2", "political" ]
    }, {
      "long_name": "Texas",
      "short_name": "TX",
      "types": [ "administrative_area_level_1", "political" ]
    }, {
      "long_name": "United States",
      "short_name": "US",
      "types": [ "country", "political" ]
    } ],
    "geometry": {
      "location": {
        "lat": 33.4662328,
        "lng": -94.2885306
      },
      "location_type": "APPROXIMATE",
      "viewport": {
        "southwest": {
          "lat": 33.4476146,
          "lng": -94.3205454
        },
        "northeast": {
          "lat": 33.4848470,
          "lng": -94.2565158
        }
      },
      "bounds": {
        "southwest": {
          "lat": 33.4643109,
          "lng": -94.3135410
        },
        "northeast": {
          "lat": 33.4848549,
          "lng": -94.2589550
        }
      }
    }
  } ]
}
