{
  "status": "OK",
  "results": [ {
    "types": [ "locality", "political" ],
    "formatted_address": "Horizon City, TX 79928, USA",
    "address_components": [ {
      "long_name": "Horizon City",
      "short_name": "Horizon City",
      "types": [ "locality", "political" ]
    }, {
      "long_name": "El Paso East",
      "short_name": "El Paso East",
      "types": [ "administrative_area_level_3", "political" ]
    }, {
      "long_name": "El Paso",
      "short_name": "El Paso",
      "types": [ "administrative_area_level_2", "political" ]
    }, {
      "long_name": "Texas",
      "short_name": "TX",
      "types": [ "administrative_area_level_1", "political" ]
    }, {
      "long_name": "United States",
      "short_name": "US",
      "types": [ "country", "political" ]
    }, {
      "long_name": "79928",
      "short_name": "79928",
      "types": [ "postal_code" ]
    } ],
    "geometry": {
      "location": {
        "lat": 31.6926121,
        "lng": -106.2074793
      },
      "location_type": "APPROXIMATE",
      "viewport": {
        "southwest": {
          "lat": 31.6546279,
          "lng": -106.2715090
        },
        "northeast": {
          "lat": 31.7305807,
          "lng": -106.1434496
        }
      },
      "bounds": {
        "southwest": {
          "lat": 31.6394230,
          "lng": -106.2194150
        },
        "northeast": {
          "lat": 31.7118060,
          "lng": -106.1643350
        }
      }
    }
  } ]
}
