{
  "status": "OK",
  "results": [ {
    "types": [ "locality", "political" ],
    "formatted_address": "Horseshoe Bay, TX, USA",
    "address_components": [ {
      "long_name": "Horseshoe Bay",
      "short_name": "Horseshoe Bay",
      "types": [ "locality", "political" ]
    }, {
      "long_name": "Llano",
      "short_name": "Llano",
      "types": [ "administrative_area_level_2", "political" ]
    }, {
      "long_name": "Texas",
      "short_name": "TX",
      "types": [ "administrative_area_level_1", "political" ]
    }, {
      "long_name": "United States",
      "short_name": "US",
      "types": [ "country", "political" ]
    } ],
    "geometry": {
      "location": {
        "lat": 30.5447222,
        "lng": -98.3683333
      },
      "location_type": "APPROXIMATE",
      "viewport": {
        "southwest": {
          "lat": 30.5062761,
          "lng": -98.4323630
        },
        "northeast": {
          "lat": 30.5831531,
          "lng": -98.3043036
        }
      },
      "bounds": {
        "southwest": {
          "lat": 30.5188200,
          "lng": -98.4312150
        },
        "northeast": {
          "lat": 30.5645049,
          "lng": -98.3188479
        }
      }
    }
  } ]
}
