{
  "status": "OK",
  "results": [ {
    "types": [ "locality", "political" ],
    "formatted_address": "Hutto, TX, USA",
    "address_components": [ {
      "long_name": "Hutto",
      "short_name": "Hutto",
      "types": [ "locality", "political" ]
    }, {
      "long_name": "Taylor",
      "short_name": "Taylor",
      "types": [ "administrative_area_level_3", "political" ]
    }, {
      "long_name": "Williamson",
      "short_name": "Williamson",
      "types": [ "administrative_area_level_2", "political" ]
    }, {
      "long_name": "Texas",
      "short_name": "TX",
      "types": [ "administrative_area_level_1", "political" ]
    }, {
      "long_name": "United States",
      "short_name": "US",
      "types": [ "country", "political" ]
    } ],
    "geometry": {
      "location": {
        "lat": 30.5426995,
        "lng": -97.5466702
      },
      "location_type": "APPROXIMATE",
      "viewport": {
        "southwest": {
          "lat": 30.5234779,
          "lng": -97.5786850
        },
        "northeast": {
          "lat": 30.5619172,
          "lng": -97.5146554
        }
      },
      "bounds": {
        "southwest": {
          "lat": 30.5073050,
          "lng": -97.5834330
        },
        "northeast": {
          "lat": 30.5710500,
          "lng": -97.5161420
        }
      }
    }
  } ]
}
