{
  "status": "OK",
  "results": [ {
    "types": [ "locality", "political" ],
    "formatted_address": "Italy, TX, USA",
    "address_components": [ {
      "long_name": "Italy",
      "short_name": "Italy",
      "types": [ "locality", "political" ]
    }, {
      "long_name": "Ellis",
      "short_name": "Ellis",
      "types": [ "administrative_area_level_2", "political" ]
    }, {
      "long_name": "Texas",
      "short_name": "TX",
      "types": [ "administrative_area_level_1", "political" ]
    }, {
      "long_name": "United States",
      "short_name": "US",
      "types": [ "country", "political" ]
    } ],
    "geometry": {
      "location": {
        "lat": 32.1840381,
        "lng": -96.8847194
      },
      "location_type": "APPROXIMATE",
      "viewport": {
        "southwest": {
          "lat": 32.1651492,
          "lng": -96.9167342
        },
        "northeast": {
          "lat": 32.2029231,
          "lng": -96.8527046
        }
      },
      "bounds": {
        "southwest": {
          "lat": 32.1643810,
          "lng": -96.9079390
        },
        "northeast": {
          "lat": 32.2062890,
          "lng": -96.8616689
        }
      }
    }
  } ]
}
