{
  "status": "OK",
  "results": [ {
    "types": [ "locality", "political" ],
    "formatted_address": "Kennedale, TX, USA",
    "address_components": [ {
      "long_name": "Kennedale",
      "short_name": "Kennedale",
      "types": [ "locality", "political" ]
    }, {
      "long_name": "Tarrant",
      "short_name": "Tarrant",
      "types": [ "administrative_area_level_2", "political" ]
    }, {
      "long_name": "Texas",
      "short_name": "TX",
      "types": [ "administrative_area_level_1", "political" ]
    }, {
      "long_name": "United States",
      "short_name": "US",
      "types": [ "country", "political" ]
    } ],
    "geometry": {
      "location": {
        "lat": 32.6468010,
        "lng": -97.2258465
      },
      "location_type": "APPROXIMATE",
      "viewport": {
        "southwest": {
          "lat": 32.6280087,
          "lng": -97.2578613
        },
        "northeast": {
          "lat": 32.6655893,
          "lng": -97.1938317
        }
      },
      "bounds": {
        "southwest": {
          "lat": 32.6216850,
          "lng": -97.2446449
        },
        "northeast": {
          "lat": 32.6681740,
          "lng": -97.1888159
        }
      }
    }
  } ]
}
