{
  "status": "OK",
  "results": [ {
    "types": [ "locality", "political" ],
    "formatted_address": "Knox City, TX, USA",
    "address_components": [ {
      "long_name": "Knox City",
      "short_name": "Knox City",
      "types": [ "locality", "political" ]
    }, {
      "long_name": "Knox",
      "short_name": "Knox",
      "types": [ "administrative_area_level_2", "political" ]
    }, {
      "long_name": "Texas",
      "short_name": "TX",
      "types": [ "administrative_area_level_1", "political" ]
    }, {
      "long_name": "United States",
      "short_name": "US",
      "types": [ "country", "political" ]
    } ],
    "geometry": {
      "location": {
        "lat": 33.4181509,
        "lng": -99.8189804
      },
      "location_type": "APPROXIMATE",
      "viewport": {
        "southwest": {
          "lat": 33.4088371,
          "lng": -99.8349878
        },
        "northeast": {
          "lat": 33.4274637,
          "lng": -99.8029730
        }
      },
      "bounds": {
        "southwest": {
          "lat": 33.4080520,
          "lng": -99.8276590
        },
        "northeast": {
          "lat": 33.4233520,
          "lng": -99.8048900
        }
      }
    }
  } ]
}
