{
  "status": "OK",
  "results": [ {
    "types": [ "locality", "political" ],
    "formatted_address": "La Marque, TX, USA",
    "address_components": [ {
      "long_name": "La Marque",
      "short_name": "La Marque",
      "types": [ "locality", "political" ]
    }, {
      "long_name": "Galveston",
      "short_name": "Galveston",
      "types": [ "administrative_area_level_2", "political" ]
    }, {
      "long_name": "Texas",
      "short_name": "TX",
      "types": [ "administrative_area_level_1", "political" ]
    }, {
      "long_name": "United States",
      "short_name": "US",
      "types": [ "country", "political" ]
    } ],
    "geometry": {
      "location": {
        "lat": 29.3685674,
        "lng": -94.9713134
      },
      "location_type": "APPROXIMATE",
      "viewport": {
        "southwest": {
          "lat": 29.3296640,
          "lng": -95.0353431
        },
        "northeast": {
          "lat": 29.4074560,
          "lng": -94.9072837
        }
      },
      "bounds": {
        "southwest": {
          "lat": 29.3272430,
          "lng": -95.0645600
        },
        "northeast": {
          "lat": 29.4110120,
          "lng": -94.9288710
        }
      }
    }
  } ]
}
