{
  "status": "OK",
  "results": [ {
    "types": [ "locality", "political" ],
    "formatted_address": "La Vernia, TX, USA",
    "address_components": [ {
      "long_name": "La Vernia",
      "short_name": "La Vernia",
      "types": [ "locality", "political" ]
    }, {
      "long_name": "Wilson",
      "short_name": "Wilson",
      "types": [ "administrative_area_level_2", "political" ]
    }, {
      "long_name": "Texas",
      "short_name": "TX",
      "types": [ "administrative_area_level_1", "political" ]
    }, {
      "long_name": "United States",
      "short_name": "US",
      "types": [ "country", "political" ]
    } ],
    "geometry": {
      "location": {
        "lat": 29.3563480,
        "lng": -98.1155633
      },
      "location_type": "APPROXIMATE",
      "viewport": {
        "southwest": {
          "lat": 29.3368958,
          "lng": -98.1475781
        },
        "northeast": {
          "lat": 29.3757965,
          "lng": -98.0835485
        }
      },
      "bounds": {
        "southwest": {
          "lat": 29.3435690,
          "lng": -98.1514170
        },
        "northeast": {
          "lat": 29.3636130,
          "lng": -98.0968259
        }
      }
    }
  } ]
}
