{
  "status": "OK",
  "results": [ {
    "types": [ "locality", "political" ],
    "formatted_address": "La Villa, TX 78562, USA",
    "address_components": [ {
      "long_name": "La Villa",
      "short_name": "La Villa",
      "types": [ "locality", "political" ]
    }, {
      "long_name": "Edcouch-Elsa",
      "short_name": "Edcouch-Elsa",
      "types": [ "administrative_area_level_3", "political" ]
    }, {
      "long_name": "Hidalgo",
      "short_name": "Hidalgo",
      "types": [ "administrative_area_level_2", "political" ]
    }, {
      "long_name": "Texas",
      "short_name": "TX",
      "types": [ "administrative_area_level_1", "political" ]
    }, {
      "long_name": "United States",
      "short_name": "US",
      "types": [ "country", "political" ]
    }, {
      "long_name": "78562",
      "short_name": "78562",
      "types": [ "postal_code" ]
    } ],
    "geometry": {
      "location": {
        "lat": 26.2986827,
        "lng": -97.9286117
      },
      "location_type": "APPROXIMATE",
      "viewport": {
        "southwest": {
          "lat": 26.2886792,
          "lng": -97.9446191
        },
        "northeast": {
          "lat": 26.3086854,
          "lng": -97.9126043
        }
      },
      "bounds": {
        "southwest": {
          "lat": 26.2894219,
          "lng": -97.9344890
        },
        "northeast": {
          "lat": 26.3018230,
          "lng": -97.9163190
        }
      }
    }
  } ]
}
