{
  "status": "OK",
  "results": [ {
    "types": [ "locality", "political" ],
    "formatted_address": "Lamesa, TX, USA",
    "address_components": [ {
      "long_name": "Lamesa",
      "short_name": "Lamesa",
      "types": [ "locality", "political" ]
    }, {
      "long_name": "Dawson",
      "short_name": "Dawson",
      "types": [ "administrative_area_level_2", "political" ]
    }, {
      "long_name": "Texas",
      "short_name": "TX",
      "types": [ "administrative_area_level_1", "political" ]
    }, {
      "long_name": "United States",
      "short_name": "US",
      "types": [ "country", "political" ]
    } ],
    "geometry": {
      "location": {
        "lat": 32.7376001,
        "lng": -101.9509920
      },
      "location_type": "APPROXIMATE",
      "viewport": {
        "southwest": {
          "lat": 32.7188269,
          "lng": -101.9830068
        },
        "northeast": {
          "lat": 32.7563693,
          "lng": -101.9189772
        }
      },
      "bounds": {
        "southwest": {
          "lat": 32.7039270,
          "lng": -101.9871180
        },
        "northeast": {
          "lat": 32.7633760,
          "lng": -101.9317570
        }
      }
    }
  } ]
}
