{
  "status": "OK",
  "results": [ {
    "types": [ "locality", "political" ],
    "formatted_address": "Levelland, TX, USA",
    "address_components": [ {
      "long_name": "Levelland",
      "short_name": "Levelland",
      "types": [ "locality", "political" ]
    }, {
      "long_name": "Hockley",
      "short_name": "Hockley",
      "types": [ "administrative_area_level_2", "political" ]
    }, {
      "long_name": "Texas",
      "short_name": "TX",
      "types": [ "administrative_area_level_1", "political" ]
    }, {
      "long_name": "United States",
      "short_name": "US",
      "types": [ "country", "political" ]
    } ],
    "geometry": {
      "location": {
        "lat": 33.5873164,
        "lng": -102.3779600
      },
      "location_type": "APPROXIMATE",
      "viewport": {
        "southwest": {
          "lat": 33.5501280,
          "lng": -102.4419897
        },
        "northeast": {
          "lat": 33.6244888,
          "lng": -102.3139303
        }
      },
      "bounds": {
        "southwest": {
          "lat": 33.5431029,
          "lng": -102.4016620
        },
        "northeast": {
          "lat": 33.6037040,
          "lng": -102.3269520
        }
      }
    }
  } ]
}
