{
  "status": "OK",
  "results": [ {
    "types": [ "locality", "political" ],
    "formatted_address": "Longview, TX, USA",
    "address_components": [ {
      "long_name": "Longview",
      "short_name": "Longview",
      "types": [ "locality", "political" ]
    }, {
      "long_name": "Gregg",
      "short_name": "Gregg",
      "types": [ "administrative_area_level_2", "political" ]
    }, {
      "long_name": "Texas",
      "short_name": "TX",
      "types": [ "administrative_area_level_1", "political" ]
    }, {
      "long_name": "United States",
      "short_name": "US",
      "types": [ "country", "political" ]
    } ],
    "geometry": {
      "location": {
        "lat": 32.5007037,
        "lng": -94.7404891
      },
      "location_type": "APPROXIMATE",
      "viewport": {
        "southwest": {
          "lat": 32.4253884,
          "lng": -94.8685485
        },
        "northeast": {
          "lat": 32.5759560,
          "lng": -94.6124297
        }
      },
      "bounds": {
        "southwest": {
          "lat": 32.4315179,
          "lng": -94.8443400
        },
        "northeast": {
          "lat": 32.5816350,
          "lng": -94.6662850
        }
      }
    }
  } ]
}
