{
  "status": "OK",
  "results": [ {
    "types": [ "locality", "political" ],
    "formatted_address": "Lytle, TX, USA",
    "address_components": [ {
      "long_name": "Lytle",
      "short_name": "Lytle",
      "types": [ "locality", "political" ]
    }, {
      "long_name": "Atascosa",
      "short_name": "Atascosa",
      "types": [ "administrative_area_level_2", "political" ]
    }, {
      "long_name": "Texas",
      "short_name": "TX",
      "types": [ "administrative_area_level_1", "political" ]
    }, {
      "long_name": "United States",
      "short_name": "US",
      "types": [ "country", "political" ]
    } ],
    "geometry": {
      "location": {
        "lat": 29.2332940,
        "lng": -98.7964137
      },
      "location_type": "APPROXIMATE",
      "viewport": {
        "southwest": {
          "lat": 29.2235566,
          "lng": -98.8124211
        },
        "northeast": {
          "lat": 29.2430304,
          "lng": -98.7804063
        }
      },
      "bounds": {
        "southwest": {
          "lat": 29.2191090,
          "lng": -98.8164800
        },
        "northeast": {
          "lat": 29.2493280,
          "lng": -98.7797499
        }
      }
    }
  } ]
}
