{
  "status": "OK",
  "results": [ {
    "types": [ "locality", "political" ],
    "formatted_address": "Manor, TX, USA",
    "address_components": [ {
      "long_name": "Manor",
      "short_name": "Manor",
      "types": [ "locality", "political" ]
    }, {
      "long_name": "Travis",
      "short_name": "Travis",
      "types": [ "administrative_area_level_2", "political" ]
    }, {
      "long_name": "Texas",
      "short_name": "TX",
      "types": [ "administrative_area_level_1", "political" ]
    }, {
      "long_name": "United States",
      "short_name": "US",
      "types": [ "country", "political" ]
    } ],
    "geometry": {
      "location": {
        "lat": 30.3407629,
        "lng": -97.5569456
      },
      "location_type": "APPROXIMATE",
      "viewport": {
        "southwest": {
          "lat": 30.3022363,
          "lng": -97.6209753
        },
        "northeast": {
          "lat": 30.3792743,
          "lng": -97.4929159
        }
      },
      "bounds": {
        "southwest": {
          "lat": 30.3273460,
          "lng": -97.5749570
        },
        "northeast": {
          "lat": 30.3776170,
          "lng": -97.5038120
        }
      }
    }
  } ]
}
