{
  "status": "OK",
  "results": [ {
    "types": [ "locality", "political" ],
    "formatted_address": "McAllen, TX, USA",
    "address_components": [ {
      "long_name": "McAllen",
      "short_name": "McAllen",
      "types": [ "locality", "political" ]
    }, {
      "long_name": "Hidalgo",
      "short_name": "Hidalgo",
      "types": [ "administrative_area_level_2", "political" ]
    }, {
      "long_name": "Texas",
      "short_name": "TX",
      "types": [ "administrative_area_level_1", "political" ]
    }, {
      "long_name": "United States",
      "short_name": "US",
      "types": [ "country", "political" ]
    } ],
    "geometry": {
      "location": {
        "lat": 26.2034071,
        "lng": -98.2300124
      },
      "location_type": "APPROXIMATE",
      "viewport": {
        "southwest": {
          "lat": 26.1232891,
          "lng": -98.3580718
        },
        "northeast": {
          "lat": 26.2834700,
          "lng": -98.1019530
        }
      },
      "bounds": {
        "southwest": {
          "lat": 26.1021300,
          "lng": -98.3178920
        },
        "northeast": {
          "lat": 26.3498339,
          "lng": -98.1953889
        }
      }
    }
  } ]
}
