{
  "status": "OK",
  "results": [ {
    "types": [ "locality", "political" ],
    "formatted_address": "Memphis, TX, USA",
    "address_components": [ {
      "long_name": "Memphis",
      "short_name": "Memphis",
      "types": [ "locality", "political" ]
    }, {
      "long_name": "Hall",
      "short_name": "Hall",
      "types": [ "administrative_area_level_2", "political" ]
    }, {
      "long_name": "Texas",
      "short_name": "TX",
      "types": [ "administrative_area_level_1", "political" ]
    }, {
      "long_name": "United States",
      "short_name": "US",
      "types": [ "country", "political" ]
    } ],
    "geometry": {
      "location": {
        "lat": 34.7247758,
        "lng": -100.5340144
      },
      "location_type": "APPROXIMATE",
      "viewport": {
        "southwest": {
          "lat": 34.7064323,
          "lng": -100.5660292
        },
        "northeast": {
          "lat": 34.7431152,
          "lng": -100.5019996
        }
      },
      "bounds": {
        "southwest": {
          "lat": 34.7141540,
          "lng": -100.5584000
        },
        "northeast": {
          "lat": 34.7435119,
          "lng": -100.5246870
        }
      }
    }
  } ]
}
