{
  "status": "OK",
  "results": [ {
    "types": [ "locality", "political" ],
    "formatted_address": "Mission, TX, USA",
    "address_components": [ {
      "long_name": "Mission",
      "short_name": "Mission",
      "types": [ "locality", "political" ]
    }, {
      "long_name": "Hidalgo",
      "short_name": "Hidalgo",
      "types": [ "administrative_area_level_2", "political" ]
    }, {
      "long_name": "Texas",
      "short_name": "TX",
      "types": [ "administrative_area_level_1", "political" ]
    }, {
      "long_name": "United States",
      "short_name": "US",
      "types": [ "country", "political" ]
    } ],
    "geometry": {
      "location": {
        "lat": 26.2159066,
        "lng": -98.3252932
      },
      "location_type": "APPROXIMATE",
      "viewport": {
        "southwest": {
          "lat": 26.1758588,
          "lng": -98.3893229
        },
        "northeast": {
          "lat": 26.2559406,
          "lng": -98.2612635
        }
      },
      "bounds": {
        "southwest": {
          "lat": 26.1345930,
          "lng": -98.3989670
        },
        "northeast": {
          "lat": 26.2625460,
          "lng": -98.2724169
        }
      }
    }
  } ]
}
