{
  "status": "OK",
  "results": [ {
    "types": [ "locality", "political" ],
    "formatted_address": "Monahans, TX, USA",
    "address_components": [ {
      "long_name": "Monahans",
      "short_name": "Monahans",
      "types": [ "locality", "political" ]
    }, {
      "long_name": "Ward",
      "short_name": "Ward",
      "types": [ "administrative_area_level_2", "political" ]
    }, {
      "long_name": "Texas",
      "short_name": "TX",
      "types": [ "administrative_area_level_1", "political" ]
    }, {
      "long_name": "United States",
      "short_name": "US",
      "types": [ "country", "political" ]
    } ],
    "geometry": {
      "location": {
        "lat": 31.5942991,
        "lng": -102.8926536
      },
      "location_type": "APPROXIMATE",
      "viewport": {
        "southwest": {
          "lat": 31.4421088,
          "lng": -103.1487724
        },
        "northeast": {
          "lat": 31.7462411,
          "lng": -102.6365348
        }
      },
      "bounds": {
        "southwest": {
          "lat": 31.5639250,
          "lng": -103.1651000
        },
        "northeast": {
          "lat": 31.6957150,
          "lng": -102.8713170
        }
      }
    }
  } ]
}
