{
  "status": "OK",
  "results": [ {
    "types": [ "locality", "political" ],
    "formatted_address": "Needville, TX, USA",
    "address_components": [ {
      "long_name": "Needville",
      "short_name": "Needville",
      "types": [ "locality", "political" ]
    }, {
      "long_name": "Fort Bend",
      "short_name": "Fort Bend",
      "types": [ "administrative_area_level_2", "political" ]
    }, {
      "long_name": "Texas",
      "short_name": "TX",
      "types": [ "administrative_area_level_1", "political" ]
    }, {
      "long_name": "United States",
      "short_name": "US",
      "types": [ "country", "political" ]
    } ],
    "geometry": {
      "location": {
        "lat": 29.3994101,
        "lng": -95.8377297
      },
      "location_type": "APPROXIMATE",
      "viewport": {
        "southwest": {
          "lat": 29.3896886,
          "lng": -95.8537371
        },
        "northeast": {
          "lat": 29.4091307,
          "lng": -95.8217223
        }
      },
      "bounds": {
        "southwest": {
          "lat": 29.3799580,
          "lng": -95.8557699
        },
        "northeast": {
          "lat": 29.4094000,
          "lng": -95.8226409
        }
      }
    }
  } ]
}
