{
  "status": "OK",
  "results": [ {
    "types": [ "locality", "political" ],
    "formatted_address": "New Braunfels, TX, USA",
    "address_components": [ {
      "long_name": "New Braunfels",
      "short_name": "New Braunfels",
      "types": [ "locality", "political" ]
    }, {
      "long_name": "Comal",
      "short_name": "Comal",
      "types": [ "administrative_area_level_2", "political" ]
    }, {
      "long_name": "Texas",
      "short_name": "TX",
      "types": [ "administrative_area_level_1", "political" ]
    }, {
      "long_name": "United States",
      "short_name": "US",
      "types": [ "country", "political" ]
    } ],
    "geometry": {
      "location": {
        "lat": 29.7030024,
        "lng": -98.1244531
      },
      "location_type": "APPROXIMATE",
      "viewport": {
        "southwest": {
          "lat": 29.6254374,
          "lng": -98.2525125
        },
        "northeast": {
          "lat": 29.7805076,
          "lng": -97.9963937
        }
      },
      "bounds": {
        "southwest": {
          "lat": 29.6450590,
          "lng": -98.2454169
        },
        "northeast": {
          "lat": 29.7755570,
          "lng": -98.0275449
        }
      }
    }
  } ]
}
