{
  "status": "OK",
  "results": [ {
    "types": [ "locality", "political" ],
    "formatted_address": "Nixon, TX 78140, USA",
    "address_components": [ {
      "long_name": "Nixon",
      "short_name": "Nixon",
      "types": [ "locality", "political" ]
    }, {
      "long_name": "Gonzales",
      "short_name": "Gonzales",
      "types": [ "administrative_area_level_2", "political" ]
    }, {
      "long_name": "Texas",
      "short_name": "TX",
      "types": [ "administrative_area_level_1", "political" ]
    }, {
      "long_name": "United States",
      "short_name": "US",
      "types": [ "country", "political" ]
    }, {
      "long_name": "78140",
      "short_name": "78140",
      "types": [ "postal_code" ]
    } ],
    "geometry": {
      "location": {
        "lat": 29.2674640,
        "lng": -97.7644429
      },
      "location_type": "APPROXIMATE",
      "viewport": {
        "southwest": {
          "lat": 29.2577299,
          "lng": -97.7804503
        },
        "northeast": {
          "lat": 29.2771972,
          "lng": -97.7484355
        }
      },
      "bounds": {
        "southwest": {
          "lat": 29.2594290,
          "lng": -97.7732070
        },
        "northeast": {
          "lat": 29.2838459,
          "lng": -97.7523289
        }
      }
    }
  } ]
}
