{
  "status": "OK",
  "results": [ {
    "types": [ "locality", "political" ],
    "formatted_address": "North Richland Hills, TX, USA",
    "address_components": [ {
      "long_name": "North Richland Hills",
      "short_name": "North Richland Hills",
      "types": [ "locality", "political" ]
    }, {
      "long_name": "Northeast Tarrant",
      "short_name": "Northeast Tarrant",
      "types": [ "administrative_area_level_3", "political" ]
    }, {
      "long_name": "Tarrant",
      "short_name": "Tarrant",
      "types": [ "administrative_area_level_2", "political" ]
    }, {
      "long_name": "Texas",
      "short_name": "TX",
      "types": [ "administrative_area_level_1", "political" ]
    }, {
      "long_name": "United States",
      "short_name": "US",
      "types": [ "country", "political" ]
    } ],
    "geometry": {
      "location": {
        "lat": 32.8342952,
        "lng": -97.2289029
      },
      "location_type": "APPROXIMATE",
      "viewport": {
        "southwest": {
          "lat": 32.7967856,
          "lng": -97.2929326
        },
        "northeast": {
          "lat": 32.8717889,
          "lng": -97.1648732
        }
      },
      "bounds": {
        "southwest": {
          "lat": 32.8087460,
          "lng": -97.2645129
        },
        "northeast": {
          "lat": 32.9115190,
          "lng": -97.1859230
        }
      }
    }
  } ]
}
