{
  "status": "OK",
  "results": [ {
    "types": [ "locality", "political" ],
    "formatted_address": "Oak Ridge, TX, USA",
    "address_components": [ {
      "long_name": "Oak Ridge",
      "short_name": "Oak Ridge",
      "types": [ "locality", "political" ]
    }, {
      "long_name": "Terrell South",
      "short_name": "Terrell South",
      "types": [ "administrative_area_level_3", "political" ]
    }, {
      "long_name": "Kaufman",
      "short_name": "Kaufman",
      "types": [ "administrative_area_level_2", "political" ]
    }, {
      "long_name": "Texas",
      "short_name": "TX",
      "types": [ "administrative_area_level_1", "political" ]
    }, {
      "long_name": "United States",
      "short_name": "US",
      "types": [ "country", "political" ]
    } ],
    "geometry": {
      "location": {
        "lat": 32.6573544,
        "lng": -96.2622006
      },
      "location_type": "APPROXIMATE",
      "viewport": {
        "southwest": {
          "lat": 32.6197703,
          "lng": -96.3262303
        },
        "northeast": {
          "lat": 32.6949227,
          "lng": -96.1981709
        }
      },
      "bounds": {
        "southwest": {
          "lat": 32.6132310,
          "lng": -96.2719489
        },
        "northeast": {
          "lat": 32.6915970,
          "lng": -96.2317279
        }
      }
    }
  } ]
}
