{
  "status": "OK",
  "results": [ {
    "types": [ "locality", "political" ],
    "formatted_address": "Olney, TX, USA",
    "address_components": [ {
      "long_name": "Olney",
      "short_name": "Olney",
      "types": [ "locality", "political" ]
    }, {
      "long_name": "Young",
      "short_name": "Young",
      "types": [ "administrative_area_level_2", "political" ]
    }, {
      "long_name": "Texas",
      "short_name": "TX",
      "types": [ "administrative_area_level_1", "political" ]
    }, {
      "long_name": "United States",
      "short_name": "US",
      "types": [ "country", "political" ]
    } ],
    "geometry": {
      "location": {
        "lat": 33.3706630,
        "lng": -98.7528394
      },
      "location_type": "APPROXIMATE",
      "viewport": {
        "southwest": {
          "lat": 33.3520243,
          "lng": -98.7848542
        },
        "northeast": {
          "lat": 33.3892977,
          "lng": -98.7208246
        }
      },
      "bounds": {
        "southwest": {
          "lat": 33.3392610,
          "lng": -98.7771889
        },
        "northeast": {
          "lat": 33.3796330,
          "lng": -98.7422940
        }
      }
    }
  } ]
}
