{
  "status": "OK",
  "results": [ {
    "types": [ "locality", "political" ],
    "formatted_address": "Overton, TX, USA",
    "address_components": [ {
      "long_name": "Overton",
      "short_name": "Overton",
      "types": [ "locality", "political" ]
    }, {
      "long_name": "Rusk",
      "short_name": "Rusk",
      "types": [ "administrative_area_level_2", "political" ]
    }, {
      "long_name": "Texas",
      "short_name": "TX",
      "types": [ "administrative_area_level_1", "political" ]
    }, {
      "long_name": "United States",
      "short_name": "US",
      "types": [ "country", "political" ]
    } ],
    "geometry": {
      "location": {
        "lat": 32.2745983,
        "lng": -94.9785515
      },
      "location_type": "APPROXIMATE",
      "viewport": {
        "southwest": {
          "lat": 32.2557282,
          "lng": -95.0105663
        },
        "northeast": {
          "lat": 32.2934645,
          "lng": -94.9465367
        }
      },
      "bounds": {
        "southwest": {
          "lat": 32.2521659,
          "lng": -94.9937719
        },
        "northeast": {
          "lat": 32.2964810,
          "lng": -94.9470570
        }
      }
    }
  } ]
}
