{
  "status": "OK",
  "results": [ {
    "types": [ "locality", "political" ],
    "formatted_address": "Ovilla, TX, USA",
    "address_components": [ {
      "long_name": "Ovilla",
      "short_name": "Ovilla",
      "types": [ "locality", "political" ]
    }, {
      "long_name": "Ellis",
      "short_name": "Ellis",
      "types": [ "administrative_area_level_2", "political" ]
    }, {
      "long_name": "Texas",
      "short_name": "TX",
      "types": [ "administrative_area_level_1", "political" ]
    }, {
      "long_name": "United States",
      "short_name": "US",
      "types": [ "country", "political" ]
    } ],
    "geometry": {
      "location": {
        "lat": 32.5265264,
        "lng": -96.8863898
      },
      "location_type": "APPROXIMATE",
      "viewport": {
        "southwest": {
          "lat": 32.5077089,
          "lng": -96.9184046
        },
        "northeast": {
          "lat": 32.5453400,
          "lng": -96.8543750
        }
      },
      "bounds": {
        "southwest": {
          "lat": 32.5057550,
          "lng": -96.9255249
        },
        "northeast": {
          "lat": 32.5607160,
          "lng": -96.8587740
        }
      }
    }
  } ]
}
