{
  "status": "OK",
  "results": [ {
    "types": [ "locality", "political" ],
    "formatted_address": "Pharr, TX, USA",
    "address_components": [ {
      "long_name": "Pharr",
      "short_name": "Pharr",
      "types": [ "locality", "political" ]
    }, {
      "long_name": "McAllen-Pharr",
      "short_name": "McAllen-Pharr",
      "types": [ "administrative_area_level_3", "political" ]
    }, {
      "long_name": "Hidalgo",
      "short_name": "Hidalgo",
      "types": [ "administrative_area_level_2", "political" ]
    }, {
      "long_name": "Texas",
      "short_name": "TX",
      "types": [ "administrative_area_level_1", "political" ]
    }, {
      "long_name": "United States",
      "short_name": "US",
      "types": [ "country", "political" ]
    } ],
    "geometry": {
      "location": {
        "lat": 26.1947962,
        "lng": -98.1836216
      },
      "location_type": "APPROXIMATE",
      "viewport": {
        "southwest": {
          "lat": 26.1146723,
          "lng": -98.3116810
        },
        "northeast": {
          "lat": 26.2748650,
          "lng": -98.0555622
        }
      },
      "bounds": {
        "southwest": {
          "lat": 26.0640990,
          "lng": -98.2214700
        },
        "northeast": {
          "lat": 26.2503499,
          "lng": -98.1594140
        }
      }
    }
  } ]
}
