{
  "status": "OK",
  "results": [ {
    "types": [ "locality", "political" ],
    "formatted_address": "Port Lavaca, TX, USA",
    "address_components": [ {
      "long_name": "Port Lavaca",
      "short_name": "Port Lavaca",
      "types": [ "locality", "political" ]
    }, {
      "long_name": "Calhoun",
      "short_name": "Calhoun",
      "types": [ "administrative_area_level_2", "political" ]
    }, {
      "long_name": "Texas",
      "short_name": "TX",
      "types": [ "administrative_area_level_1", "political" ]
    }, {
      "long_name": "United States",
      "short_name": "US",
      "types": [ "country", "political" ]
    } ],
    "geometry": {
      "location": {
        "lat": 28.6149968,
        "lng": -96.6260892
      },
      "location_type": "APPROXIMATE",
      "viewport": {
        "southwest": {
          "lat": 28.5758090,
          "lng": -96.6901189
        },
        "northeast": {
          "lat": 28.6541700,
          "lng": -96.5620595
        }
      },
      "bounds": {
        "southwest": {
          "lat": 28.5819800,
          "lng": -96.6623839
        },
        "northeast": {
          "lat": 28.6595730,
          "lng": -96.6001160
        }
      }
    }
  } ]
}
