{
  "status": "OK",
  "results": [ {
    "types": [ "locality", "political" ],
    "formatted_address": "Rancho Viejo, TX 78575, USA",
    "address_components": [ {
      "long_name": "Rancho Viejo",
      "short_name": "Rancho Viejo",
      "types": [ "locality", "political" ]
    }, {
      "long_name": "Brownsville",
      "short_name": "Brownsville",
      "types": [ "administrative_area_level_3", "political" ]
    }, {
      "long_name": "Cameron",
      "short_name": "Cameron",
      "types": [ "administrative_area_level_2", "political" ]
    }, {
      "long_name": "Texas",
      "short_name": "TX",
      "types": [ "administrative_area_level_1", "political" ]
    }, {
      "long_name": "United States",
      "short_name": "US",
      "types": [ "country", "political" ]
    }, {
      "long_name": "78575",
      "short_name": "78575",
      "types": [ "postal_code" ]
    } ],
    "geometry": {
      "location": {
        "lat": 26.0395222,
        "lng": -97.5563763
      },
      "location_type": "APPROXIMATE",
      "viewport": {
        "southwest": {
          "lat": 26.0194698,
          "lng": -97.5883911
        },
        "northeast": {
          "lat": 26.0595712,
          "lng": -97.5243615
        }
      },
      "bounds": {
        "southwest": {
          "lat": 26.0200860,
          "lng": -97.5698589
        },
        "northeast": {
          "lat": 26.0577020,
          "lng": -97.5361679
        }
      }
    }
  } ]
}
