{
  "status": "OK",
  "results": [ {
    "types": [ "locality", "political" ],
    "formatted_address": "Ranger, TX, USA",
    "address_components": [ {
      "long_name": "Ranger",
      "short_name": "Ranger",
      "types": [ "locality", "political" ]
    }, {
      "long_name": "Eastland",
      "short_name": "Eastland",
      "types": [ "administrative_area_level_2", "political" ]
    }, {
      "long_name": "Texas",
      "short_name": "TX",
      "types": [ "administrative_area_level_1", "political" ]
    }, {
      "long_name": "United States",
      "short_name": "US",
      "types": [ "country", "political" ]
    } ],
    "geometry": {
      "location": {
        "lat": 32.4698522,
        "lng": -98.6789477
      },
      "location_type": "APPROXIMATE",
      "viewport": {
        "southwest": {
          "lat": 32.4510228,
          "lng": -98.7109625
        },
        "northeast": {
          "lat": 32.4886776,
          "lng": -98.6469329
        }
      },
      "bounds": {
        "southwest": {
          "lat": 32.4369260,
          "lng": -98.6992269
        },
        "northeast": {
          "lat": 32.4892029,
          "lng": -98.6464790
        }
      }
    }
  } ]
}
