{
  "status": "OK",
  "results": [ {
    "types": [ "locality", "political" ],
    "formatted_address": "Reno, TX, USA",
    "address_components": [ {
      "long_name": "Reno",
      "short_name": "Reno",
      "types": [ "locality", "political" ]
    }, {
      "long_name": "Parker",
      "short_name": "Parker",
      "types": [ "administrative_area_level_2", "political" ]
    }, {
      "long_name": "Texas",
      "short_name": "TX",
      "types": [ "administrative_area_level_1", "political" ]
    }, {
      "long_name": "United States",
      "short_name": "US",
      "types": [ "country", "political" ]
    } ],
    "geometry": {
      "location": {
        "lat": 32.9442916,
        "lng": -97.5772462
      },
      "location_type": "APPROXIMATE",
      "viewport": {
        "southwest": {
          "lat": 32.9255621,
          "lng": -97.6092610
        },
        "northeast": {
          "lat": 32.9630172,
          "lng": -97.5452314
        }
      },
      "bounds": {
        "southwest": {
          "lat": 32.9204940,
          "lng": -97.6219969
        },
        "northeast": {
          "lat": 32.9748200,
          "lng": -97.5435670
        }
      }
    }
  } ]
}
