{
  "status": "OK",
  "results": [ {
    "types": [ "locality", "political" ],
    "formatted_address": "Rollingwood, TX 78746, USA",
    "address_components": [ {
      "long_name": "Rollingwood",
      "short_name": "Rollingwood",
      "types": [ "locality", "political" ]
    }, {
      "long_name": "Austin",
      "short_name": "Austin",
      "types": [ "administrative_area_level_3", "political" ]
    }, {
      "long_name": "Travis",
      "short_name": "Travis",
      "types": [ "administrative_area_level_2", "political" ]
    }, {
      "long_name": "Texas",
      "short_name": "TX",
      "types": [ "administrative_area_level_1", "political" ]
    }, {
      "long_name": "United States",
      "short_name": "US",
      "types": [ "country", "political" ]
    }, {
      "long_name": "78746",
      "short_name": "78746",
      "types": [ "postal_code" ]
    } ],
    "geometry": {
      "location": {
        "lat": 30.2768742,
        "lng": -97.7911175
      },
      "location_type": "APPROXIMATE",
      "viewport": {
        "southwest": {
          "lat": 30.2672377,
          "lng": -97.8071249
        },
        "northeast": {
          "lat": 30.2865098,
          "lng": -97.7751101
        }
      },
      "bounds": {
        "southwest": {
          "lat": 30.2662360,
          "lng": -97.7987819
        },
        "northeast": {
          "lat": 30.2829970,
          "lng": -97.7772959
        }
      }
    }
  } ]
}
