{
  "status": "OK",
  "results": [ {
    "types": [ "locality", "political" ],
    "formatted_address": "Rosenberg, TX, USA",
    "address_components": [ {
      "long_name": "Rosenberg",
      "short_name": "Rosenberg",
      "types": [ "locality", "political" ]
    }, {
      "long_name": "Fort Bend",
      "short_name": "Fort Bend",
      "types": [ "administrative_area_level_2", "political" ]
    }, {
      "long_name": "Texas",
      "short_name": "TX",
      "types": [ "administrative_area_level_1", "political" ]
    }, {
      "long_name": "United States",
      "short_name": "US",
      "types": [ "country", "political" ]
    } ],
    "geometry": {
      "location": {
        "lat": 29.5571825,
        "lng": -95.8085623
      },
      "location_type": "APPROXIMATE",
      "viewport": {
        "southwest": {
          "lat": 29.4795052,
          "lng": -95.9366217
        },
        "northeast": {
          "lat": 29.6348001,
          "lng": -95.6805029
        }
      },
      "bounds": {
        "southwest": {
          "lat": 29.4622290,
          "lng": -95.9658690
        },
        "northeast": {
          "lat": 29.5872740,
          "lng": -95.6894470
        }
      }
    }
  } ]
}
