{
  "status": "OK",
  "results": [ {
    "types": [ "locality", "political" ],
    "formatted_address": "Rose City, TX, USA",
    "address_components": [ {
      "long_name": "Rose City",
      "short_name": "Rose City",
      "types": [ "locality", "political" ]
    }, {
      "long_name": "Orange",
      "short_name": "Orange",
      "types": [ "administrative_area_level_2", "political" ]
    }, {
      "long_name": "Texas",
      "short_name": "TX",
      "types": [ "administrative_area_level_1", "political" ]
    }, {
      "long_name": "United States",
      "short_name": "US",
      "types": [ "country", "political" ]
    } ],
    "geometry": {
      "location": {
        "lat": 30.1027119,
        "lng": -94.0518443
      },
      "location_type": "APPROXIMATE",
      "viewport": {
        "southwest": {
          "lat": 30.0930583,
          "lng": -94.0678517
        },
        "northeast": {
          "lat": 30.1123645,
          "lng": -94.0358369
        }
      },
      "bounds": {
        "southwest": {
          "lat": 30.0927720,
          "lng": -94.0720230
        },
        "northeast": {
          "lat": 30.1197600,
          "lng": -94.0340009
        }
      }
    }
  } ]
}
