{
  "status": "OK",
  "results": [ {
    "types": [ "locality", "political" ],
    "formatted_address": "Sabinal, TX, USA",
    "address_components": [ {
      "long_name": "Sabinal",
      "short_name": "Sabinal",
      "types": [ "locality", "political" ]
    }, {
      "long_name": "Uvalde",
      "short_name": "Uvalde",
      "types": [ "administrative_area_level_2", "political" ]
    }, {
      "long_name": "Texas",
      "short_name": "TX",
      "types": [ "administrative_area_level_1", "political" ]
    }, {
      "long_name": "United States",
      "short_name": "US",
      "types": [ "country", "political" ]
    } ],
    "geometry": {
      "location": {
        "lat": 29.3174576,
        "lng": -99.4664354
      },
      "location_type": "APPROXIMATE",
      "viewport": {
        "southwest": {
          "lat": 29.3077283,
          "lng": -99.4824428
        },
        "northeast": {
          "lat": 29.3271860,
          "lng": -99.4504280
        }
      },
      "bounds": {
        "southwest": {
          "lat": 29.3107120,
          "lng": -99.4904660
        },
        "northeast": {
          "lat": 29.3311750,
          "lng": -99.4575230
        }
      }
    }
  } ]
}
