{
  "status": "OK",
  "results": [ {
    "types": [ "locality", "political" ],
    "formatted_address": "Saginaw, TX, USA",
    "address_components": [ {
      "long_name": "Saginaw",
      "short_name": "Saginaw",
      "types": [ "locality", "political" ]
    }, {
      "long_name": "Fort Worth",
      "short_name": "Fort Worth",
      "types": [ "administrative_area_level_3", "political" ]
    }, {
      "long_name": "Tarrant",
      "short_name": "Tarrant",
      "types": [ "administrative_area_level_2", "political" ]
    }, {
      "long_name": "Texas",
      "short_name": "TX",
      "types": [ "administrative_area_level_1", "political" ]
    }, {
      "long_name": "United States",
      "short_name": "US",
      "types": [ "country", "political" ]
    } ],
    "geometry": {
      "location": {
        "lat": 32.8601275,
        "lng": -97.3639068
      },
      "location_type": "APPROXIMATE",
      "viewport": {
        "southwest": {
          "lat": 32.8226288,
          "lng": -97.4279365
        },
        "northeast": {
          "lat": 32.8976103,
          "lng": -97.2998771
        }
      },
      "bounds": {
        "southwest": {
          "lat": 32.8168140,
          "lng": -97.3926520
        },
        "northeast": {
          "lat": 32.8860060,
          "lng": -97.3256280
        }
      }
    }
  } ]
}
