{
  "status": "OK",
  "results": [ {
    "types": [ "locality", "political" ],
    "formatted_address": "Santa Rosa, TX, USA",
    "address_components": [ {
      "long_name": "Santa Rosa",
      "short_name": "Santa Rosa",
      "types": [ "locality", "political" ]
    }, {
      "long_name": "Harlingen-San Benito",
      "short_name": "Harlingen-San Benito",
      "types": [ "administrative_area_level_3", "political" ]
    }, {
      "long_name": "Cameron",
      "short_name": "Cameron",
      "types": [ "administrative_area_level_2", "political" ]
    }, {
      "long_name": "Texas",
      "short_name": "TX",
      "types": [ "administrative_area_level_1", "political" ]
    }, {
      "long_name": "United States",
      "short_name": "US",
      "types": [ "country", "political" ]
    } ],
    "geometry": {
      "location": {
        "lat": 26.2567400,
        "lng": -97.8249963
      },
      "location_type": "APPROXIMATE",
      "viewport": {
        "southwest": {
          "lat": 26.2467329,
          "lng": -97.8410037
        },
        "northeast": {
          "lat": 26.2667463,
          "lng": -97.8089889
        }
      },
      "bounds": {
        "southwest": {
          "lat": 26.2423939,
          "lng": -97.8328329
        },
        "northeast": {
          "lat": 26.2691689,
          "lng": -97.8160470
        }
      }
    }
  } ]
}
