{
  "status": "OK",
  "results": [ {
    "types": [ "locality", "political" ],
    "formatted_address": "Santa Anna, TX, USA",
    "address_components": [ {
      "long_name": "Santa Anna",
      "short_name": "Santa Anna",
      "types": [ "locality", "political" ]
    }, {
      "long_name": "Coleman",
      "short_name": "Coleman",
      "types": [ "administrative_area_level_2", "political" ]
    }, {
      "long_name": "Texas",
      "short_name": "TX",
      "types": [ "administrative_area_level_1", "political" ]
    }, {
      "long_name": "United States",
      "short_name": "US",
      "types": [ "country", "political" ]
    } ],
    "geometry": {
      "location": {
        "lat": 31.7420932,
        "lng": -99.3217254
      },
      "location_type": "APPROXIMATE",
      "viewport": {
        "southwest": {
          "lat": 31.7326037,
          "lng": -99.3377328
        },
        "northeast": {
          "lat": 31.7515817,
          "lng": -99.3057180
        }
      },
      "bounds": {
        "southwest": {
          "lat": 31.7248800,
          "lng": -99.3414000
        },
        "northeast": {
          "lat": 31.7470060,
          "lng": -99.3039180
        }
      }
    }
  } ]
}
