{
  "status": "OK",
  "results": [ {
    "types": [ "locality", "political" ],
    "formatted_address": "Seven Points, TX, USA",
    "address_components": [ {
      "long_name": "Seven Points",
      "short_name": "Seven Points",
      "types": [ "locality", "political" ]
    }, {
      "long_name": "Henderson",
      "short_name": "Henderson",
      "types": [ "administrative_area_level_2", "political" ]
    }, {
      "long_name": "Texas",
      "short_name": "TX",
      "types": [ "administrative_area_level_1", "political" ]
    }, {
      "long_name": "United States",
      "short_name": "US",
      "types": [ "country", "political" ]
    } ],
    "geometry": {
      "location": {
        "lat": 32.3204226,
        "lng": -96.2130315
      },
      "location_type": "APPROXIMATE",
      "viewport": {
        "southwest": {
          "lat": 32.2826976,
          "lng": -96.2770612
        },
        "northeast": {
          "lat": 32.3581319,
          "lng": -96.1490018
        }
      },
      "bounds": {
        "southwest": {
          "lat": 32.3058580,
          "lng": -96.2892409
        },
        "northeast": {
          "lat": 32.3630950,
          "lng": -96.1690490
        }
      }
    }
  } ]
}
