{
  "status": "OK",
  "results": [ {
    "types": [ "locality", "political" ],
    "formatted_address": "Shavano Park, TX, USA",
    "address_components": [ {
      "long_name": "Shavano Park",
      "short_name": "Shavano Park",
      "types": [ "locality", "political" ]
    }, {
      "long_name": "San Antonio",
      "short_name": "San Antonio",
      "types": [ "administrative_area_level_3", "political" ]
    }, {
      "long_name": "Bexar",
      "short_name": "Bexar",
      "types": [ "administrative_area_level_2", "political" ]
    }, {
      "long_name": "Texas",
      "short_name": "TX",
      "types": [ "administrative_area_level_1", "political" ]
    }, {
      "long_name": "United States",
      "short_name": "US",
      "types": [ "country", "political" ]
    } ],
    "geometry": {
      "location": {
        "lat": 29.5849496,
        "lng": -98.5525194
      },
      "location_type": "APPROXIMATE",
      "viewport": {
        "southwest": {
          "lat": 29.5655412,
          "lng": -98.5845342
        },
        "northeast": {
          "lat": 29.6043543,
          "lng": -98.5205046
        }
      },
      "bounds": {
        "southwest": {
          "lat": 29.5644790,
          "lng": -98.5766860
        },
        "northeast": {
          "lat": 29.6021740,
          "lng": -98.5388950
        }
      }
    }
  } ]
}
