{
  "status": "OK",
  "results": [ {
    "types": [ "locality", "political" ],
    "formatted_address": "Sinton, TX, USA",
    "address_components": [ {
      "long_name": "Sinton",
      "short_name": "Sinton",
      "types": [ "locality", "political" ]
    }, {
      "long_name": "Sinton-Odem",
      "short_name": "Sinton-Odem",
      "types": [ "administrative_area_level_3", "political" ]
    }, {
      "long_name": "San Patricio",
      "short_name": "San Patricio",
      "types": [ "administrative_area_level_2", "political" ]
    }, {
      "long_name": "Texas",
      "short_name": "TX",
      "types": [ "administrative_area_level_1", "political" ]
    }, {
      "long_name": "United States",
      "short_name": "US",
      "types": [ "country", "political" ]
    } ],
    "geometry": {
      "location": {
        "lat": 28.0366818,
        "lng": -97.5091611
      },
      "location_type": "APPROXIMATE",
      "viewport": {
        "southwest": {
          "lat": 28.0169829,
          "lng": -97.5411759
        },
        "northeast": {
          "lat": 28.0563771,
          "lng": -97.4771463
        }
      },
      "bounds": {
        "southwest": {
          "lat": 28.0211720,
          "lng": -97.5424980
        },
        "northeast": {
          "lat": 28.0466780,
          "lng": -97.4891890
        }
      }
    }
  } ]
}
