{
  "status": "OK",
  "results": [ {
    "types": [ "locality", "political" ],
    "formatted_address": "Slaton, TX, USA",
    "address_components": [ {
      "long_name": "Slaton",
      "short_name": "Slaton",
      "types": [ "locality", "political" ]
    }, {
      "long_name": "Lubbock",
      "short_name": "Lubbock",
      "types": [ "administrative_area_level_2", "political" ]
    }, {
      "long_name": "Texas",
      "short_name": "TX",
      "types": [ "administrative_area_level_1", "political" ]
    }, {
      "long_name": "United States",
      "short_name": "US",
      "types": [ "country", "political" ]
    } ],
    "geometry": {
      "location": {
        "lat": 33.4373113,
        "lng": -101.6434915
      },
      "location_type": "APPROXIMATE",
      "viewport": {
        "southwest": {
          "lat": 33.4186869,
          "lng": -101.6755063
        },
        "northeast": {
          "lat": 33.4559317,
          "lng": -101.6114767
        }
      },
      "bounds": {
        "southwest": {
          "lat": 33.4180390,
          "lng": -101.6750210
        },
        "northeast": {
          "lat": 33.4920440,
          "lng": -101.6131400
        }
      }
    }
  } ]
}
