{
  "status": "OK",
  "results": [ {
    "types": [ "locality", "political" ],
    "formatted_address": "Somerset, TX, USA",
    "address_components": [ {
      "long_name": "Somerset",
      "short_name": "Somerset",
      "types": [ "locality", "political" ]
    }, {
      "long_name": "San Antonio",
      "short_name": "San Antonio",
      "types": [ "administrative_area_level_3", "political" ]
    }, {
      "long_name": "Bexar",
      "short_name": "Bexar",
      "types": [ "administrative_area_level_2", "political" ]
    }, {
      "long_name": "Texas",
      "short_name": "TX",
      "types": [ "administrative_area_level_1", "political" ]
    }, {
      "long_name": "United States",
      "short_name": "US",
      "types": [ "country", "political" ]
    } ],
    "geometry": {
      "location": {
        "lat": 29.2263504,
        "lng": -98.6577985
      },
      "location_type": "APPROXIMATE",
      "viewport": {
        "southwest": {
          "lat": 29.2166124,
          "lng": -98.6738059
        },
        "northeast": {
          "lat": 29.2360875,
          "lng": -98.6417911
        }
      },
      "bounds": {
        "southwest": {
          "lat": 29.2204190,
          "lng": -98.6754969
        },
        "northeast": {
          "lat": 29.2416880,
          "lng": -98.6388750
        }
      }
    }
  } ]
}
