{
  "status": "OK",
  "results": [ {
    "types": [ "locality", "political" ],
    "formatted_address": "Sonora, TX, USA",
    "address_components": [ {
      "long_name": "Sonora",
      "short_name": "Sonora",
      "types": [ "locality", "political" ]
    }, {
      "long_name": "Sutton",
      "short_name": "Sutton",
      "types": [ "administrative_area_level_2", "political" ]
    }, {
      "long_name": "Texas",
      "short_name": "TX",
      "types": [ "administrative_area_level_1", "political" ]
    }, {
      "long_name": "United States",
      "short_name": "US",
      "types": [ "country", "political" ]
    } ],
    "geometry": {
      "location": {
        "lat": 30.5668484,
        "lng": -100.6434273
      },
      "location_type": "APPROXIMATE",
      "viewport": {
        "southwest": {
          "lat": 30.5476316,
          "lng": -100.6754421
        },
        "northeast": {
          "lat": 30.5860614,
          "lng": -100.6114125
        }
      },
      "bounds": {
        "southwest": {
          "lat": 30.5543810,
          "lng": -100.6610010
        },
        "northeast": {
          "lat": 30.5915100,
          "lng": -100.6267410
        }
      }
    }
  } ]
}
