{
  "status": "OK",
  "results": [ {
    "types": [ "locality", "political" ],
    "formatted_address": "Spring Valley, TX, USA",
    "address_components": [ {
      "long_name": "Spring Valley",
      "short_name": "Spring Valley",
      "types": [ "locality", "political" ]
    }, {
      "long_name": "Houston",
      "short_name": "Houston",
      "types": [ "administrative_area_level_3", "political" ]
    }, {
      "long_name": "Harris",
      "short_name": "Harris",
      "types": [ "administrative_area_level_2", "political" ]
    }, {
      "long_name": "Texas",
      "short_name": "TX",
      "types": [ "administrative_area_level_1", "political" ]
    }, {
      "long_name": "United States",
      "short_name": "US",
      "types": [ "country", "political" ]
    } ],
    "geometry": {
      "location": {
        "lat": 29.7896722,
        "lng": -95.5035529
      },
      "location_type": "APPROXIMATE",
      "viewport": {
        "southwest": {
          "lat": 29.7799882,
          "lng": -95.5195603
        },
        "northeast": {
          "lat": 29.7993552,
          "lng": -95.4875455
        }
      },
      "bounds": {
        "southwest": {
          "lat": 29.7834500,
          "lng": -95.5203190
        },
        "northeast": {
          "lat": 29.7987780,
          "lng": -95.4863810
        }
      }
    }
  } ]
}
