{
  "status": "OK",
  "results": [ {
    "types": [ "locality", "political" ],
    "formatted_address": "Sunrise Beach Village, TX, USA",
    "address_components": [ {
      "long_name": "Sunrise Beach Village",
      "short_name": "Sunrise Beach Village",
      "types": [ "locality", "political" ]
    }, {
      "long_name": "Llano",
      "short_name": "Llano",
      "types": [ "administrative_area_level_2", "political" ]
    }, {
      "long_name": "Texas",
      "short_name": "TX",
      "types": [ "administrative_area_level_1", "political" ]
    }, {
      "long_name": "United States",
      "short_name": "US",
      "types": [ "country", "political" ]
    } ],
    "geometry": {
      "location": {
        "lat": 30.5996319,
        "lng": -98.4100274
      },
      "location_type": "APPROXIMATE",
      "viewport": {
        "southwest": {
          "lat": 30.5804216,
          "lng": -98.4420422
        },
        "northeast": {
          "lat": 30.6188384,
          "lng": -98.3780126
        }
      },
      "bounds": {
        "southwest": {
          "lat": 30.5584100,
          "lng": -98.4335249
        },
        "northeast": {
          "lat": 30.6070760,
          "lng": -98.4023859
        }
      }
    }
  } ]
}
