{
  "status": "OK",
  "results": [ {
    "types": [ "locality", "political" ],
    "formatted_address": "Sweeny, TX, USA",
    "address_components": [ {
      "long_name": "Sweeny",
      "short_name": "Sweeny",
      "types": [ "locality", "political" ]
    }, {
      "long_name": "Brazoria-West Columbia",
      "short_name": "Brazoria-West Columbia",
      "types": [ "administrative_area_level_3", "political" ]
    }, {
      "long_name": "Brazoria",
      "short_name": "Brazoria",
      "types": [ "administrative_area_level_2", "political" ]
    }, {
      "long_name": "Texas",
      "short_name": "TX",
      "types": [ "administrative_area_level_1", "political" ]
    }, {
      "long_name": "United States",
      "short_name": "US",
      "types": [ "country", "political" ]
    } ],
    "geometry": {
      "location": {
        "lat": 29.0388615,
        "lng": -95.6985608
      },
      "location_type": "APPROXIMATE",
      "viewport": {
        "southwest": {
          "lat": 29.0193490,
          "lng": -95.7305756
        },
        "northeast": {
          "lat": 29.0583703,
          "lng": -95.6665460
        }
      },
      "bounds": {
        "southwest": {
          "lat": 29.0328790,
          "lng": -95.7228870
        },
        "northeast": {
          "lat": 29.0589090,
          "lng": -95.6794159
        }
      }
    }
  } ]
}
