{
  "status": "OK",
  "results": [ {
    "types": [ "locality", "political" ],
    "formatted_address": "Thorndale, TX, USA",
    "address_components": [ {
      "long_name": "Thorndale",
      "short_name": "Thorndale",
      "types": [ "locality", "political" ]
    }, {
      "long_name": "Milam",
      "short_name": "Milam",
      "types": [ "administrative_area_level_2", "political" ]
    }, {
      "long_name": "Texas",
      "short_name": "TX",
      "types": [ "administrative_area_level_1", "political" ]
    }, {
      "long_name": "United States",
      "short_name": "US",
      "types": [ "country", "political" ]
    } ],
    "geometry": {
      "location": {
        "lat": 30.6138101,
        "lng": -97.2055482
      },
      "location_type": "APPROXIMATE",
      "viewport": {
        "southwest": {
          "lat": 30.6042068,
          "lng": -97.2215556
        },
        "northeast": {
          "lat": 30.6234124,
          "lng": -97.1895408
        }
      },
      "bounds": {
        "southwest": {
          "lat": 30.6052799,
          "lng": -97.2200240
        },
        "northeast": {
          "lat": 30.6219860,
          "lng": -97.1924169
        }
      }
    }
  } ]
}
