{
  "status": "OK",
  "results": [ {
    "types": [ "locality", "political" ],
    "formatted_address": "Valley View, TX, USA",
    "address_components": [ {
      "long_name": "Valley View",
      "short_name": "Valley View",
      "types": [ "locality", "political" ]
    }, {
      "long_name": "Cooke",
      "short_name": "Cooke",
      "types": [ "administrative_area_level_2", "political" ]
    }, {
      "long_name": "Texas",
      "short_name": "TX",
      "types": [ "administrative_area_level_1", "political" ]
    }, {
      "long_name": "United States",
      "short_name": "US",
      "types": [ "country", "political" ]
    } ],
    "geometry": {
      "location": {
        "lat": 33.4881671,
        "lng": -97.1650128
      },
      "location_type": "APPROXIMATE",
      "viewport": {
        "southwest": {
          "lat": 33.4509361,
          "lng": -97.2290425
        },
        "northeast": {
          "lat": 33.5253821,
          "lng": -97.1009831
        }
      },
      "bounds": {
        "southwest": {
          "lat": 33.4239000,
          "lng": -97.1760900
        },
        "northeast": {
          "lat": 33.5490080,
          "lng": -97.1534849
        }
      }
    }
  } ]
}
