{
  "status": "OK",
  "results": [ {
    "types": [ "locality", "political" ],
    "formatted_address": "Van, TX, USA",
    "address_components": [ {
      "long_name": "Van",
      "short_name": "Van",
      "types": [ "locality", "political" ]
    }, {
      "long_name": "Van Zandt",
      "short_name": "Van Zandt",
      "types": [ "administrative_area_level_2", "political" ]
    }, {
      "long_name": "Texas",
      "short_name": "TX",
      "types": [ "administrative_area_level_1", "political" ]
    }, {
      "long_name": "United States",
      "short_name": "US",
      "types": [ "country", "political" ]
    } ],
    "geometry": {
      "location": {
        "lat": 32.5248605,
        "lng": -95.6371839
      },
      "location_type": "APPROXIMATE",
      "viewport": {
        "southwest": {
          "lat": 32.5154521,
          "lng": -95.6531913
        },
        "northeast": {
          "lat": 32.5342680,
          "lng": -95.6211765
        }
      },
      "bounds": {
        "southwest": {
          "lat": 32.5054200,
          "lng": -95.6542080
        },
        "northeast": {
          "lat": 32.5392140,
          "lng": -95.6188360
        }
      }
    }
  } ]
}
