{
  "status": "OK",
  "results": [ {
    "types": [ "locality", "political" ],
    "formatted_address": "Watauga, TX, USA",
    "address_components": [ {
      "long_name": "Watauga",
      "short_name": "Watauga",
      "types": [ "locality", "political" ]
    }, {
      "long_name": "Northeast Tarrant",
      "short_name": "Northeast Tarrant",
      "types": [ "administrative_area_level_3", "political" ]
    }, {
      "long_name": "Tarrant",
      "short_name": "Tarrant",
      "types": [ "administrative_area_level_2", "political" ]
    }, {
      "long_name": "Texas",
      "short_name": "TX",
      "types": [ "administrative_area_level_1", "political" ]
    }, {
      "long_name": "United States",
      "short_name": "US",
      "types": [ "country", "political" ]
    } ],
    "geometry": {
      "location": {
        "lat": 32.8579056,
        "lng": -97.2547371
      },
      "location_type": "APPROXIMATE",
      "viewport": {
        "southwest": {
          "lat": 32.8391578,
          "lng": -97.2867519
        },
        "northeast": {
          "lat": 32.8766495,
          "lng": -97.2227223
        }
      },
      "bounds": {
        "southwest": {
          "lat": 32.8530400,
          "lng": -97.2725090
        },
        "northeast": {
          "lat": 32.8945779,
          "lng": -97.2377240
        }
      }
    }
  } ]
}
