{
  "status": "OK",
  "results": [ {
    "types": [ "locality", "political" ],
    "formatted_address": "West University Place, TX, USA",
    "address_components": [ {
      "long_name": "West University Place",
      "short_name": "West University Place",
      "types": [ "locality", "political" ]
    }, {
      "long_name": "Houston",
      "short_name": "Houston",
      "types": [ "administrative_area_level_3", "political" ]
    }, {
      "long_name": "Harris",
      "short_name": "Harris",
      "types": [ "administrative_area_level_2", "political" ]
    }, {
      "long_name": "Texas",
      "short_name": "TX",
      "types": [ "administrative_area_level_1", "political" ]
    }, {
      "long_name": "United States",
      "short_name": "US",
      "types": [ "country", "political" ]
    } ],
    "geometry": {
      "location": {
        "lat": 29.7180075,
        "lng": -95.4338292
      },
      "location_type": "APPROXIMATE",
      "viewport": {
        "southwest": {
          "lat": 29.7083166,
          "lng": -95.4498366
        },
        "northeast": {
          "lat": 29.7276975,
          "lng": -95.4178218
        }
      },
      "bounds": {
        "southwest": {
          "lat": 29.7059280,
          "lng": -95.4473840
        },
        "northeast": {
          "lat": 29.7254900,
          "lng": -95.4182830
        }
      }
    }
  } ]
}
