{
  "status": "OK",
  "results": [ {
    "types": [ "locality", "political" ],
    "formatted_address": "White Settlement, TX, USA",
    "address_components": [ {
      "long_name": "White Settlement",
      "short_name": "White Settlement",
      "types": [ "locality", "political" ]
    }, {
      "long_name": "Fort Worth",
      "short_name": "Fort Worth",
      "types": [ "administrative_area_level_3", "political" ]
    }, {
      "long_name": "Tarrant",
      "short_name": "Tarrant",
      "types": [ "administrative_area_level_2", "political" ]
    }, {
      "long_name": "Texas",
      "short_name": "TX",
      "types": [ "administrative_area_level_1", "political" ]
    }, {
      "long_name": "United States",
      "short_name": "US",
      "types": [ "country", "political" ]
    } ],
    "geometry": {
      "location": {
        "lat": 32.7595737,
        "lng": -97.4583538
      },
      "location_type": "APPROXIMATE",
      "viewport": {
        "southwest": {
          "lat": 32.7408051,
          "lng": -97.4903686
        },
        "northeast": {
          "lat": 32.7783383,
          "lng": -97.4263390
        }
      },
      "bounds": {
        "southwest": {
          "lat": 32.7377720,
          "lng": -97.4800870
        },
        "northeast": {
          "lat": 32.7851640,
          "lng": -97.4292140
        }
      }
    }
  } ]
}
