{
  "status": "OK",
  "results": [ {
    "types": [ "locality", "political" ],
    "formatted_address": "White Oak, TX, USA",
    "address_components": [ {
      "long_name": "White Oak",
      "short_name": "White Oak",
      "types": [ "locality", "political" ]
    }, {
      "long_name": "Gregg",
      "short_name": "Gregg",
      "types": [ "administrative_area_level_2", "political" ]
    }, {
      "long_name": "Texas",
      "short_name": "TX",
      "types": [ "administrative_area_level_1", "political" ]
    }, {
      "long_name": "United States",
      "short_name": "US",
      "types": [ "country", "political" ]
    } ],
    "geometry": {
      "location": {
        "lat": 32.5279235,
        "lng": -94.8613258
      },
      "location_type": "APPROXIMATE",
      "viewport": {
        "southwest": {
          "lat": 32.5091063,
          "lng": -94.8933406
        },
        "northeast": {
          "lat": 32.5467368,
          "lng": -94.8293110
        }
      },
      "bounds": {
        "southwest": {
          "lat": 32.5030069,
          "lng": -94.8782300
        },
        "northeast": {
          "lat": 32.5672129,
          "lng": -94.8294410
        }
      }
    }
  } ]
}
