{
  "status": "OK",
  "results": [ {
    "types": [ "locality", "political" ],
    "formatted_address": "Whitesboro, TX, USA",
    "address_components": [ {
      "long_name": "Whitesboro",
      "short_name": "Whitesboro",
      "types": [ "locality", "political" ]
    }, {
      "long_name": "Northwest Grayson",
      "short_name": "Northwest Grayson",
      "types": [ "administrative_area_level_3", "political" ]
    }, {
      "long_name": "Grayson",
      "short_name": "Grayson",
      "types": [ "administrative_area_level_2", "political" ]
    }, {
      "long_name": "Texas",
      "short_name": "TX",
      "types": [ "administrative_area_level_1", "political" ]
    }, {
      "long_name": "United States",
      "short_name": "US",
      "types": [ "country", "political" ]
    } ],
    "geometry": {
      "location": {
        "lat": 33.6562183,
        "lng": -96.9069480
      },
      "location_type": "APPROXIMATE",
      "viewport": {
        "southwest": {
          "lat": 33.6376410,
          "lng": -96.9389628
        },
        "northeast": {
          "lat": 33.6747916,
          "lng": -96.8749332
        }
      },
      "bounds": {
        "southwest": {
          "lat": 33.6431900,
          "lng": -96.9340680
        },
        "northeast": {
          "lat": 33.6842950,
          "lng": -96.8773600
        }
      }
    }
  } ]
}
