{
  "status": "OK",
  "results": [ {
    "types": [ "locality", "political" ],
    "formatted_address": "Whitehouse, TX, USA",
    "address_components": [ {
      "long_name": "Whitehouse",
      "short_name": "Whitehouse",
      "types": [ "locality", "political" ]
    }, {
      "long_name": "Smith",
      "short_name": "Smith",
      "types": [ "administrative_area_level_2", "political" ]
    }, {
      "long_name": "Texas",
      "short_name": "TX",
      "types": [ "administrative_area_level_1", "political" ]
    }, {
      "long_name": "United States",
      "short_name": "US",
      "types": [ "country", "political" ]
    } ],
    "geometry": {
      "location": {
        "lat": 32.2268212,
        "lng": -95.2255041
      },
      "location_type": "APPROXIMATE",
      "viewport": {
        "southwest": {
          "lat": 32.2079412,
          "lng": -95.2575189
        },
        "northeast": {
          "lat": 32.2456973,
          "lng": -95.1934893
        }
      },
      "bounds": {
        "southwest": {
          "lat": 32.2008910,
          "lng": -95.2478040
        },
        "northeast": {
          "lat": 32.2516920,
          "lng": -95.1875460
        }
      }
    }
  } ]
}
