{
  "status": "OK",
  "results": [ {
    "types": [ "locality", "political" ],
    "formatted_address": "Wills Point, TX, USA",
    "address_components": [ {
      "long_name": "Wills Point",
      "short_name": "Wills Point",
      "types": [ "locality", "political" ]
    }, {
      "long_name": "Van Zandt",
      "short_name": "Van Zandt",
      "types": [ "administrative_area_level_2", "political" ]
    }, {
      "long_name": "Texas",
      "short_name": "TX",
      "types": [ "administrative_area_level_1", "political" ]
    }, {
      "long_name": "United States",
      "short_name": "US",
      "types": [ "country", "political" ]
    } ],
    "geometry": {
      "location": {
        "lat": 32.7092955,
        "lng": -96.0083018
      },
      "location_type": "APPROXIMATE",
      "viewport": {
        "southwest": {
          "lat": 32.6905163,
          "lng": -96.0403166
        },
        "northeast": {
          "lat": 32.7280707,
          "lng": -95.9762870
        }
      },
      "bounds": {
        "southwest": {
          "lat": 32.6961650,
          "lng": -96.0349749
        },
        "northeast": {
          "lat": 32.7260409,
          "lng": -95.9574459
        }
      }
    }
  } ]
}
