{
  "status": "OK",
  "results": [ {
    "types": [ "locality", "political" ],
    "formatted_address": "Winters, TX, USA",
    "address_components": [ {
      "long_name": "Winters",
      "short_name": "Winters",
      "types": [ "locality", "political" ]
    }, {
      "long_name": "Runnels",
      "short_name": "Runnels",
      "types": [ "administrative_area_level_2", "political" ]
    }, {
      "long_name": "Texas",
      "short_name": "TX",
      "types": [ "administrative_area_level_1", "political" ]
    }, {
      "long_name": "United States",
      "short_name": "US",
      "types": [ "country", "political" ]
    } ],
    "geometry": {
      "location": {
        "lat": 31.9565343,
        "lng": -99.9623130
      },
      "location_type": "APPROXIMATE",
      "viewport": {
        "southwest": {
          "lat": 31.9186585,
          "lng": -100.0263427
        },
        "northeast": {
          "lat": 31.9943945,
          "lng": -99.8982833
        }
      },
      "bounds": {
        "southwest": {
          "lat": 31.9337760,
          "lng": -99.9916159
        },
        "northeast": {
          "lat": 31.9942720,
          "lng": -99.8621960
        }
      }
    }
  } ]
}
