{
  "status": "OK",
  "results": [ {
    "types": [ "locality", "political" ],
    "formatted_address": "Alto, GA 30510, USA",
    "address_components": [ {
      "long_name": "Alto",
      "short_name": "Alto",
      "types": [ "locality", "political" ]
    }, {
      "long_name": "Cornelia",
      "short_name": "Cornelia",
      "types": [ "administrative_area_level_3", "political" ]
    }, {
      "long_name": "Habersham",
      "short_name": "Habersham",
      "types": [ "administrative_area_level_2", "political" ]
    }, {
      "long_name": "Georgia",
      "short_name": "GA",
      "types": [ "administrative_area_level_1", "political" ]
    }, {
      "long_name": "United States",
      "short_name": "US",
      "types": [ "country", "political" ]
    }, {
      "long_name": "30510",
      "short_name": "30510",
      "types": [ "postal_code" ]
    } ],
    "geometry": {
      "location": {
        "lat": 34.4673222,
        "lng": -83.5737843
      },
      "location_type": "APPROXIMATE",
      "viewport": {
        "southwest": {
          "lat": 34.4581225,
          "lng": -83.5897917
        },
        "northeast": {
          "lat": 34.4765209,
          "lng": -83.5577769
        }
      },
      "bounds": {
        "southwest": {
          "lat": 34.4526550,
          "lng": -83.5844450
        },
        "northeast": {
          "lat": 34.4763970,
          "lng": -83.5626650
        }
      }
    }
  } ]
}
