{
  "status": "OK",
  "results": [ {
    "types": [ "locality", "political" ],
    "formatted_address": "Attapulgus, GA, USA",
    "address_components": [ {
      "long_name": "Attapulgus",
      "short_name": "Attapulgus",
      "types": [ "locality", "political" ]
    }, {
      "long_name": "Decatur",
      "short_name": "Decatur",
      "types": [ "administrative_area_level_2", "political" ]
    }, {
      "long_name": "Georgia",
      "short_name": "GA",
      "types": [ "administrative_area_level_1", "political" ]
    }, {
      "long_name": "United States",
      "short_name": "US",
      "types": [ "country", "political" ]
    } ],
    "geometry": {
      "location": {
        "lat": 30.7490815,
        "lng": -84.4837998
      },
      "location_type": "APPROXIMATE",
      "viewport": {
        "southwest": {
          "lat": 30.7394917,
          "lng": -84.4998072
        },
        "northeast": {
          "lat": 30.7586704,
          "lng": -84.4677924
        }
      },
      "bounds": {
        "southwest": {
          "lat": 30.7421570,
          "lng": -84.4925660
        },
        "northeast": {
          "lat": 30.7567680,
          "lng": -84.4754440
        }
      }
    }
  } ]
}
