{
  "status": "OK",
  "results": [ {
    "types": [ "locality", "political" ],
    "formatted_address": "Baldwin, GA, USA",
    "address_components": [ {
      "long_name": "Baldwin",
      "short_name": "Baldwin",
      "types": [ "locality", "political" ]
    }, {
      "long_name": "Habersham",
      "short_name": "Habersham",
      "types": [ "administrative_area_level_2", "political" ]
    }, {
      "long_name": "Georgia",
      "short_name": "GA",
      "types": [ "administrative_area_level_1", "political" ]
    }, {
      "long_name": "United States",
      "short_name": "US",
      "types": [ "country", "political" ]
    } ],
    "geometry": {
      "location": {
        "lat": 34.4917665,
        "lng": -83.5373946
      },
      "location_type": "APPROXIMATE",
      "viewport": {
        "southwest": {
          "lat": 34.4549724,
          "lng": -83.6014243
        },
        "northeast": {
          "lat": 34.5285444,
          "lng": -83.4733649
        }
      },
      "bounds": {
        "southwest": {
          "lat": 34.4543220,
          "lng": -83.5901090
        },
        "northeast": {
          "lat": 34.5082949,
          "lng": -83.5209730
        }
      }
    }
  } ]
}
