{
  "status": "OK",
  "results": [ {
    "types": [ "locality", "political" ],
    "formatted_address": "Barwick, GA, USA",
    "address_components": [ {
      "long_name": "Barwick",
      "short_name": "Barwick",
      "types": [ "locality", "political" ]
    }, {
      "long_name": "Brooks",
      "short_name": "Brooks",
      "types": [ "administrative_area_level_2", "political" ]
    }, {
      "long_name": "Georgia",
      "short_name": "GA",
      "types": [ "administrative_area_level_1", "political" ]
    }, {
      "long_name": "United States",
      "short_name": "US",
      "types": [ "country", "political" ]
    } ],
    "geometry": {
      "location": {
        "lat": 30.8901919,
        "lng": -83.7407217
      },
      "location_type": "APPROXIMATE",
      "viewport": {
        "southwest": {
          "lat": 30.8806162,
          "lng": -83.7567291
        },
        "northeast": {
          "lat": 30.8997667,
          "lng": -83.7247143
        }
      },
      "bounds": {
        "southwest": {
          "lat": 30.8857240,
          "lng": -83.7478249
        },
        "northeast": {
          "lat": 30.9003140,
          "lng": -83.7309000
        }
      }
    }
  } ]
}
