{
  "status": "OK",
  "results": [ {
    "types": [ "locality", "political" ],
    "formatted_address": "Berlin, GA, USA",
    "address_components": [ {
      "long_name": "Berlin",
      "short_name": "Berlin",
      "types": [ "locality", "political" ]
    }, {
      "long_name": "Berlin-Ellenton",
      "short_name": "Berlin-Ellenton",
      "types": [ "administrative_area_level_3", "political" ]
    }, {
      "long_name": "Colquitt",
      "short_name": "Colquitt",
      "types": [ "administrative_area_level_2", "political" ]
    }, {
      "long_name": "Georgia",
      "short_name": "GA",
      "types": [ "administrative_area_level_1", "political" ]
    }, {
      "long_name": "United States",
      "short_name": "US",
      "types": [ "country", "political" ]
    } ],
    "geometry": {
      "location": {
        "lat": 31.0682441,
        "lng": -83.6237780
      },
      "location_type": "APPROXIMATE",
      "viewport": {
        "southwest": {
          "lat": 31.0586862,
          "lng": -83.6397854
        },
        "northeast": {
          "lat": 31.0778010,
          "lng": -83.6077706
        }
      },
      "bounds": {
        "southwest": {
          "lat": 31.0614160,
          "lng": -83.6313249
        },
        "northeast": {
          "lat": 31.0744230,
          "lng": -83.6164730
        }
      }
    }
  } ]
}
