{
  "status": "OK",
  "results": [ {
    "types": [ "locality", "political" ],
    "formatted_address": "Blairsville, GA 30512, USA",
    "address_components": [ {
      "long_name": "Blairsville",
      "short_name": "Blairsville",
      "types": [ "locality", "political" ]
    }, {
      "long_name": "Union",
      "short_name": "Union",
      "types": [ "administrative_area_level_2", "political" ]
    }, {
      "long_name": "Georgia",
      "short_name": "GA",
      "types": [ "administrative_area_level_1", "political" ]
    }, {
      "long_name": "United States",
      "short_name": "US",
      "types": [ "country", "political" ]
    }, {
      "long_name": "30512",
      "short_name": "30512",
      "types": [ "postal_code" ]
    } ],
    "geometry": {
      "location": {
        "lat": 34.8761989,
        "lng": -83.9582412
      },
      "location_type": "APPROXIMATE",
      "viewport": {
        "southwest": {
          "lat": 34.8670445,
          "lng": -83.9742486
        },
        "northeast": {
          "lat": 34.8853523,
          "lng": -83.9422338
        }
      },
      "bounds": {
        "southwest": {
          "lat": 34.8687320,
          "lng": -83.9676140
        },
        "northeast": {
          "lat": 34.8833709,
          "lng": -83.9398980
        }
      }
    }
  } ]
}
