{
  "status": "OK",
  "results": [ {
    "types": [ "locality", "political" ],
    "formatted_address": "Bowdon, GA, USA",
    "address_components": [ {
      "long_name": "Bowdon",
      "short_name": "Bowdon",
      "types": [ "locality", "political" ]
    }, {
      "long_name": "Carroll",
      "short_name": "Carroll",
      "types": [ "administrative_area_level_2", "political" ]
    }, {
      "long_name": "Georgia",
      "short_name": "GA",
      "types": [ "administrative_area_level_1", "political" ]
    }, {
      "long_name": "United States",
      "short_name": "US",
      "types": [ "country", "political" ]
    } ],
    "geometry": {
      "location": {
        "lat": 33.5378885,
        "lng": -85.2532818
      },
      "location_type": "APPROXIMATE",
      "viewport": {
        "southwest": {
          "lat": 33.5192857,
          "lng": -85.2852966
        },
        "northeast": {
          "lat": 33.5564873,
          "lng": -85.2212670
        }
      },
      "bounds": {
        "southwest": {
          "lat": 33.5227299,
          "lng": -85.2776930
        },
        "northeast": {
          "lat": 33.5525630,
          "lng": -85.2360250
        }
      }
    }
  } ]
}
