{
  "status": "OK",
  "results": [ {
    "types": [ "locality", "political" ],
    "formatted_address": "Byron, GA, USA",
    "address_components": [ {
      "long_name": "Byron",
      "short_name": "Byron",
      "types": [ "locality", "political" ]
    }, {
      "long_name": "Peach",
      "short_name": "Peach",
      "types": [ "administrative_area_level_2", "political" ]
    }, {
      "long_name": "Georgia",
      "short_name": "GA",
      "types": [ "administrative_area_level_1", "political" ]
    }, {
      "long_name": "United States",
      "short_name": "US",
      "types": [ "country", "political" ]
    } ],
    "geometry": {
      "location": {
        "lat": 32.6537561,
        "lng": -83.7596295
      },
      "location_type": "APPROXIMATE",
      "viewport": {
        "southwest": {
          "lat": 32.6161705,
          "lng": -83.8236592
        },
        "northeast": {
          "lat": 32.6913259,
          "lng": -83.6955998
        }
      },
      "bounds": {
        "southwest": {
          "lat": 32.6056600,
          "lng": -83.7890810
        },
        "northeast": {
          "lat": 32.6848740,
          "lng": -83.7185640
        }
      }
    }
  } ]
}
