{
  "status": "OK",
  "results": [ {
    "types": [ "locality", "political" ],
    "formatted_address": "Cedartown, GA, USA",
    "address_components": [ {
      "long_name": "Cedartown",
      "short_name": "Cedartown",
      "types": [ "locality", "political" ]
    }, {
      "long_name": "Polk",
      "short_name": "Polk",
      "types": [ "administrative_area_level_2", "political" ]
    }, {
      "long_name": "Georgia",
      "short_name": "GA",
      "types": [ "administrative_area_level_1", "political" ]
    }, {
      "long_name": "United States",
      "short_name": "US",
      "types": [ "country", "political" ]
    } ],
    "geometry": {
      "location": {
        "lat": 34.0184900,
        "lng": -85.2534640
      },
      "location_type": "APPROXIMATE",
      "viewport": {
        "southwest": {
          "lat": 33.9814884,
          "lng": -85.3174937
        },
        "northeast": {
          "lat": 34.0554755,
          "lng": -85.1894343
        }
      },
      "bounds": {
        "southwest": {
          "lat": 33.9619910,
          "lng": -85.2995260
        },
        "northeast": {
          "lat": 34.0751170,
          "lng": -85.1675030
        }
      }
    }
  } ]
}
