{
  "status": "OK",
  "results": [ {
    "types": [ "locality", "political" ],
    "formatted_address": "Coolidge, GA, USA",
    "address_components": [ {
      "long_name": "Coolidge",
      "short_name": "Coolidge",
      "types": [ "locality", "political" ]
    }, {
      "long_name": "Thomas",
      "short_name": "Thomas",
      "types": [ "administrative_area_level_2", "political" ]
    }, {
      "long_name": "Georgia",
      "short_name": "GA",
      "types": [ "administrative_area_level_1", "political" ]
    }, {
      "long_name": "United States",
      "short_name": "US",
      "types": [ "country", "political" ]
    } ],
    "geometry": {
      "location": {
        "lat": 31.0112991,
        "lng": -83.8662821
      },
      "location_type": "APPROXIMATE",
      "viewport": {
        "southwest": {
          "lat": 31.0017355,
          "lng": -83.8822895
        },
        "northeast": {
          "lat": 31.0208618,
          "lng": -83.8502747
        }
      },
      "bounds": {
        "southwest": {
          "lat": 31.0030590,
          "lng": -83.8743970
        },
        "northeast": {
          "lat": 31.0199869,
          "lng": -83.8579029
        }
      }
    }
  } ]
}
