{
  "status": "OK",
  "results": [ {
    "types": [ "locality", "political" ],
    "formatted_address": "Cordele, GA, USA",
    "address_components": [ {
      "long_name": "Cordele",
      "short_name": "Cordele",
      "types": [ "locality", "political" ]
    }, {
      "long_name": "Crisp",
      "short_name": "Crisp",
      "types": [ "administrative_area_level_2", "political" ]
    }, {
      "long_name": "Georgia",
      "short_name": "GA",
      "types": [ "administrative_area_level_1", "political" ]
    }, {
      "long_name": "United States",
      "short_name": "US",
      "types": [ "country", "political" ]
    } ],
    "geometry": {
      "location": {
        "lat": 31.9635074,
        "lng": -83.7823938
      },
      "location_type": "APPROXIMATE",
      "viewport": {
        "southwest": {
          "lat": 31.9256345,
          "lng": -83.8464235
        },
        "northeast": {
          "lat": 32.0013647,
          "lng": -83.7183641
        }
      },
      "bounds": {
        "southwest": {
          "lat": 31.9232720,
          "lng": -83.8103139
        },
        "northeast": {
          "lat": 31.9962800,
          "lng": -83.7233700
        }
      }
    }
  } ]
}
