{
  "status": "OK",
  "results": [ {
    "types": [ "locality", "political" ],
    "formatted_address": "Cornelia, GA, USA",
    "address_components": [ {
      "long_name": "Cornelia",
      "short_name": "Cornelia",
      "types": [ "locality", "political" ]
    }, {
      "long_name": "Habersham",
      "short_name": "Habersham",
      "types": [ "administrative_area_level_2", "political" ]
    }, {
      "long_name": "Georgia",
      "short_name": "GA",
      "types": [ "administrative_area_level_1", "political" ]
    }, {
      "long_name": "United States",
      "short_name": "US",
      "types": [ "country", "political" ]
    } ],
    "geometry": {
      "location": {
        "lat": 34.5114883,
        "lng": -83.5271166
      },
      "location_type": "APPROXIMATE",
      "viewport": {
        "southwest": {
          "lat": 34.4930976,
          "lng": -83.5591314
        },
        "northeast": {
          "lat": 34.5298749,
          "lng": -83.4951018
        }
      },
      "bounds": {
        "southwest": {
          "lat": 34.4930740,
          "lng": -83.5580480
        },
        "northeast": {
          "lat": 34.5471850,
          "lng": -83.5021170
        }
      }
    }
  } ]
}
