{
  "status": "OK",
  "results": [ {
    "types": [ "locality", "political" ],
    "formatted_address": "Dublin, GA, USA",
    "address_components": [ {
      "long_name": "Dublin",
      "short_name": "Dublin",
      "types": [ "locality", "political" ]
    }, {
      "long_name": "Laurens",
      "short_name": "Laurens",
      "types": [ "administrative_area_level_2", "political" ]
    }, {
      "long_name": "Georgia",
      "short_name": "GA",
      "types": [ "administrative_area_level_1", "political" ]
    }, {
      "long_name": "United States",
      "short_name": "US",
      "types": [ "country", "political" ]
    } ],
    "geometry": {
      "location": {
        "lat": 32.5404447,
        "lng": -82.9037540
      },
      "location_type": "APPROXIMATE",
      "viewport": {
        "southwest": {
          "lat": 32.5028115,
          "lng": -82.9677837
        },
        "northeast": {
          "lat": 32.5780621,
          "lng": -82.8397243
        }
      },
      "bounds": {
        "southwest": {
          "lat": 32.4819040,
          "lng": -82.9850950
        },
        "northeast": {
          "lat": 32.6028480,
          "lng": -82.8750659
        }
      }
    }
  } ]
}
