{
  "status": "OK",
  "results": [ {
    "types": [ "locality", "political" ],
    "formatted_address": "Eastman, GA, USA",
    "address_components": [ {
      "long_name": "Eastman",
      "short_name": "Eastman",
      "types": [ "locality", "political" ]
    }, {
      "long_name": "Dodge",
      "short_name": "Dodge",
      "types": [ "administrative_area_level_2", "political" ]
    }, {
      "long_name": "Georgia",
      "short_name": "GA",
      "types": [ "administrative_area_level_1", "political" ]
    }, {
      "long_name": "United States",
      "short_name": "US",
      "types": [ "country", "political" ]
    } ],
    "geometry": {
      "location": {
        "lat": 32.1976729,
        "lng": -83.1776514
      },
      "location_type": "APPROXIMATE",
      "viewport": {
        "southwest": {
          "lat": 32.1598968,
          "lng": -83.2416811
        },
        "northeast": {
          "lat": 32.2354333,
          "lng": -83.1136217
        }
      },
      "bounds": {
        "southwest": {
          "lat": 32.1615410,
          "lng": -83.2164109
        },
        "northeast": {
          "lat": 32.2222690,
          "lng": -83.1244560
        }
      }
    }
  } ]
}
