{
  "status": "OK",
  "results": [ {
    "types": [ "locality", "political" ],
    "formatted_address": "Folkston, GA, USA",
    "address_components": [ {
      "long_name": "Folkston",
      "short_name": "Folkston",
      "types": [ "locality", "political" ]
    }, {
      "long_name": "Charlton",
      "short_name": "Charlton",
      "types": [ "administrative_area_level_2", "political" ]
    }, {
      "long_name": "Georgia",
      "short_name": "GA",
      "types": [ "administrative_area_level_1", "political" ]
    }, {
      "long_name": "United States",
      "short_name": "US",
      "types": [ "country", "political" ]
    } ],
    "geometry": {
      "location": {
        "lat": 30.8305102,
        "lng": -82.0098375
      },
      "location_type": "APPROXIMATE",
      "viewport": {
        "southwest": {
          "lat": 30.7921777,
          "lng": -82.0738672
        },
        "northeast": {
          "lat": 30.8688274,
          "lng": -81.9458078
        }
      },
      "bounds": {
        "southwest": {
          "lat": 30.8108390,
          "lng": -82.0355780
        },
        "northeast": {
          "lat": 30.8835730,
          "lng": -81.9732669
        }
      }
    }
  } ]
}
