{
  "status": "OK",
  "results": [ {
    "types": [ "locality", "political" ],
    "formatted_address": "Forest Park, GA, USA",
    "address_components": [ {
      "long_name": "Forest Park",
      "short_name": "Forest Park",
      "types": [ "locality", "political" ]
    }, {
      "long_name": "Clayton",
      "short_name": "Clayton",
      "types": [ "administrative_area_level_2", "political" ]
    }, {
      "long_name": "Georgia",
      "short_name": "GA",
      "types": [ "administrative_area_level_1", "political" ]
    }, {
      "long_name": "United States",
      "short_name": "US",
      "types": [ "country", "political" ]
    } ],
    "geometry": {
      "location": {
        "lat": 33.6220542,
        "lng": -84.3690918
      },
      "location_type": "APPROXIMATE",
      "viewport": {
        "southwest": {
          "lat": 33.5848808,
          "lng": -84.4331215
        },
        "northeast": {
          "lat": 33.6592116,
          "lng": -84.3050621
        }
      },
      "bounds": {
        "southwest": {
          "lat": 33.5874990,
          "lng": -84.4024120
        },
        "northeast": {
          "lat": 33.6480139,
          "lng": -84.3074230
        }
      }
    }
  } ]
}
