{
  "status": "OK",
  "results": [ {
    "types": [ "locality", "political" ],
    "formatted_address": "Franklin, GA, USA",
    "address_components": [ {
      "long_name": "Franklin",
      "short_name": "Franklin",
      "types": [ "locality", "political" ]
    }, {
      "long_name": "Heard",
      "short_name": "Heard",
      "types": [ "administrative_area_level_2", "political" ]
    }, {
      "long_name": "Georgia",
      "short_name": "GA",
      "types": [ "administrative_area_level_1", "political" ]
    }, {
      "long_name": "United States",
      "short_name": "US",
      "types": [ "country", "political" ]
    } ],
    "geometry": {
      "location": {
        "lat": 33.2776182,
        "lng": -85.0979973
      },
      "location_type": "APPROXIMATE",
      "viewport": {
        "southwest": {
          "lat": 33.2682894,
          "lng": -85.1140047
        },
        "northeast": {
          "lat": 33.2869460,
          "lng": -85.0819899
        }
      },
      "bounds": {
        "southwest": {
          "lat": 33.2637030,
          "lng": -85.1158980
        },
        "northeast": {
          "lat": 33.2946550,
          "lng": -85.0813550
        }
      }
    }
  } ]
}
