{
  "status": "OK",
  "results": [ {
    "types": [ "locality", "political" ],
    "formatted_address": "Hoboken, GA 31542, USA",
    "address_components": [ {
      "long_name": "Hoboken",
      "short_name": "Hoboken",
      "types": [ "locality", "political" ]
    }, {
      "long_name": "Brantley",
      "short_name": "Brantley",
      "types": [ "administrative_area_level_2", "political" ]
    }, {
      "long_name": "Georgia",
      "short_name": "GA",
      "types": [ "administrative_area_level_1", "political" ]
    }, {
      "long_name": "United States",
      "short_name": "US",
      "types": [ "country", "political" ]
    }, {
      "long_name": "31542",
      "short_name": "31542",
      "types": [ "postal_code" ]
    } ],
    "geometry": {
      "location": {
        "lat": 31.1810559,
        "lng": -82.1348416
      },
      "location_type": "APPROXIMATE",
      "viewport": {
        "southwest": {
          "lat": 31.1715094,
          "lng": -82.1508490
        },
        "northeast": {
          "lat": 31.1906015,
          "lng": -82.1188342
        }
      },
      "bounds": {
        "southwest": {
          "lat": 31.1682420,
          "lng": -82.1520929
        },
        "northeast": {
          "lat": 31.1946269,
          "lng": -82.1132569
        }
      }
    }
  } ]
}
