{
  "status": "OK",
  "results": [ {
    "types": [ "locality", "political" ],
    "formatted_address": "Hoschton, GA, USA",
    "address_components": [ {
      "long_name": "Hoschton",
      "short_name": "Hoschton",
      "types": [ "locality", "political" ]
    }, {
      "long_name": "Jackson",
      "short_name": "Jackson",
      "types": [ "administrative_area_level_2", "political" ]
    }, {
      "long_name": "Georgia",
      "short_name": "GA",
      "types": [ "administrative_area_level_1", "political" ]
    }, {
      "long_name": "United States",
      "short_name": "US",
      "types": [ "country", "political" ]
    } ],
    "geometry": {
      "location": {
        "lat": 34.0964960,
        "lng": -83.7612839
      },
      "location_type": "APPROXIMATE",
      "viewport": {
        "southwest": {
          "lat": 34.0780142,
          "lng": -83.7932987
        },
        "northeast": {
          "lat": 34.1149737,
          "lng": -83.7292691
        }
      },
      "bounds": {
        "southwest": {
          "lat": 34.0783780,
          "lng": -83.7841380
        },
        "northeast": {
          "lat": 34.1073480,
          "lng": -83.7396119
        }
      }
    }
  } ]
}
