{
  "status": "OK",
  "results": [ {
    "types": [ "locality", "political" ],
    "formatted_address": "LaGrange, GA, USA",
    "address_components": [ {
      "long_name": "LaGrange",
      "short_name": "LaGrange",
      "types": [ "locality", "political" ]
    }, {
      "long_name": "Troup",
      "short_name": "Troup",
      "types": [ "administrative_area_level_2", "political" ]
    }, {
      "long_name": "Georgia",
      "short_name": "GA",
      "types": [ "administrative_area_level_1", "political" ]
    }, {
      "long_name": "United States",
      "short_name": "US",
      "types": [ "country", "political" ]
    } ],
    "geometry": {
      "location": {
        "lat": 33.0365750,
        "lng": -85.0319300
      },
      "location_type": "APPROXIMATE",
      "viewport": {
        "southwest": {
          "lat": 32.9617113,
          "lng": -85.1599894
        },
        "northeast": {
          "lat": 33.1113752,
          "lng": -84.9038706
        }
      },
      "bounds": {
        "southwest": {
          "lat": 32.9658752,
          "lng": -85.1074600
        },
        "northeast": {
          "lat": 33.1074950,
          "lng": -84.9499529
        }
      }
    }
  } ]
}
