{
  "status": "OK",
  "results": [ {
    "types": [ "locality", "political" ],
    "formatted_address": "Lilburn, GA, USA",
    "address_components": [ {
      "long_name": "Lilburn",
      "short_name": "Lilburn",
      "types": [ "locality", "political" ]
    }, {
      "long_name": "Gwinnett",
      "short_name": "Gwinnett",
      "types": [ "administrative_area_level_2", "political" ]
    }, {
      "long_name": "Georgia",
      "short_name": "GA",
      "types": [ "administrative_area_level_1", "political" ]
    }, {
      "long_name": "United States",
      "short_name": "US",
      "types": [ "country", "political" ]
    } ],
    "geometry": {
      "location": {
        "lat": 33.8901036,
        "lng": -84.1429719
      },
      "location_type": "APPROXIMATE",
      "viewport": {
        "southwest": {
          "lat": 33.8715769,
          "lng": -84.1749867
        },
        "northeast": {
          "lat": 33.9086263,
          "lng": -84.1109571
        }
      },
      "bounds": {
        "southwest": {
          "lat": 33.8675409,
          "lng": -84.1674429
        },
        "northeast": {
          "lat": 33.9082099,
          "lng": -84.1087010
        }
      }
    }
  } ]
}
