{
  "status": "OK",
  "results": [ {
    "types": [ "locality", "political" ],
    "formatted_address": "Lithonia, GA, USA",
    "address_components": [ {
      "long_name": "Lithonia",
      "short_name": "Lithonia",
      "types": [ "locality", "political" ]
    }, {
      "long_name": "DeKalb",
      "short_name": "DeKalb",
      "types": [ "administrative_area_level_2", "political" ]
    }, {
      "long_name": "Georgia",
      "short_name": "GA",
      "types": [ "administrative_area_level_1", "political" ]
    }, {
      "long_name": "United States",
      "short_name": "US",
      "types": [ "country", "political" ]
    } ],
    "geometry": {
      "location": {
        "lat": 33.7123305,
        "lng": -84.1051939
      },
      "location_type": "APPROXIMATE",
      "viewport": {
        "southwest": {
          "lat": 33.7030484,
          "lng": -84.1212013
        },
        "northeast": {
          "lat": 33.7216116,
          "lng": -84.0891865
        }
      },
      "bounds": {
        "southwest": {
          "lat": 33.7052709,
          "lng": -84.1143360
        },
        "northeast": {
          "lat": 33.7198020,
          "lng": -84.0971139
        }
      }
    }
  } ]
}
