{
  "status": "OK",
  "results": [ {
    "types": [ "locality", "political" ],
    "formatted_address": "Lumber City, GA, USA",
    "address_components": [ {
      "long_name": "Lumber City",
      "short_name": "Lumber City",
      "types": [ "locality", "political" ]
    }, {
      "long_name": "Telfair",
      "short_name": "Telfair",
      "types": [ "administrative_area_level_2", "political" ]
    }, {
      "long_name": "Georgia",
      "short_name": "GA",
      "types": [ "administrative_area_level_1", "political" ]
    }, {
      "long_name": "United States",
      "short_name": "US",
      "types": [ "country", "political" ]
    } ],
    "geometry": {
      "location": {
        "lat": 31.9293488,
        "lng": -82.6795831
      },
      "location_type": "APPROXIMATE",
      "viewport": {
        "southwest": {
          "lat": 31.9198785,
          "lng": -82.6955905
        },
        "northeast": {
          "lat": 31.9388181,
          "lng": -82.6635757
        }
      },
      "bounds": {
        "southwest": {
          "lat": 31.9210800,
          "lng": -82.6956670
        },
        "northeast": {
          "lat": 31.9488520,
          "lng": -82.6687170
        }
      }
    }
  } ]
}
