{
  "status": "OK",
  "results": [ {
    "types": [ "locality", "political" ],
    "formatted_address": "McCaysville, GA, USA",
    "address_components": [ {
      "long_name": "McCaysville",
      "short_name": "McCaysville",
      "types": [ "locality", "political" ]
    }, {
      "long_name": "Fannin",
      "short_name": "Fannin",
      "types": [ "administrative_area_level_2", "political" ]
    }, {
      "long_name": "Georgia",
      "short_name": "GA",
      "types": [ "administrative_area_level_1", "political" ]
    }, {
      "long_name": "United States",
      "short_name": "US",
      "types": [ "country", "political" ]
    } ],
    "geometry": {
      "location": {
        "lat": 34.9861914,
        "lng": -84.3713117
      },
      "location_type": "APPROXIMATE",
      "viewport": {
        "southwest": {
          "lat": 34.9770493,
          "lng": -84.3873191
        },
        "northeast": {
          "lat": 34.9953325,
          "lng": -84.3553043
        }
      },
      "bounds": {
        "southwest": {
          "lat": 34.9713069,
          "lng": -84.3865529
        },
        "northeast": {
          "lat": 34.9882829,
          "lng": -84.3524920
        }
      }
    }
  } ]
}
