{
  "status": "OK",
  "results": [ {
    "types": [ "locality", "political" ],
    "formatted_address": "Molena, GA, USA",
    "address_components": [ {
      "long_name": "Molena",
      "short_name": "Molena",
      "types": [ "locality", "political" ]
    }, {
      "long_name": "Pike",
      "short_name": "Pike",
      "types": [ "administrative_area_level_2", "political" ]
    }, {
      "long_name": "Georgia",
      "short_name": "GA",
      "types": [ "administrative_area_level_1", "political" ]
    }, {
      "long_name": "United States",
      "short_name": "US",
      "types": [ "country", "political" ]
    } ],
    "geometry": {
      "location": {
        "lat": 33.0120724,
        "lng": -84.5002013
      },
      "location_type": "APPROXIMATE",
      "viewport": {
        "southwest": {
          "lat": 33.0027153,
          "lng": -84.5162087
        },
        "northeast": {
          "lat": 33.0214285,
          "lng": -84.4841939
        }
      },
      "bounds": {
        "southwest": {
          "lat": 33.0010849,
          "lng": -84.5129930
        },
        "northeast": {
          "lat": 33.0227930,
          "lng": -84.4872140
        }
      }
    }
  } ]
}
