{
  "status": "OK",
  "results": [ {
    "types": [ "locality", "political" ],
    "formatted_address": "Montezuma, GA, USA",
    "address_components": [ {
      "long_name": "Montezuma",
      "short_name": "Montezuma",
      "types": [ "locality", "political" ]
    }, {
      "long_name": "Macon",
      "short_name": "Macon",
      "types": [ "administrative_area_level_2", "political" ]
    }, {
      "long_name": "Georgia",
      "short_name": "GA",
      "types": [ "administrative_area_level_1", "political" ]
    }, {
      "long_name": "United States",
      "short_name": "US",
      "types": [ "country", "political" ]
    } ],
    "geometry": {
      "location": {
        "lat": 32.3051576,
        "lng": -84.0274072
      },
      "location_type": "APPROXIMATE",
      "viewport": {
        "southwest": {
          "lat": 32.2862939,
          "lng": -84.0594220
        },
        "northeast": {
          "lat": 32.3240174,
          "lng": -83.9953924
        }
      },
      "bounds": {
        "southwest": {
          "lat": 32.2799780,
          "lng": -84.0468370
        },
        "northeast": {
          "lat": 32.3240160,
          "lng": -84.0047910
        }
      }
    }
  } ]
}
