{
  "status": "OK",
  "results": [ {
    "types": [ "locality", "political" ],
    "formatted_address": "Mount Airy, GA, USA",
    "address_components": [ {
      "long_name": "Mount Airy",
      "short_name": "Mount Airy",
      "types": [ "locality", "political" ]
    }, {
      "long_name": "Habersham",
      "short_name": "Habersham",
      "types": [ "administrative_area_level_2", "political" ]
    }, {
      "long_name": "Georgia",
      "short_name": "GA",
      "types": [ "administrative_area_level_1", "political" ]
    }, {
      "long_name": "United States",
      "short_name": "US",
      "types": [ "country", "political" ]
    } ],
    "geometry": {
      "location": {
        "lat": 34.5187106,
        "lng": -83.5007265
      },
      "location_type": "APPROXIMATE",
      "viewport": {
        "southwest": {
          "lat": 34.5003215,
          "lng": -83.5327413
        },
        "northeast": {
          "lat": 34.5370956,
          "lng": -83.4687117
        }
      },
      "bounds": {
        "southwest": {
          "lat": 34.5068060,
          "lng": -83.5182320
        },
        "northeast": {
          "lat": 34.5378259,
          "lng": -83.4666869
        }
      }
    }
  } ]
}
