{
  "status": "OK",
  "results": [ {
    "types": [ "locality", "political" ],
    "formatted_address": "Newington, GA, USA",
    "address_components": [ {
      "long_name": "Newington",
      "short_name": "Newington",
      "types": [ "locality", "political" ]
    }, {
      "long_name": "Screven",
      "short_name": "Screven",
      "types": [ "administrative_area_level_2", "political" ]
    }, {
      "long_name": "Georgia",
      "short_name": "GA",
      "types": [ "administrative_area_level_1", "political" ]
    }, {
      "long_name": "United States",
      "short_name": "US",
      "types": [ "country", "political" ]
    } ],
    "geometry": {
      "location": {
        "lat": 32.5901748,
        "lng": -81.5039960
      },
      "location_type": "APPROXIMATE",
      "viewport": {
        "southwest": {
          "lat": 32.5807732,
          "lng": -81.5200034
        },
        "northeast": {
          "lat": 32.5995754,
          "lng": -81.4879886
        }
      },
      "bounds": {
        "southwest": {
          "lat": 32.5812630,
          "lng": -81.5148380
        },
        "northeast": {
          "lat": 32.5984950,
          "lng": -81.4968799
        }
      }
    }
  } ]
}
