{
  "status": "OK",
  "results": [ {
    "types": [ "locality", "political" ],
    "formatted_address": "Newnan, GA, USA",
    "address_components": [ {
      "long_name": "Newnan",
      "short_name": "Newnan",
      "types": [ "locality", "political" ]
    }, {
      "long_name": "Coweta",
      "short_name": "Coweta",
      "types": [ "administrative_area_level_2", "political" ]
    }, {
      "long_name": "Georgia",
      "short_name": "GA",
      "types": [ "administrative_area_level_1", "political" ]
    }, {
      "long_name": "United States",
      "short_name": "US",
      "types": [ "country", "political" ]
    } ],
    "geometry": {
      "location": {
        "lat": 33.3806716,
        "lng": -84.7996573
      },
      "location_type": "APPROXIMATE",
      "viewport": {
        "southwest": {
          "lat": 33.3433944,
          "lng": -84.8636870
        },
        "northeast": {
          "lat": 33.4179328,
          "lng": -84.7356276
        }
      },
      "bounds": {
        "southwest": {
          "lat": 33.3397200,
          "lng": -84.8327000
        },
        "northeast": {
          "lat": 33.4157809,
          "lng": -84.6935220
        }
      }
    }
  } ]
}
