{
  "status": "OK",
  "results": [ {
    "types": [ "locality", "political" ],
    "formatted_address": "Norman Park, GA, USA",
    "address_components": [ {
      "long_name": "Norman Park",
      "short_name": "Norman Park",
      "types": [ "locality", "political" ]
    }, {
      "long_name": "Colquitt",
      "short_name": "Colquitt",
      "types": [ "administrative_area_level_2", "political" ]
    }, {
      "long_name": "Georgia",
      "short_name": "GA",
      "types": [ "administrative_area_level_1", "political" ]
    }, {
      "long_name": "United States",
      "short_name": "US",
      "types": [ "country", "political" ]
    } ],
    "geometry": {
      "location": {
        "lat": 31.2690741,
        "lng": -83.6871168
      },
      "location_type": "APPROXIMATE",
      "viewport": {
        "southwest": {
          "lat": 31.2595364,
          "lng": -83.7031242
        },
        "northeast": {
          "lat": 31.2786108,
          "lng": -83.6711094
        }
      },
      "bounds": {
        "southwest": {
          "lat": 31.2548130,
          "lng": -83.7013690
        },
        "northeast": {
          "lat": 31.2839160,
          "lng": -83.6676720
        }
      }
    }
  } ]
}
