{
  "status": "OK",
  "results": [ {
    "types": [ "locality", "political" ],
    "formatted_address": "Oxford, GA, USA",
    "address_components": [ {
      "long_name": "Oxford",
      "short_name": "Oxford",
      "types": [ "locality", "political" ]
    }, {
      "long_name": "Newton",
      "short_name": "Newton",
      "types": [ "administrative_area_level_2", "political" ]
    }, {
      "long_name": "Georgia",
      "short_name": "GA",
      "types": [ "administrative_area_level_1", "political" ]
    }, {
      "long_name": "United States",
      "short_name": "US",
      "types": [ "country", "political" ]
    } ],
    "geometry": {
      "location": {
        "lat": 33.6190031,
        "lng": -83.8674051
      },
      "location_type": "APPROXIMATE",
      "viewport": {
        "southwest": {
          "lat": 33.6004177,
          "lng": -83.8994199
        },
        "northeast": {
          "lat": 33.6375845,
          "lng": -83.8353903
        }
      },
      "bounds": {
        "southwest": {
          "lat": 33.6108240,
          "lng": -83.8878380
        },
        "northeast": {
          "lat": 33.6464379,
          "lng": -83.8586189
        }
      }
    }
  } ]
}
