{
  "status": "OK",
  "results": [ {
    "types": [ "locality", "political" ],
    "formatted_address": "Pembroke, GA, USA",
    "address_components": [ {
      "long_name": "Pembroke",
      "short_name": "Pembroke",
      "types": [ "locality", "political" ]
    }, {
      "long_name": "Bryan",
      "short_name": "Bryan",
      "types": [ "administrative_area_level_2", "political" ]
    }, {
      "long_name": "Georgia",
      "short_name": "GA",
      "types": [ "administrative_area_level_1", "political" ]
    }, {
      "long_name": "United States",
      "short_name": "US",
      "types": [ "country", "political" ]
    } ],
    "geometry": {
      "location": {
        "lat": 32.1360332,
        "lng": -81.6220565
      },
      "location_type": "APPROXIMATE",
      "viewport": {
        "southwest": {
          "lat": 32.0982316,
          "lng": -81.6860862
        },
        "northeast": {
          "lat": 32.1738192,
          "lng": -81.5580268
        }
      },
      "bounds": {
        "southwest": {
          "lat": 32.1212070,
          "lng": -81.6464900
        },
        "northeast": {
          "lat": 32.1784890,
          "lng": -81.5746839
        }
      }
    }
  } ]
}
