{
  "status": "OK",
  "results": [ {
    "types": [ "locality", "political" ],
    "formatted_address": "Pendergrass, GA, USA",
    "address_components": [ {
      "long_name": "Pendergrass",
      "short_name": "Pendergrass",
      "types": [ "locality", "political" ]
    }, {
      "long_name": "Jackson",
      "short_name": "Jackson",
      "types": [ "administrative_area_level_2", "political" ]
    }, {
      "long_name": "Georgia",
      "short_name": "GA",
      "types": [ "administrative_area_level_1", "political" ]
    }, {
      "long_name": "United States",
      "short_name": "US",
      "types": [ "country", "political" ]
    } ],
    "geometry": {
      "location": {
        "lat": 34.1623292,
        "lng": -83.6779473
      },
      "location_type": "APPROXIMATE",
      "viewport": {
        "southwest": {
          "lat": 34.1438618,
          "lng": -83.7099621
        },
        "northeast": {
          "lat": 34.1807925,
          "lng": -83.6459325
        }
      },
      "bounds": {
        "southwest": {
          "lat": 34.1391519,
          "lng": -83.7002200
        },
        "northeast": {
          "lat": 34.1872890,
          "lng": -83.6590109
        }
      }
    }
  } ]
}
