{
  "status": "OK",
  "results": [ {
    "types": [ "locality", "political" ],
    "formatted_address": "Perry, GA, USA",
    "address_components": [ {
      "long_name": "Perry",
      "short_name": "Perry",
      "types": [ "locality", "political" ]
    }, {
      "long_name": "Houston",
      "short_name": "Houston",
      "types": [ "administrative_area_level_2", "political" ]
    }, {
      "long_name": "Georgia",
      "short_name": "GA",
      "types": [ "administrative_area_level_1", "political" ]
    }, {
      "long_name": "United States",
      "short_name": "US",
      "types": [ "country", "political" ]
    } ],
    "geometry": {
      "location": {
        "lat": 32.4582065,
        "lng": -83.7315723
      },
      "location_type": "APPROXIMATE",
      "viewport": {
        "southwest": {
          "lat": 32.3828556,
          "lng": -83.8596317
        },
        "northeast": {
          "lat": 32.5334944,
          "lng": -83.6035129
        }
      },
      "bounds": {
        "southwest": {
          "lat": 32.4185820,
          "lng": -83.7976970
        },
        "northeast": {
          "lat": 32.5307070,
          "lng": -83.6078620
        }
      }
    }
  } ]
}
