{
  "status": "OK",
  "results": [ {
    "types": [ "locality", "political" ],
    "formatted_address": "Port Wentworth, GA, USA",
    "address_components": [ {
      "long_name": "Port Wentworth",
      "short_name": "Port Wentworth",
      "types": [ "locality", "political" ]
    }, {
      "long_name": "Chatham",
      "short_name": "Chatham",
      "types": [ "administrative_area_level_2", "political" ]
    }, {
      "long_name": "Georgia",
      "short_name": "GA",
      "types": [ "administrative_area_level_1", "political" ]
    }, {
      "long_name": "United States",
      "short_name": "US",
      "types": [ "country", "political" ]
    } ],
    "geometry": {
      "location": {
        "lat": 32.1490920,
        "lng": -81.1631680
      },
      "location_type": "APPROXIMATE",
      "viewport": {
        "southwest": {
          "lat": 32.0734839,
          "lng": -81.2912274
        },
        "northeast": {
          "lat": 32.2246374,
          "lng": -81.0351086
        }
      },
      "bounds": {
        "southwest": {
          "lat": 32.1267390,
          "lng": -81.2775319
        },
        "northeast": {
          "lat": 32.2374949,
          "lng": -81.1296340
        }
      }
    }
  } ]
}
