{
  "status": "OK",
  "results": [ {
    "types": [ "locality", "political" ],
    "formatted_address": "Ray City, GA, USA",
    "address_components": [ {
      "long_name": "Ray City",
      "short_name": "Ray City",
      "types": [ "locality", "political" ]
    }, {
      "long_name": "Berrien",
      "short_name": "Berrien",
      "types": [ "administrative_area_level_2", "political" ]
    }, {
      "long_name": "Georgia",
      "short_name": "GA",
      "types": [ "administrative_area_level_1", "political" ]
    }, {
      "long_name": "United States",
      "short_name": "US",
      "types": [ "country", "political" ]
    } ],
    "geometry": {
      "location": {
        "lat": 31.0746445,
        "lng": -83.1993186
      },
      "location_type": "APPROXIMATE",
      "viewport": {
        "southwest": {
          "lat": 31.0650873,
          "lng": -83.2153260
        },
        "northeast": {
          "lat": 31.0842008,
          "lng": -83.1833112
        }
      },
      "bounds": {
        "southwest": {
          "lat": 31.0677390,
          "lng": -83.2060109
        },
        "northeast": {
          "lat": 31.0833230,
          "lng": -83.1884700
        }
      }
    }
  } ]
}
