{
  "status": "OK",
  "results": [ {
    "types": [ "locality", "political" ],
    "formatted_address": "Riverdale, GA, USA",
    "address_components": [ {
      "long_name": "Riverdale",
      "short_name": "Riverdale",
      "types": [ "locality", "political" ]
    }, {
      "long_name": "Clayton",
      "short_name": "Clayton",
      "types": [ "administrative_area_level_2", "political" ]
    }, {
      "long_name": "Georgia",
      "short_name": "GA",
      "types": [ "administrative_area_level_1", "political" ]
    }, {
      "long_name": "United States",
      "short_name": "US",
      "types": [ "country", "political" ]
    } ],
    "geometry": {
      "location": {
        "lat": 33.5726113,
        "lng": -84.4132594
      },
      "location_type": "APPROXIMATE",
      "viewport": {
        "southwest": {
          "lat": 33.5540159,
          "lng": -84.4452742
        },
        "northeast": {
          "lat": 33.5912027,
          "lng": -84.3812446
        }
      },
      "bounds": {
        "southwest": {
          "lat": 33.5210049,
          "lng": -84.4342510
        },
        "northeast": {
          "lat": 33.5898290,
          "lng": -84.3903320
        }
      }
    }
  } ]
}
