{
  "status": "OK",
  "results": [ {
    "types": [ "locality", "political" ],
    "formatted_address": "Statham, GA, USA",
    "address_components": [ {
      "long_name": "Statham",
      "short_name": "Statham",
      "types": [ "locality", "political" ]
    }, {
      "long_name": "Barrow",
      "short_name": "Barrow",
      "types": [ "administrative_area_level_2", "political" ]
    }, {
      "long_name": "Georgia",
      "short_name": "GA",
      "types": [ "administrative_area_level_1", "political" ]
    }, {
      "long_name": "United States",
      "short_name": "US",
      "types": [ "country", "political" ]
    } ],
    "geometry": {
      "location": {
        "lat": 33.9651127,
        "lng": -83.5965550
      },
      "location_type": "APPROXIMATE",
      "viewport": {
        "southwest": {
          "lat": 33.9466023,
          "lng": -83.6285698
        },
        "northeast": {
          "lat": 33.9836191,
          "lng": -83.5645402
        }
      },
      "bounds": {
        "southwest": {
          "lat": 33.9506219,
          "lng": -83.6243470
        },
        "northeast": {
          "lat": 33.9811539,
          "lng": -83.5745960
        }
      }
    }
  } ]
}
