{
  "status": "OK",
  "results": [ {
    "types": [ "locality", "political" ],
    "formatted_address": "Suwanee, GA, USA",
    "address_components": [ {
      "long_name": "Suwanee",
      "short_name": "Suwanee",
      "types": [ "locality", "political" ]
    }, {
      "long_name": "Gwinnett",
      "short_name": "Gwinnett",
      "types": [ "administrative_area_level_2", "political" ]
    }, {
      "long_name": "Georgia",
      "short_name": "GA",
      "types": [ "administrative_area_level_1", "political" ]
    }, {
      "long_name": "United States",
      "short_name": "US",
      "types": [ "country", "political" ]
    } ],
    "geometry": {
      "location": {
        "lat": 34.0514898,
        "lng": -84.0712997
      },
      "location_type": "APPROXIMATE",
      "viewport": {
        "southwest": {
          "lat": 34.0145026,
          "lng": -84.1353294
        },
        "northeast": {
          "lat": 34.0884609,
          "lng": -84.0072700
        }
      },
      "bounds": {
        "southwest": {
          "lat": 34.0207100,
          "lng": -84.1085250
        },
        "northeast": {
          "lat": 34.0843370,
          "lng": -84.0227700
        }
      }
    }
  } ]
}
