{
  "status": "OK",
  "results": [ {
    "types": [ "locality", "political" ],
    "formatted_address": "Sycamore, GA, USA",
    "address_components": [ {
      "long_name": "Sycamore",
      "short_name": "Sycamore",
      "types": [ "locality", "political" ]
    }, {
      "long_name": "Turner",
      "short_name": "Turner",
      "types": [ "administrative_area_level_2", "political" ]
    }, {
      "long_name": "Georgia",
      "short_name": "GA",
      "types": [ "administrative_area_level_1", "political" ]
    }, {
      "long_name": "United States",
      "short_name": "US",
      "types": [ "country", "political" ]
    } ],
    "geometry": {
      "location": {
        "lat": 31.6743474,
        "lng": -83.6373903
      },
      "location_type": "APPROXIMATE",
      "viewport": {
        "southwest": {
          "lat": 31.6648509,
          "lng": -83.6533977
        },
        "northeast": {
          "lat": 31.6838429,
          "lng": -83.6213829
        }
      },
      "bounds": {
        "southwest": {
          "lat": 31.6617020,
          "lng": -83.6423279
        },
        "northeast": {
          "lat": 31.6861350,
          "lng": -83.6173989
        }
      }
    }
  } ]
}
