{
  "status": "OK",
  "results": [ {
    "types": [ "locality", "political" ],
    "formatted_address": "Sylvania, GA, USA",
    "address_components": [ {
      "long_name": "Sylvania",
      "short_name": "Sylvania",
      "types": [ "locality", "political" ]
    }, {
      "long_name": "Screven",
      "short_name": "Screven",
      "types": [ "administrative_area_level_2", "political" ]
    }, {
      "long_name": "Georgia",
      "short_name": "GA",
      "types": [ "administrative_area_level_1", "political" ]
    }, {
      "long_name": "United States",
      "short_name": "US",
      "types": [ "country", "political" ]
    } ],
    "geometry": {
      "location": {
        "lat": 32.7504441,
        "lng": -81.6367760
      },
      "location_type": "APPROXIMATE",
      "viewport": {
        "southwest": {
          "lat": 32.7316736,
          "lng": -81.6687908
        },
        "northeast": {
          "lat": 32.7692106,
          "lng": -81.6047612
        }
      },
      "bounds": {
        "southwest": {
          "lat": 32.7304940,
          "lng": -81.6588369
        },
        "northeast": {
          "lat": 32.7716140,
          "lng": -81.6190680
        }
      }
    }
  } ]
}
