{
  "status": "OK",
  "results": [ {
    "types": [ "locality", "political" ],
    "formatted_address": "Tallulah Falls, GA, USA",
    "address_components": [ {
      "long_name": "Tallulah Falls",
      "short_name": "Tallulah Falls",
      "types": [ "locality", "political" ]
    }, {
      "long_name": "Habersham",
      "short_name": "Habersham",
      "types": [ "administrative_area_level_2", "political" ]
    }, {
      "long_name": "Georgia",
      "short_name": "GA",
      "types": [ "administrative_area_level_1", "political" ]
    }, {
      "long_name": "United States",
      "short_name": "US",
      "types": [ "country", "political" ]
    } ],
    "geometry": {
      "location": {
        "lat": 34.7306498,
        "lng": -83.3943316
      },
      "location_type": "APPROXIMATE",
      "viewport": {
        "southwest": {
          "lat": 34.6939614,
          "lng": -83.4583613
        },
        "northeast": {
          "lat": 34.7673220,
          "lng": -83.3303019
        }
      },
      "bounds": {
        "southwest": {
          "lat": 34.6915250,
          "lng": -83.4184020
        },
        "northeast": {
          "lat": 34.7610060,
          "lng": -83.3473680
        }
      }
    }
  } ]
}
