{
  "status": "OK",
  "results": [ {
    "types": [ "locality", "political" ],
    "formatted_address": "Thunderbolt, GA, USA",
    "address_components": [ {
      "long_name": "Thunderbolt",
      "short_name": "Thunderbolt",
      "types": [ "locality", "political" ]
    }, {
      "long_name": "Chatham",
      "short_name": "Chatham",
      "types": [ "administrative_area_level_2", "political" ]
    }, {
      "long_name": "Georgia",
      "short_name": "GA",
      "types": [ "administrative_area_level_1", "political" ]
    }, {
      "long_name": "United States",
      "short_name": "US",
      "types": [ "country", "political" ]
    } ],
    "geometry": {
      "location": {
        "lat": 32.0335445,
        "lng": -81.0498342
      },
      "location_type": "APPROXIMATE",
      "viewport": {
        "southwest": {
          "lat": 32.0240850,
          "lng": -81.0658416
        },
        "northeast": {
          "lat": 32.0430031,
          "lng": -81.0338268
        }
      },
      "bounds": {
        "southwest": {
          "lat": 32.0209330,
          "lng": -81.0636440
        },
        "northeast": {
          "lat": 32.0461130,
          "lng": -81.0276200
        }
      }
    }
  } ]
}
