{
  "status": "OK",
  "results": [ {
    "types": [ "locality", "political" ],
    "formatted_address": "Tignall, GA, USA",
    "address_components": [ {
      "long_name": "Tignall",
      "short_name": "Tignall",
      "types": [ "locality", "political" ]
    }, {
      "long_name": "Wilkes",
      "short_name": "Wilkes",
      "types": [ "administrative_area_level_2", "political" ]
    }, {
      "long_name": "Georgia",
      "short_name": "GA",
      "types": [ "administrative_area_level_1", "political" ]
    }, {
      "long_name": "United States",
      "short_name": "US",
      "types": [ "country", "political" ]
    } ],
    "geometry": {
      "location": {
        "lat": 33.8676229,
        "lng": -82.7412511
      },
      "location_type": "APPROXIMATE",
      "viewport": {
        "southwest": {
          "lat": 33.8583576,
          "lng": -82.7572585
        },
        "northeast": {
          "lat": 33.8768872,
          "lng": -82.7252437
        }
      },
      "bounds": {
        "southwest": {
          "lat": 33.8533360,
          "lng": -82.7582370
        },
        "northeast": {
          "lat": 33.8809539,
          "lng": -82.7260070
        }
      }
    }
  } ]
}
