{
  "status": "OK",
  "results": [ {
    "types": [ "locality", "political" ],
    "formatted_address": "Warm Springs, GA, USA",
    "address_components": [ {
      "long_name": "Warm Springs",
      "short_name": "Warm Springs",
      "types": [ "locality", "political" ]
    }, {
      "long_name": "Meriwether",
      "short_name": "Meriwether",
      "types": [ "administrative_area_level_2", "political" ]
    }, {
      "long_name": "Georgia",
      "short_name": "GA",
      "types": [ "administrative_area_level_1", "political" ]
    }, {
      "long_name": "United States",
      "short_name": "US",
      "types": [ "country", "political" ]
    } ],
    "geometry": {
      "location": {
        "lat": 32.8904081,
        "lng": -84.6810381
      },
      "location_type": "APPROXIMATE",
      "viewport": {
        "southwest": {
          "lat": 32.8810381,
          "lng": -84.6970455
        },
        "northeast": {
          "lat": 32.8997771,
          "lng": -84.6650307
        }
      },
      "bounds": {
        "southwest": {
          "lat": 32.8693660,
          "lng": -84.6851210
        },
        "northeast": {
          "lat": 32.9019670,
          "lng": -84.6666590
        }
      }
    }
  } ]
}
