{
  "status": "OK",
  "results": [ {
    "types": [ "locality", "political" ],
    "formatted_address": "Waynesboro, GA, USA",
    "address_components": [ {
      "long_name": "Waynesboro",
      "short_name": "Waynesboro",
      "types": [ "locality", "political" ]
    }, {
      "long_name": "Burke",
      "short_name": "Burke",
      "types": [ "administrative_area_level_2", "political" ]
    }, {
      "long_name": "Georgia",
      "short_name": "GA",
      "types": [ "administrative_area_level_1", "political" ]
    }, {
      "long_name": "United States",
      "short_name": "US",
      "types": [ "country", "political" ]
    } ],
    "geometry": {
      "location": {
        "lat": 33.0898731,
        "lng": -82.0156736
      },
      "location_type": "APPROXIMATE",
      "viewport": {
        "southwest": {
          "lat": 33.0711744,
          "lng": -82.0476884
        },
        "northeast": {
          "lat": 33.1085678,
          "lng": -81.9836588
        }
      },
      "bounds": {
        "southwest": {
          "lat": 33.0720690,
          "lng": -82.0372950
        },
        "northeast": {
          "lat": 33.1177870,
          "lng": -81.9913430
        }
      }
    }
  } ]
}
