{
  "status": "OK",
  "results": [ {
    "types": [ "locality", "political" ],
    "formatted_address": "Woodstock, GA, USA",
    "address_components": [ {
      "long_name": "Woodstock",
      "short_name": "Woodstock",
      "types": [ "locality", "political" ]
    }, {
      "long_name": "Cherokee",
      "short_name": "Cherokee",
      "types": [ "administrative_area_level_2", "political" ]
    }, {
      "long_name": "Georgia",
      "short_name": "GA",
      "types": [ "administrative_area_level_1", "political" ]
    }, {
      "long_name": "United States",
      "short_name": "US",
      "types": [ "country", "political" ]
    } ],
    "geometry": {
      "location": {
        "lat": 34.1014873,
        "lng": -84.5193754
      },
      "location_type": "APPROXIMATE",
      "viewport": {
        "southwest": {
          "lat": 34.0645219,
          "lng": -84.5834051
        },
        "northeast": {
          "lat": 34.1384365,
          "lng": -84.4553457
        }
      },
      "bounds": {
        "southwest": {
          "lat": 34.0740670,
          "lng": -84.5667730
        },
        "northeast": {
          "lat": 34.1425939,
          "lng": -84.4505339
        }
      }
    }
  } ]
}
