{
  "status": "OK",
  "results": [ {
    "types": [ "locality", "political" ],
    "formatted_address": "American Falls, ID, USA",
    "address_components": [ {
      "long_name": "American Falls",
      "short_name": "American Falls",
      "types": [ "locality", "political" ]
    }, {
      "long_name": "Power",
      "short_name": "Power",
      "types": [ "administrative_area_level_2", "political" ]
    }, {
      "long_name": "Idaho",
      "short_name": "ID",
      "types": [ "administrative_area_level_1", "political" ]
    }, {
      "long_name": "United States",
      "short_name": "US",
      "types": [ "country", "political" ]
    } ],
    "geometry": {
      "location": {
        "lat": 42.7860226,
        "lng": -112.8544377
      },
      "location_type": "APPROXIMATE",
      "viewport": {
        "southwest": {
          "lat": 42.7778333,
          "lng": -112.8704451
        },
        "northeast": {
          "lat": 42.7942109,
          "lng": -112.8384303
        }
      },
      "bounds": {
        "southwest": {
          "lat": 42.7727129,
          "lng": -112.8742390
        },
        "northeast": {
          "lat": 42.7963240,
          "lng": -112.8392160
        }
      }
    }
  } ]
}
