{
  "status": "OK",
  "results": [ {
    "types": [ "locality", "political" ],
    "formatted_address": "Bonners Ferry, ID, USA",
    "address_components": [ {
      "long_name": "Bonners Ferry",
      "short_name": "Bonners Ferry",
      "types": [ "locality", "political" ]
    }, {
      "long_name": "Boundary",
      "short_name": "Boundary",
      "types": [ "administrative_area_level_2", "political" ]
    }, {
      "long_name": "Idaho",
      "short_name": "ID",
      "types": [ "administrative_area_level_1", "political" ]
    }, {
      "long_name": "United States",
      "short_name": "US",
      "types": [ "country", "political" ]
    } ],
    "geometry": {
      "location": {
        "lat": 48.6913257,
        "lng": -116.3163092
      },
      "location_type": "APPROXIMATE",
      "viewport": {
        "southwest": {
          "lat": 48.6765924,
          "lng": -116.3483240
        },
        "northeast": {
          "lat": 48.7060547,
          "lng": -116.2842944
        }
      },
      "bounds": {
        "southwest": {
          "lat": 48.6733100,
          "lng": -116.3395120
        },
        "northeast": {
          "lat": 48.7092839,
          "lng": -116.2870880
        }
      }
    }
  } ]
}
