{
  "status": "OK",
  "results": [ {
    "types": [ "locality", "political" ],
    "formatted_address": "Chubbuck, ID, USA",
    "address_components": [ {
      "long_name": "Chubbuck",
      "short_name": "Chubbuck",
      "types": [ "locality", "political" ]
    }, {
      "long_name": "Bannock",
      "short_name": "Bannock",
      "types": [ "administrative_area_level_2", "political" ]
    }, {
      "long_name": "Idaho",
      "short_name": "ID",
      "types": [ "administrative_area_level_1", "political" ]
    }, {
      "long_name": "United States",
      "short_name": "US",
      "types": [ "country", "political" ]
    } ],
    "geometry": {
      "location": {
        "lat": 42.9207477,
        "lng": -112.4660912
      },
      "location_type": "APPROXIMATE",
      "viewport": {
        "southwest": {
          "lat": 42.9044036,
          "lng": -112.4981060
        },
        "northeast": {
          "lat": 42.9370874,
          "lng": -112.4340764
        }
      },
      "bounds": {
        "southwest": {
          "lat": 42.9058209,
          "lng": -112.5008140
        },
        "northeast": {
          "lat": 42.9434270,
          "lng": -112.4363900
        }
      }
    }
  } ]
}
