{
  "status": "OK",
  "results": [ {
    "types": [ "locality", "political" ],
    "formatted_address": "Garden City, ID, USA",
    "address_components": [ {
      "long_name": "Garden City",
      "short_name": "Garden City",
      "types": [ "locality", "political" ]
    }, {
      "long_name": "Ada",
      "short_name": "Ada",
      "types": [ "administrative_area_level_2", "political" ]
    }, {
      "long_name": "Idaho",
      "short_name": "ID",
      "types": [ "administrative_area_level_1", "political" ]
    }, {
      "long_name": "United States",
      "short_name": "US",
      "types": [ "country", "political" ]
    } ],
    "geometry": {
      "location": {
        "lat": 43.6221108,
        "lng": -116.2381744
      },
      "location_type": "APPROXIMATE",
      "viewport": {
        "southwest": {
          "lat": 43.5574574,
          "lng": -116.3662338
        },
        "northeast": {
          "lat": 43.6866947,
          "lng": -116.1101150
        }
      },
      "bounds": {
        "southwest": {
          "lat": 43.6189980,
          "lng": -116.3140720
        },
        "northeast": {
          "lat": 43.6825160,
          "lng": -116.2319490
        }
      }
    }
  } ]
}
