{
  "status": "OK",
  "results": [ {
    "types": [ "locality", "political" ],
    "formatted_address": "Idaho City, ID, USA",
    "address_components": [ {
      "long_name": "Idaho City",
      "short_name": "Idaho City",
      "types": [ "locality", "political" ]
    }, {
      "long_name": "Boise",
      "short_name": "Boise",
      "types": [ "administrative_area_level_2", "political" ]
    }, {
      "long_name": "Idaho",
      "short_name": "ID",
      "types": [ "administrative_area_level_1", "political" ]
    }, {
      "long_name": "United States",
      "short_name": "US",
      "types": [ "country", "political" ]
    } ],
    "geometry": {
      "location": {
        "lat": 43.8285046,
        "lng": -115.8345537
      },
      "location_type": "APPROXIMATE",
      "viewport": {
        "southwest": {
          "lat": 43.8204545,
          "lng": -115.8505611
        },
        "northeast": {
          "lat": 43.8365536,
          "lng": -115.8185463
        }
      },
      "bounds": {
        "southwest": {
          "lat": 43.8198120,
          "lng": -115.8446600
        },
        "northeast": {
          "lat": 43.8385089,
          "lng": -115.8127170
        }
      }
    }
  } ]
}
