{
  "status": "OK",
  "results": [ {
    "types": [ "locality", "political" ],
    "formatted_address": "Ketchum, ID, USA",
    "address_components": [ {
      "long_name": "Ketchum",
      "short_name": "Ketchum",
      "types": [ "locality", "political" ]
    }, {
      "long_name": "Blaine",
      "short_name": "Blaine",
      "types": [ "administrative_area_level_2", "political" ]
    }, {
      "long_name": "Idaho",
      "short_name": "ID",
      "types": [ "administrative_area_level_1", "political" ]
    }, {
      "long_name": "United States",
      "short_name": "US",
      "types": [ "country", "political" ]
    } ],
    "geometry": {
      "location": {
        "lat": 43.6807402,
        "lng": -114.3636619
      },
      "location_type": "APPROXIMATE",
      "viewport": {
        "southwest": {
          "lat": 43.6484537,
          "lng": -114.4276916
        },
        "northeast": {
          "lat": 43.7130093,
          "lng": -114.2996322
        }
      },
      "bounds": {
        "southwest": {
          "lat": 43.6590680,
          "lng": -114.4122970
        },
        "northeast": {
          "lat": 43.7136919,
          "lng": -114.3509430
        }
      }
    }
  } ]
}
