{
  "status": "OK",
  "results": [ {
    "types": [ "locality", "political" ],
    "formatted_address": "Moscow, ID, USA",
    "address_components": [ {
      "long_name": "Moscow",
      "short_name": "Moscow",
      "types": [ "locality", "political" ]
    }, {
      "long_name": "Latah",
      "short_name": "Latah",
      "types": [ "administrative_area_level_2", "political" ]
    }, {
      "long_name": "Idaho",
      "short_name": "ID",
      "types": [ "administrative_area_level_1", "political" ]
    }, {
      "long_name": "United States",
      "short_name": "US",
      "types": [ "country", "political" ]
    } ],
    "geometry": {
      "location": {
        "lat": 46.7323875,
        "lng": -117.0001651
      },
      "location_type": "APPROXIMATE",
      "viewport": {
        "southwest": {
          "lat": 46.7170898,
          "lng": -117.0321799
        },
        "northeast": {
          "lat": 46.7476809,
          "lng": -116.9681503
        }
      },
      "bounds": {
        "southwest": {
          "lat": 46.7109120,
          "lng": -117.0396980
        },
        "northeast": {
          "lat": 46.7588820,
          "lng": -116.9620680
        }
      }
    }
  } ]
}
