{
  "status": "OK",
  "results": [ {
    "types": [ "locality", "political" ],
    "formatted_address": "Rathdrum, ID, USA",
    "address_components": [ {
      "long_name": "Rathdrum",
      "short_name": "Rathdrum",
      "types": [ "locality", "political" ]
    }, {
      "long_name": "Kootenai",
      "short_name": "Kootenai",
      "types": [ "administrative_area_level_2", "political" ]
    }, {
      "long_name": "Idaho",
      "short_name": "ID",
      "types": [ "administrative_area_level_1", "political" ]
    }, {
      "long_name": "United States",
      "short_name": "US",
      "types": [ "country", "political" ]
    } ],
    "geometry": {
      "location": {
        "lat": 47.8124031,
        "lng": -116.8965857
      },
      "location_type": "APPROXIMATE",
      "viewport": {
        "southwest": {
          "lat": 47.7974144,
          "lng": -116.9286005
        },
        "northeast": {
          "lat": 47.8273875,
          "lng": -116.8645709
        }
      },
      "bounds": {
        "southwest": {
          "lat": 47.7807649,
          "lng": -116.9374500
        },
        "northeast": {
          "lat": 47.8267010,
          "lng": -116.8590750
        }
      }
    }
  } ]
}
