{
  "status": "OK",
  "results": [ {
    "types": [ "locality", "political" ],
    "formatted_address": "Saint Maries, ID, USA",
    "address_components": [ {
      "long_name": "Saint Maries",
      "short_name": "Saint Maries",
      "types": [ "locality", "political" ]
    }, {
      "long_name": "Benewah",
      "short_name": "Benewah",
      "types": [ "administrative_area_level_2", "political" ]
    }, {
      "long_name": "Idaho",
      "short_name": "ID",
      "types": [ "administrative_area_level_1", "political" ]
    }, {
      "long_name": "United States",
      "short_name": "US",
      "types": [ "country", "political" ]
    } ],
    "geometry": {
      "location": {
        "lat": 47.3147222,
        "lng": -116.5705556
      },
      "location_type": "APPROXIMATE",
      "viewport": {
        "southwest": {
          "lat": 47.3071569,
          "lng": -116.5865630
        },
        "northeast": {
          "lat": 47.3222864,
          "lng": -116.5545482
        }
      },
      "bounds": {
        "southwest": {
          "lat": 47.3052039,
          "lng": -116.5891900
        },
        "northeast": {
          "lat": 47.3244040,
          "lng": -116.5546630
        }
      }
    }
  } ]
}
