{
  "status": "OK",
  "results": [ {
    "types": [ "locality", "political" ],
    "formatted_address": "Spirit Lake, ID, USA",
    "address_components": [ {
      "long_name": "Spirit Lake",
      "short_name": "Spirit Lake",
      "types": [ "locality", "political" ]
    }, {
      "long_name": "Kootenai",
      "short_name": "Kootenai",
      "types": [ "administrative_area_level_2", "political" ]
    }, {
      "long_name": "Idaho",
      "short_name": "ID",
      "types": [ "administrative_area_level_1", "political" ]
    }, {
      "long_name": "United States",
      "short_name": "US",
      "types": [ "country", "political" ]
    } ],
    "geometry": {
      "location": {
        "lat": 47.9662924,
        "lng": -116.8685314
      },
      "location_type": "APPROXIMATE",
      "viewport": {
        "southwest": {
          "lat": 47.9588208,
          "lng": -116.8845388
        },
        "northeast": {
          "lat": 47.9737629,
          "lng": -116.8525240
        }
      },
      "bounds": {
        "southwest": {
          "lat": 47.9515610,
          "lng": -116.8855560
        },
        "northeast": {
          "lat": 47.9774180,
          "lng": -116.8505340
        }
      }
    }
  } ]
}
