{
  "status": "OK",
  "results": [ {
    "types": [ "locality", "political" ],
    "formatted_address": "Wilder, ID, USA",
    "address_components": [ {
      "long_name": "Wilder",
      "short_name": "Wilder",
      "types": [ "locality", "political" ]
    }, {
      "long_name": "Canyon",
      "short_name": "Canyon",
      "types": [ "administrative_area_level_2", "political" ]
    }, {
      "long_name": "Idaho",
      "short_name": "ID",
      "types": [ "administrative_area_level_1", "political" ]
    }, {
      "long_name": "United States",
      "short_name": "US",
      "types": [ "country", "political" ]
    } ],
    "geometry": {
      "location": {
        "lat": 43.6765485,
        "lng": -116.9118157
      },
      "location_type": "APPROXIMATE",
      "viewport": {
        "southwest": {
          "lat": 43.6684779,
          "lng": -116.9278231
        },
        "northeast": {
          "lat": 43.6846180,
          "lng": -116.8958083
        }
      },
      "bounds": {
        "southwest": {
          "lat": 43.6686480,
          "lng": -116.9194730
        },
        "northeast": {
          "lat": 43.6812630,
          "lng": -116.8986700
        }
      }
    }
  } ]
}
