{
  "status": "OK",
  "results": [ {
    "types": [ "administrative_area_level_3", "political" ],
    "formatted_address": "Aleppo Township, PA, USA",
    "address_components": [ {
      "long_name": "Aleppo Township",
      "short_name": "Aleppo Township",
      "types": [ "administrative_area_level_3", "political" ]
    }, {
      "long_name": "Greene",
      "short_name": "Greene",
      "types": [ "administrative_area_level_2", "political" ]
    }, {
      "long_name": "Pennsylvania",
      "short_name": "PA",
      "types": [ "administrative_area_level_1", "political" ]
    }, {
      "long_name": "United States",
      "short_name": "US",
      "types": [ "country", "political" ]
    } ],
    "geometry": {
      "location": {
        "lat": 39.8151662,
        "lng": -80.4771472
      },
      "location_type": "APPROXIMATE",
      "viewport": {
        "southwest": {
          "lat": 39.7808752,
          "lng": -80.5411769
        },
        "northeast": {
          "lat": 39.8494401,
          "lng": -80.4131175
        }
      },
      "bounds": {
        "southwest": {
          "lat": 39.7892219,
          "lng": -80.5194230
        },
        "northeast": {
          "lat": 39.8541710,
          "lng": -80.4016240
        }
      }
    }
  } ]
}
