{
  "status": "OK",
  "results": [ {
    "types": [ "administrative_area_level_3", "political" ],
    "formatted_address": "Amity Township, PA, USA",
    "address_components": [ {
      "long_name": "Amity Township",
      "short_name": "Amity Township",
      "types": [ "administrative_area_level_3", "political" ]
    }, {
      "long_name": "Erie",
      "short_name": "Erie",
      "types": [ "administrative_area_level_2", "political" ]
    }, {
      "long_name": "Pennsylvania",
      "short_name": "PA",
      "types": [ "administrative_area_level_1", "political" ]
    }, {
      "long_name": "United States",
      "short_name": "US",
      "types": [ "country", "political" ]
    } ],
    "geometry": {
      "location": {
        "lat": 41.9599786,
        "lng": -79.8072611
      },
      "location_type": "APPROXIMATE",
      "viewport": {
        "southwest": {
          "lat": 41.9267811,
          "lng": -79.8712908
        },
        "northeast": {
          "lat": 41.9931588,
          "lng": -79.7432314
        }
      },
      "bounds": {
        "southwest": {
          "lat": 41.9371400,
          "lng": -79.8938380
        },
        "northeast": {
          "lat": 41.9992370,
          "lng": -79.7581610
        }
      }
    }
  } ]
}
