{
  "status": "OK",
  "results": [ {
    "types": [ "locality", "political" ],
    "formatted_address": "Baldwin, PA, USA",
    "address_components": [ {
      "long_name": "Baldwin",
      "short_name": "Baldwin",
      "types": [ "locality", "political" ]
    }, {
      "long_name": "Allegheny",
      "short_name": "Allegheny",
      "types": [ "administrative_area_level_2", "political" ]
    }, {
      "long_name": "Pennsylvania",
      "short_name": "PA",
      "types": [ "administrative_area_level_1", "political" ]
    }, {
      "long_name": "United States",
      "short_name": "US",
      "types": [ "country", "political" ]
    } ],
    "geometry": {
      "location": {
        "lat": 40.3381252,
        "lng": -79.9789404
      },
      "location_type": "APPROXIMATE",
      "viewport": {
        "southwest": {
          "lat": 40.3040965,
          "lng": -80.0429701
        },
        "northeast": {
          "lat": 40.3721368,
          "lng": -79.9149107
        }
      },
      "bounds": {
        "southwest": {
          "lat": 40.3306690,
          "lng": -80.0104460
        },
        "northeast": {
          "lat": 40.4112370,
          "lng": -79.9360130
        }
      }
    }
  } ]
}
