{
  "status": "OK",
  "results": [ {
    "types": [ "political" ],
    "formatted_address": "Brentwood Borough School District, Pennsylvania, USA",
    "address_components": [ {
      "long_name": "Brentwood Borough School District",
      "short_name": "Brentwood Borough School District",
      "types": [ "political" ]
    }, {
      "long_name": "Allegheny",
      "short_name": "Allegheny",
      "types": [ "administrative_area_level_2", "political" ]
    }, {
      "long_name": "Pennsylvania",
      "short_name": "PA",
      "types": [ "administrative_area_level_1", "political" ]
    }, {
      "long_name": "United States",
      "short_name": "US",
      "types": [ "country", "political" ]
    } ],
    "geometry": {
      "location": {
        "lat": 40.3742729,
        "lng": -79.9780178
      },
      "location_type": "APPROXIMATE",
      "viewport": {
        "southwest": {
          "lat": 40.3657719,
          "lng": -79.9940252
        },
        "northeast": {
          "lat": 40.3827728,
          "lng": -79.9620104
        }
      },
      "bounds": {
        "southwest": {
          "lat": 40.3603690,
          "lng": -79.9887500
        },
        "northeast": {
          "lat": 40.3857490,
          "lng": -79.9621730
        }
      }
    },
    "partial_match": true
  } ]
}
