{
  "status": "OK",
  "results": [ {
    "types": [ "locality", "political" ],
    "formatted_address": "Bellwood, PA, USA",
    "address_components": [ {
      "long_name": "Bellwood",
      "short_name": "Bellwood",
      "types": [ "locality", "political" ]
    }, {
      "long_name": "Blair",
      "short_name": "Blair",
      "types": [ "administrative_area_level_2", "political" ]
    }, {
      "long_name": "Pennsylvania",
      "short_name": "PA",
      "types": [ "administrative_area_level_1", "political" ]
    }, {
      "long_name": "United States",
      "short_name": "US",
      "types": [ "country", "political" ]
    } ],
    "geometry": {
      "location": {
        "lat": 40.6011170,
        "lng": -78.3342070
      },
      "location_type": "APPROXIMATE",
      "viewport": {
        "southwest": {
          "lat": 40.5926447,
          "lng": -78.3502144
        },
        "northeast": {
          "lat": 40.6095883,
          "lng": -78.3181996
        }
      },
      "bounds": {
        "southwest": {
          "lat": 40.5937659,
          "lng": -78.3432359
        },
        "northeast": {
          "lat": 40.6083659,
          "lng": -78.3233140
        }
      }
    }
  } ]
}
