{
  "status": "OK",
  "results": [ {
    "types": [ "administrative_area_level_3", "political" ],
    "formatted_address": "Bethel Township, PA, USA",
    "address_components": [ {
      "long_name": "Bethel Township",
      "short_name": "Bethel Township",
      "types": [ "administrative_area_level_3", "political" ]
    }, {
      "long_name": "Berks",
      "short_name": "Berks",
      "types": [ "administrative_area_level_2", "political" ]
    }, {
      "long_name": "Pennsylvania",
      "short_name": "PA",
      "types": [ "administrative_area_level_1", "political" ]
    }, {
      "long_name": "United States",
      "short_name": "US",
      "types": [ "country", "political" ]
    } ],
    "geometry": {
      "location": {
        "lat": 40.4932672,
        "lng": -76.3058328
      },
      "location_type": "APPROXIMATE",
      "viewport": {
        "southwest": {
          "lat": 40.4253492,
          "lng": -76.4338922
        },
        "northeast": {
          "lat": 40.5611165,
          "lng": -76.1777734
        }
      },
      "bounds": {
        "southwest": {
          "lat": 40.4332920,
          "lng": -76.4401810
        },
        "northeast": {
          "lat": 40.5304049,
          "lng": -76.2002480
        }
      }
    }
  } ]
}
