{
  "status": "OK",
  "results": [ {
    "types": [ "locality", "political" ],
    "formatted_address": "Bethel Park, PA, USA",
    "address_components": [ {
      "long_name": "Bethel Park",
      "short_name": "Bethel Park",
      "types": [ "locality", "political" ]
    }, {
      "long_name": "Allegheny",
      "short_name": "Allegheny",
      "types": [ "administrative_area_level_2", "political" ]
    }, {
      "long_name": "Pennsylvania",
      "short_name": "PA",
      "types": [ "administrative_area_level_1", "political" ]
    }, {
      "long_name": "United States",
      "short_name": "US",
      "types": [ "country", "political" ]
    } ],
    "geometry": {
      "location": {
        "lat": 40.3275697,
        "lng": -80.0394977
      },
      "location_type": "APPROXIMATE",
      "viewport": {
        "southwest": {
          "lat": 40.2935356,
          "lng": -80.1035274
        },
        "northeast": {
          "lat": 40.3615866,
          "lng": -79.9754680
        }
      },
      "bounds": {
        "southwest": {
          "lat": 40.2875690,
          "lng": -80.0726519
        },
        "northeast": {
          "lat": 40.3588690,
          "lng": -79.9979929
        }
      }
    }
  } ]
}
