{
  "status": "OK",
  "results": [ {
    "types": [ "locality", "political" ],
    "formatted_address": "Birdsboro, PA, USA",
    "address_components": [ {
      "long_name": "Birdsboro",
      "short_name": "Birdsboro",
      "types": [ "locality", "political" ]
    }, {
      "long_name": "Berks",
      "short_name": "Berks",
      "types": [ "administrative_area_level_2", "political" ]
    }, {
      "long_name": "Pennsylvania",
      "short_name": "PA",
      "types": [ "administrative_area_level_1", "political" ]
    }, {
      "long_name": "United States",
      "short_name": "US",
      "types": [ "country", "political" ]
    } ],
    "geometry": {
      "location": {
        "lat": 40.2645371,
        "lng": -75.8040852
      },
      "location_type": "APPROXIMATE",
      "viewport": {
        "southwest": {
          "lat": 40.2560223,
          "lng": -75.8200926
        },
        "northeast": {
          "lat": 40.2730509,
          "lng": -75.7880778
        }
      },
      "bounds": {
        "southwest": {
          "lat": 40.2519470,
          "lng": -75.8272240
        },
        "northeast": {
          "lat": 40.2710520,
          "lng": -75.7966170
        }
      }
    }
  } ]
}
