{
  "status": "OK",
  "results": [ {
    "types": [ "locality", "political" ],
    "formatted_address": "Boswell, PA 15531, USA",
    "address_components": [ {
      "long_name": "Boswell",
      "short_name": "Boswell",
      "types": [ "locality", "political" ]
    }, {
      "long_name": "Somerset",
      "short_name": "Somerset",
      "types": [ "administrative_area_level_2", "political" ]
    }, {
      "long_name": "Pennsylvania",
      "short_name": "PA",
      "types": [ "administrative_area_level_1", "political" ]
    }, {
      "long_name": "United States",
      "short_name": "US",
      "types": [ "country", "political" ]
    }, {
      "long_name": "15531",
      "short_name": "15531",
      "types": [ "postal_code" ]
    } ],
    "geometry": {
      "location": {
        "lat": 40.1614651,
        "lng": -79.0289161
      },
      "location_type": "APPROXIMATE",
      "viewport": {
        "southwest": {
          "lat": 40.1529373,
          "lng": -79.0449235
        },
        "northeast": {
          "lat": 40.1699918,
          "lng": -79.0129087
        }
      },
      "bounds": {
        "southwest": {
          "lat": 40.1527770,
          "lng": -79.0381149
        },
        "northeast": {
          "lat": 40.1722610,
          "lng": -79.0177980
        }
      }
    }
  } ]
}
