{
  "status": "OK",
  "results": [ {
    "types": [ "administrative_area_level_3", "political" ],
    "formatted_address": "Brecknock, PA, USA",
    "address_components": [ {
      "long_name": "Brecknock",
      "short_name": "Brecknock",
      "types": [ "administrative_area_level_3", "political" ]
    }, {
      "long_name": "Lancaster",
      "short_name": "Lancaster",
      "types": [ "administrative_area_level_2", "political" ]
    }, {
      "long_name": "Pennsylvania",
      "short_name": "PA",
      "types": [ "administrative_area_level_1", "political" ]
    }, {
      "long_name": "United States",
      "short_name": "US",
      "types": [ "country", "political" ]
    } ],
    "geometry": {
      "location": {
        "lat": 40.1991101,
        "lng": -76.0275859
      },
      "location_type": "APPROXIMATE",
      "viewport": {
        "southwest": {
          "lat": 40.1650114,
          "lng": -76.0916156
        },
        "northeast": {
          "lat": 40.2331917,
          "lng": -75.9635562
        }
      },
      "bounds": {
        "southwest": {
          "lat": 40.1641070,
          "lng": -76.1035890
        },
        "northeast": {
          "lat": 40.2478270,
          "lng": -75.9412510
        }
      }
    }
  } ]
}
