{
  "status": "OK",
  "results": [ {
    "types": [ "locality", "political" ],
    "formatted_address": "Briar Creek, PA, USA",
    "address_components": [ {
      "long_name": "Briar Creek",
      "short_name": "Briar Creek",
      "types": [ "locality", "political" ]
    }, {
      "long_name": "Columbia",
      "short_name": "Columbia",
      "types": [ "administrative_area_level_2", "political" ]
    }, {
      "long_name": "Pennsylvania",
      "short_name": "PA",
      "types": [ "administrative_area_level_1", "political" ]
    }, {
      "long_name": "United States",
      "short_name": "US",
      "types": [ "country", "political" ]
    } ],
    "geometry": {
      "location": {
        "lat": 41.0459185,
        "lng": -76.2821589
      },
      "location_type": "APPROXIMATE",
      "viewport": {
        "southwest": {
          "lat": 41.0375028,
          "lng": -76.2981663
        },
        "northeast": {
          "lat": 41.0543331,
          "lng": -76.2661515
        }
      },
      "bounds": {
        "southwest": {
          "lat": 41.0393550,
          "lng": -76.3068420
        },
        "northeast": {
          "lat": 41.0574690,
          "lng": -76.2706080
        }
      }
    }
  } ]
}
