{
  "status": "OK",
  "results": [ {
    "types": [ "locality", "political" ],
    "formatted_address": "Brockway, PA, USA",
    "address_components": [ {
      "long_name": "Brockway",
      "short_name": "Brockway",
      "types": [ "locality", "political" ]
    }, {
      "long_name": "Jefferson",
      "short_name": "Jefferson",
      "types": [ "administrative_area_level_2", "political" ]
    }, {
      "long_name": "Pennsylvania",
      "short_name": "PA",
      "types": [ "administrative_area_level_1", "political" ]
    }, {
      "long_name": "United States",
      "short_name": "US",
      "types": [ "country", "political" ]
    } ],
    "geometry": {
      "location": {
        "lat": 41.2492279,
        "lng": -78.7994738
      },
      "location_type": "APPROXIMATE",
      "viewport": {
        "southwest": {
          "lat": 41.2408382,
          "lng": -78.8154812
        },
        "northeast": {
          "lat": 41.2576165,
          "lng": -78.7834664
        }
      },
      "bounds": {
        "southwest": {
          "lat": 41.2370540,
          "lng": -78.8075180
        },
        "northeast": {
          "lat": 41.2608320,
          "lng": -78.7772110
        }
      }
    }
  } ]
}
