{
  "status": "OK",
  "results": [ {
    "types": [ "locality", "political" ],
    "formatted_address": "Brookhaven, PA, USA",
    "address_components": [ {
      "long_name": "Brookhaven",
      "short_name": "Brookhaven",
      "types": [ "locality", "political" ]
    }, {
      "long_name": "Delaware",
      "short_name": "Delaware",
      "types": [ "administrative_area_level_2", "political" ]
    }, {
      "long_name": "Pennsylvania",
      "short_name": "PA",
      "types": [ "administrative_area_level_1", "political" ]
    }, {
      "long_name": "United States",
      "short_name": "US",
      "types": [ "country", "political" ]
    } ],
    "geometry": {
      "location": {
        "lat": 39.8692789,
        "lng": -75.3824144
      },
      "location_type": "APPROXIMATE",
      "viewport": {
        "southwest": {
          "lat": 39.8521490,
          "lng": -75.4144292
        },
        "northeast": {
          "lat": 39.8864045,
          "lng": -75.3503996
        }
      },
      "bounds": {
        "southwest": {
          "lat": 39.8584120,
          "lng": -75.4083380
        },
        "northeast": {
          "lat": 39.8880110,
          "lng": -75.3762359
        }
      }
    }
  } ]
}
