{
  "status": "OK",
  "results": [ {
    "types": [ "locality", "political" ],
    "formatted_address": "Brownsville, PA, USA",
    "address_components": [ {
      "long_name": "Brownsville",
      "short_name": "Brownsville",
      "types": [ "locality", "political" ]
    }, {
      "long_name": "Fayette",
      "short_name": "Fayette",
      "types": [ "administrative_area_level_2", "political" ]
    }, {
      "long_name": "Pennsylvania",
      "short_name": "PA",
      "types": [ "administrative_area_level_1", "political" ]
    }, {
      "long_name": "United States",
      "short_name": "US",
      "types": [ "country", "political" ]
    } ],
    "geometry": {
      "location": {
        "lat": 40.0236854,
        "lng": -79.8839357
      },
      "location_type": "APPROXIMATE",
      "viewport": {
        "southwest": {
          "lat": 40.0065942,
          "lng": -79.9159505
        },
        "northeast": {
          "lat": 40.0407724,
          "lng": -79.8519209
        }
      },
      "bounds": {
        "southwest": {
          "lat": 40.0092740,
          "lng": -79.9111460
        },
        "northeast": {
          "lat": 40.0282820,
          "lng": -79.8745520
        }
      }
    }
  } ]
}
