{
  "status": "OK",
  "results": [ {
    "types": [ "locality", "political" ],
    "formatted_address": "Canton, PA 17724, USA",
    "address_components": [ {
      "long_name": "Canton",
      "short_name": "Canton",
      "types": [ "locality", "political" ]
    }, {
      "long_name": "Bradford",
      "short_name": "Bradford",
      "types": [ "administrative_area_level_2", "political" ]
    }, {
      "long_name": "Pennsylvania",
      "short_name": "PA",
      "types": [ "administrative_area_level_1", "political" ]
    }, {
      "long_name": "United States",
      "short_name": "US",
      "types": [ "country", "political" ]
    }, {
      "long_name": "17724",
      "short_name": "17724",
      "types": [ "postal_code" ]
    } ],
    "geometry": {
      "location": {
        "lat": 41.6564640,
        "lng": -76.8532927
      },
      "location_type": "APPROXIMATE",
      "viewport": {
        "southwest": {
          "lat": 41.6481268,
          "lng": -76.8693001
        },
        "northeast": {
          "lat": 41.6648001,
          "lng": -76.8372853
        }
      },
      "bounds": {
        "southwest": {
          "lat": 41.6463029,
          "lng": -76.8618760
        },
        "northeast": {
          "lat": 41.6691490,
          "lng": -76.8411620
        }
      }
    }
  } ]
}
