{
  "status": "OK",
  "results": [ {
    "types": [ "administrative_area_level_3", "political" ],
    "formatted_address": "Chartiers Township, PA, USA",
    "address_components": [ {
      "long_name": "Chartiers Township",
      "short_name": "Chartiers Township",
      "types": [ "administrative_area_level_3", "political" ]
    }, {
      "long_name": "Washington",
      "short_name": "Washington",
      "types": [ "administrative_area_level_2", "political" ]
    }, {
      "long_name": "Pennsylvania",
      "short_name": "PA",
      "types": [ "administrative_area_level_1", "political" ]
    }, {
      "long_name": "United States",
      "short_name": "US",
      "types": [ "country", "political" ]
    } ],
    "geometry": {
      "location": {
        "lat": 40.2438101,
        "lng": -80.2544350
      },
      "location_type": "APPROXIMATE",
      "viewport": {
        "southwest": {
          "lat": 40.2097339,
          "lng": -80.3184647
        },
        "northeast": {
          "lat": 40.2778692,
          "lng": -80.1904053
        }
      },
      "bounds": {
        "southwest": {
          "lat": 40.2013660,
          "lng": -80.3112759
        },
        "northeast": {
          "lat": 40.3081850,
          "lng": -80.1836350
        }
      }
    }
  } ]
}
