{
  "status": "OK",
  "results": [ {
    "types": [ "locality", "political" ],
    "formatted_address": "Cherry Tree, PA 15724, USA",
    "address_components": [ {
      "long_name": "Cherry Tree",
      "short_name": "Cherry Tree",
      "types": [ "locality", "political" ]
    }, {
      "long_name": "Indiana",
      "short_name": "Indiana",
      "types": [ "administrative_area_level_2", "political" ]
    }, {
      "long_name": "Pennsylvania",
      "short_name": "PA",
      "types": [ "administrative_area_level_1", "political" ]
    }, {
      "long_name": "United States",
      "short_name": "US",
      "types": [ "country", "political" ]
    }, {
      "long_name": "15724",
      "short_name": "15724",
      "types": [ "postal_code" ]
    } ],
    "geometry": {
      "location": {
        "lat": 40.7264545,
        "lng": -78.8066961
      },
      "location_type": "APPROXIMATE",
      "viewport": {
        "southwest": {
          "lat": 40.7179981,
          "lng": -78.8227035
        },
        "northeast": {
          "lat": 40.7349099,
          "lng": -78.7906887
        }
      },
      "bounds": {
        "southwest": {
          "lat": 40.7172539,
          "lng": -78.8167880
        },
        "northeast": {
          "lat": 40.7325550,
          "lng": -78.7989900
        }
      }
    }
  } ]
}
