{
  "status": "OK",
  "results": [ {
    "types": [ "locality", "political" ],
    "formatted_address": "Chester Township, PA, USA",
    "address_components": [ {
      "long_name": "Chester Township",
      "short_name": "Chester Township",
      "types": [ "locality", "political" ]
    }, {
      "long_name": "Delaware",
      "short_name": "Delaware",
      "types": [ "administrative_area_level_2", "political" ]
    }, {
      "long_name": "Pennsylvania",
      "short_name": "PA",
      "types": [ "administrative_area_level_1", "political" ]
    }, {
      "long_name": "United States",
      "short_name": "US",
      "types": [ "country", "political" ]
    } ],
    "geometry": {
      "location": {
        "lat": 39.8500150,
        "lng": -75.3973790
      },
      "location_type": "APPROXIMATE",
      "viewport": {
        "southwest": {
          "lat": 39.8414482,
          "lng": -75.4133864
        },
        "northeast": {
          "lat": 39.8585807,
          "lng": -75.3813716
        }
      },
      "bounds": {
        "southwest": {
          "lat": 39.8395120,
          "lng": -75.4175379
        },
        "northeast": {
          "lat": 39.8636760,
          "lng": -75.3846360
        }
      }
    }
  } ]
}
