{
  "status": "OK",
  "results": [ {
    "types": [ "locality", "political" ],
    "formatted_address": "Chester, PA, USA",
    "address_components": [ {
      "long_name": "Chester",
      "short_name": "Chester",
      "types": [ "locality", "political" ]
    }, {
      "long_name": "Delaware",
      "short_name": "Delaware",
      "types": [ "administrative_area_level_2", "political" ]
    }, {
      "long_name": "Pennsylvania",
      "short_name": "PA",
      "types": [ "administrative_area_level_1", "political" ]
    }, {
      "long_name": "United States",
      "short_name": "US",
      "types": [ "country", "political" ]
    } ],
    "geometry": {
      "location": {
        "lat": 39.8495570,
        "lng": -75.3557457
      },
      "location_type": "APPROXIMATE",
      "viewport": {
        "southwest": {
          "lat": 39.8152832,
          "lng": -75.4197754
        },
        "northeast": {
          "lat": 39.8838137,
          "lng": -75.2917160
        }
      },
      "bounds": {
        "southwest": {
          "lat": 39.8123260,
          "lng": -75.4081379
        },
        "northeast": {
          "lat": 39.8756119,
          "lng": -75.3414330
        }
      }
    }
  } ]
}
