{
  "status": "OK",
  "results": [ {
    "types": [ "locality", "political" ],
    "formatted_address": "Clairton, PA, USA",
    "address_components": [ {
      "long_name": "Clairton",
      "short_name": "Clairton",
      "types": [ "locality", "political" ]
    }, {
      "long_name": "Allegheny",
      "short_name": "Allegheny",
      "types": [ "administrative_area_level_2", "political" ]
    }, {
      "long_name": "Pennsylvania",
      "short_name": "PA",
      "types": [ "administrative_area_level_1", "political" ]
    }, {
      "long_name": "United States",
      "short_name": "US",
      "types": [ "country", "political" ]
    } ],
    "geometry": {
      "location": {
        "lat": 40.2922920,
        "lng": -79.8817150
      },
      "location_type": "APPROXIMATE",
      "viewport": {
        "southwest": {
          "lat": 40.2752682,
          "lng": -79.9137298
        },
        "northeast": {
          "lat": 40.3093115,
          "lng": -79.8497002
        }
      },
      "bounds": {
        "southwest": {
          "lat": 40.2808689,
          "lng": -79.9012730
        },
        "northeast": {
          "lat": 40.3208640,
          "lng": -79.8668699
        }
      }
    }
  } ]
}
