{
  "status": "OK",
  "results": [ {
    "types": [ "locality", "political" ],
    "formatted_address": "Clarks Summit, PA, USA",
    "address_components": [ {
      "long_name": "Clarks Summit",
      "short_name": "Clarks Summit",
      "types": [ "locality", "political" ]
    }, {
      "long_name": "Lackawanna",
      "short_name": "Lackawanna",
      "types": [ "administrative_area_level_2", "political" ]
    }, {
      "long_name": "Pennsylvania",
      "short_name": "PA",
      "types": [ "administrative_area_level_1", "political" ]
    }, {
      "long_name": "United States",
      "short_name": "US",
      "types": [ "country", "political" ]
    } ],
    "geometry": {
      "location": {
        "lat": 41.4886892,
        "lng": -75.7085248
      },
      "location_type": "APPROXIMATE",
      "viewport": {
        "southwest": {
          "lat": 41.4803304,
          "lng": -75.7245322
        },
        "northeast": {
          "lat": 41.4970470,
          "lng": -75.6925174
        }
      },
      "bounds": {
        "southwest": {
          "lat": 41.4790780,
          "lng": -75.7229359
        },
        "northeast": {
          "lat": 41.5055920,
          "lng": -75.6904120
        }
      }
    }
  } ]
}
