{
  "status": "OK",
  "results": [ {
    "types": [ "locality", "political" ],
    "formatted_address": "Collingdale, PA, USA",
    "address_components": [ {
      "long_name": "Collingdale",
      "short_name": "Collingdale",
      "types": [ "locality", "political" ]
    }, {
      "long_name": "Delaware",
      "short_name": "Delaware",
      "types": [ "administrative_area_level_2", "political" ]
    }, {
      "long_name": "Pennsylvania",
      "short_name": "PA",
      "types": [ "administrative_area_level_1", "political" ]
    }, {
      "long_name": "United States",
      "short_name": "US",
      "types": [ "country", "political" ]
    } ],
    "geometry": {
      "location": {
        "lat": 39.9117794,
        "lng": -75.2771292
      },
      "location_type": "APPROXIMATE",
      "viewport": {
        "southwest": {
          "lat": 39.9032203,
          "lng": -75.2931366
        },
        "northeast": {
          "lat": 39.9203374,
          "lng": -75.2611218
        }
      },
      "bounds": {
        "southwest": {
          "lat": 39.9053119,
          "lng": -75.2914299
        },
        "northeast": {
          "lat": 39.9229119,
          "lng": -75.2627280
        }
      }
    }
  } ]
}
