{
  "status": "OK",
  "results": [ {
    "types": [ "route" ],
    "formatted_address": "Colonial Dr, Murrysville, PA 15668, USA",
    "address_components": [ {
      "long_name": "Colonial Dr",
      "short_name": "Colonial Dr",
      "types": [ "route" ]
    }, {
      "long_name": "Murrysville",
      "short_name": "Murrysville",
      "types": [ "locality", "political" ]
    }, {
      "long_name": "Murrysville",
      "short_name": "Murrysville",
      "types": [ "administrative_area_level_3", "political" ]
    }, {
      "long_name": "Westmoreland",
      "short_name": "Westmoreland",
      "types": [ "administrative_area_level_2", "political" ]
    }, {
      "long_name": "Pennsylvania",
      "short_name": "PA",
      "types": [ "administrative_area_level_1", "political" ]
    }, {
      "long_name": "United States",
      "short_name": "US",
      "types": [ "country", "political" ]
    }, {
      "long_name": "15668",
      "short_name": "15668",
      "types": [ "postal_code" ]
    } ],
    "geometry": {
      "location": {
        "lat": 40.4320781,
        "lng": -79.6847487
      },
      "location_type": "GEOMETRIC_CENTER",
      "viewport": {
        "southwest": {
          "lat": 40.4289144,
          "lng": -79.6879064
        },
        "northeast": {
          "lat": 40.4352096,
          "lng": -79.6816112
        }
      },
      "bounds": {
        "southwest": {
          "lat": 40.4316010,
          "lng": -79.6858246
        },
        "northeast": {
          "lat": 40.4325230,
          "lng": -79.6836930
        }
      }
    },
    "partial_match": true
  }, {
    "types": [ "route" ],
    "formatted_address": "Colonial Pl, Murrysville, PA 15668, USA",
    "address_components": [ {
      "long_name": "Colonial Pl",
      "short_name": "Colonial Pl",
      "types": [ "route" ]
    }, {
      "long_name": "Murrysville",
      "short_name": "Murrysville",
      "types": [ "locality", "political" ]
    }, {
      "long_name": "Murrysville",
      "short_name": "Murrysville",
      "types": [ "administrative_area_level_3", "political" ]
    }, {
      "long_name": "Westmoreland",
      "short_name": "Westmoreland",
      "types": [ "administrative_area_level_2", "political" ]
    }, {
      "long_name": "Pennsylvania",
      "short_name": "PA",
      "types": [ "administrative_area_level_1", "political" ]
    }, {
      "long_name": "United States",
      "short_name": "US",
      "types": [ "country", "political" ]
    }, {
      "long_name": "15668",
      "short_name": "15668",
      "types": [ "postal_code" ]
    } ],
    "geometry": {
      "location": {
        "lat": 40.4312524,
        "lng": -79.6860582
      },
      "location_type": "GEOMETRIC_CENTER",
      "viewport": {
        "southwest": {
          "lat": 40.4280283,
          "lng": -79.6886856
        },
        "northeast": {
          "lat": 40.4343236,
          "lng": -79.6823904
        }
      },
      "bounds": {
        "southwest": {
          "lat": 40.4306510,
          "lng": -79.6864580
        },
        "northeast": {
          "lat": 40.4317009,
          "lng": -79.6846180
        }
      }
    },
    "partial_match": true
  }, {
    "types": [ "establishment" ],
    "formatted_address": "Lancaster Regional Medical Center, 25 College Ave, Lancaster, PA 17602, USA",
    "address_components": [ {
      "long_name": "Lancaster Regional Medical Center",
      "short_name": "Lancaster Regional Medical Center",
      "types": [ "establishment" ]
    }, {
      "long_name": "25",
      "short_name": "25",
      "types": [ "street_number" ]
    }, {
      "long_name": "College Ave",
      "short_name": "College Ave",
      "types": [ "route" ]
    }, {
      "long_name": "Lancaster",
      "short_name": "Lancaster",
      "types": [ "locality", "political" ]
    }, {
      "long_name": "Lancaster",
      "short_name": "Lancaster",
      "types": [ "administrative_area_level_2", "political" ]
    }, {
      "long_name": "Pennsylvania",
      "short_name": "PA",
      "types": [ "administrative_area_level_1", "political" ]
    }, {
      "long_name": "United States",
      "short_name": "US",
      "types": [ "country", "political" ]
    }, {
      "long_name": "17602",
      "short_name": "17602",
      "types": [ "postal_code" ]
    }, {
      "long_name": "17603",
      "short_name": "17603",
      "types": [ "postal_code" ]
    } ],
    "geometry": {
      "location": {
        "lat": 40.0407176,
        "lng": -76.3216030
      },
      "location_type": "APPROXIMATE",
      "viewport": {
        "southwest": {
          "lat": 40.0375700,
          "lng": -76.3247506
        },
        "northeast": {
          "lat": 40.0438653,
          "lng": -76.3184554
        }
      },
      "bounds": {
        "southwest": {
          "lat": 40.0396997,
          "lng": -76.3227279
        },
        "northeast": {
          "lat": 40.0417356,
          "lng": -76.3204781
        }
      }
    },
    "partial_match": true
  }, {
    "types": [ "political" ],
    "formatted_address": "Gateway Regional, United States",
    "address_components": [ {
      "long_name": "Gateway Regional",
      "short_name": "Gateway Regional",
      "types": [ "political" ]
    }, {
      "long_name": "United States",
      "short_name": "US",
      "types": [ "country", "political" ]
    } ],
    "geometry": {
      "location": {
        "lat": 39.8692138,
        "lng": -75.1866396
      },
      "location_type": "APPROXIMATE",
      "viewport": {
        "southwest": {
          "lat": 39.8573130,
          "lng": -75.2002599
        },
        "northeast": {
          "lat": 39.8807130,
          "lng": -75.1692220
        }
      },
      "bounds": {
        "southwest": {
          "lat": 39.8573130,
          "lng": -75.2002599
        },
        "northeast": {
          "lat": 39.8807130,
          "lng": -75.1692220
        }
      }
    },
    "partial_match": true
  } ]
}
