{
  "status": "OK",
  "results": [ {
    "types": [ "locality", "political" ],
    "formatted_address": "Conshohocken, PA, USA",
    "address_components": [ {
      "long_name": "Conshohocken",
      "short_name": "Conshohocken",
      "types": [ "locality", "political" ]
    }, {
      "long_name": "Montgomery",
      "short_name": "Montgomery",
      "types": [ "administrative_area_level_2", "political" ]
    }, {
      "long_name": "Pennsylvania",
      "short_name": "PA",
      "types": [ "administrative_area_level_1", "political" ]
    }, {
      "long_name": "United States",
      "short_name": "US",
      "types": [ "country", "political" ]
    } ],
    "geometry": {
      "location": {
        "lat": 40.0792766,
        "lng": -75.3015714
      },
      "location_type": "APPROXIMATE",
      "viewport": {
        "southwest": {
          "lat": 40.0707385,
          "lng": -75.3175788
        },
        "northeast": {
          "lat": 40.0878136,
          "lng": -75.2855640
        }
      },
      "bounds": {
        "southwest": {
          "lat": 40.0689099,
          "lng": -75.3160280
        },
        "northeast": {
          "lat": 40.0871090,
          "lng": -75.2897260
        }
      }
    }
  } ]
}
