{
  "status": "OK",
  "results": [ {
    "types": [ "administrative_area_level_3", "political" ],
    "formatted_address": "Crescent, PA, USA",
    "address_components": [ {
      "long_name": "Crescent",
      "short_name": "Crescent",
      "types": [ "administrative_area_level_3", "political" ]
    }, {
      "long_name": "Allegheny",
      "short_name": "Allegheny",
      "types": [ "administrative_area_level_2", "political" ]
    }, {
      "long_name": "Pennsylvania",
      "short_name": "PA",
      "types": [ "administrative_area_level_1", "political" ]
    }, {
      "long_name": "United States",
      "short_name": "US",
      "types": [ "country", "political" ]
    } ],
    "geometry": {
      "location": {
        "lat": 40.5572954,
        "lng": -80.2293430
      },
      "location_type": "APPROXIMATE",
      "viewport": {
        "southwest": {
          "lat": 40.5403386,
          "lng": -80.2613578
        },
        "northeast": {
          "lat": 40.5742480,
          "lng": -80.1973282
        }
      },
      "bounds": {
        "southwest": {
          "lat": 40.5434670,
          "lng": -80.2514820
        },
        "northeast": {
          "lat": 40.5730669,
          "lng": -80.2076809
        }
      }
    }
  } ]
}
