{
  "status": "OK",
  "results": [ {
    "types": [ "locality", "political" ],
    "formatted_address": "Dallas, PA, USA",
    "address_components": [ {
      "long_name": "Dallas",
      "short_name": "Dallas",
      "types": [ "locality", "political" ]
    }, {
      "long_name": "Luzerne",
      "short_name": "Luzerne",
      "types": [ "administrative_area_level_2", "political" ]
    }, {
      "long_name": "Pennsylvania",
      "short_name": "PA",
      "types": [ "administrative_area_level_1", "political" ]
    }, {
      "long_name": "United States",
      "short_name": "US",
      "types": [ "country", "political" ]
    } ],
    "geometry": {
      "location": {
        "lat": 41.3361911,
        "lng": -75.9632546
      },
      "location_type": "APPROXIMATE",
      "viewport": {
        "southwest": {
          "lat": 41.3194331,
          "lng": -75.9952694
        },
        "northeast": {
          "lat": 41.3529448,
          "lng": -75.9312398
        }
      },
      "bounds": {
        "southwest": {
          "lat": 41.3156800,
          "lng": -75.9949439
        },
        "northeast": {
          "lat": 41.3455790,
          "lng": -75.9475430
        }
      }
    }
  } ]
}
