{
  "status": "OK",
  "results": [ {
    "types": [ "locality", "political" ],
    "formatted_address": "Dunmore, PA, USA",
    "address_components": [ {
      "long_name": "Dunmore",
      "short_name": "Dunmore",
      "types": [ "locality", "political" ]
    }, {
      "long_name": "Lackawanna",
      "short_name": "Lackawanna",
      "types": [ "administrative_area_level_2", "political" ]
    }, {
      "long_name": "Pennsylvania",
      "short_name": "PA",
      "types": [ "administrative_area_level_1", "political" ]
    }, {
      "long_name": "United States",
      "short_name": "US",
      "types": [ "country", "political" ]
    } ],
    "geometry": {
      "location": {
        "lat": 41.4198027,
        "lng": -75.6324112
      },
      "location_type": "APPROXIMATE",
      "viewport": {
        "southwest": {
          "lat": 41.3863254,
          "lng": -75.6964409
        },
        "northeast": {
          "lat": 41.4532628,
          "lng": -75.5683815
        }
      },
      "bounds": {
        "southwest": {
          "lat": 41.3928800,
          "lng": -75.6513329
        },
        "northeast": {
          "lat": 41.4425800,
          "lng": -75.5612309
        }
      }
    }
  } ]
}
