{
  "status": "OK",
  "results": [ {
    "types": [ "locality", "political" ],
    "formatted_address": "East Norriton, PA, USA",
    "address_components": [ {
      "long_name": "East Norriton",
      "short_name": "East Norriton",
      "types": [ "locality", "political" ]
    }, {
      "long_name": "Montgomery",
      "short_name": "Montgomery",
      "types": [ "administrative_area_level_2", "political" ]
    }, {
      "long_name": "Pennsylvania",
      "short_name": "PA",
      "types": [ "administrative_area_level_1", "political" ]
    }, {
      "long_name": "United States",
      "short_name": "US",
      "types": [ "country", "political" ]
    } ],
    "geometry": {
      "location": {
        "lat": 40.1517741,
        "lng": -75.3365695
      },
      "location_type": "APPROXIMATE",
      "viewport": {
        "southwest": {
          "lat": 40.1347150,
          "lng": -75.3685843
        },
        "northeast": {
          "lat": 40.1688289,
          "lng": -75.3045547
        }
      },
      "bounds": {
        "southwest": {
          "lat": 40.1246079,
          "lng": -75.3759259
        },
        "northeast": {
          "lat": 40.1758410,
          "lng": -75.2980230
        }
      }
    }
  } ]
}
