{
  "status": "OK",
  "results": [ {
    "types": [ "locality", "political" ],
    "formatted_address": "East Berlin, PA, USA",
    "address_components": [ {
      "long_name": "East Berlin",
      "short_name": "East Berlin",
      "types": [ "locality", "political" ]
    }, {
      "long_name": "Adams",
      "short_name": "Adams",
      "types": [ "administrative_area_level_2", "political" ]
    }, {
      "long_name": "Pennsylvania",
      "short_name": "PA",
      "types": [ "administrative_area_level_1", "political" ]
    }, {
      "long_name": "United States",
      "short_name": "US",
      "types": [ "country", "political" ]
    } ],
    "geometry": {
      "location": {
        "lat": 39.9375969,
        "lng": -76.9785892
      },
      "location_type": "APPROXIMATE",
      "viewport": {
        "southwest": {
          "lat": 39.9290410,
          "lng": -76.9945966
        },
        "northeast": {
          "lat": 39.9461517,
          "lng": -76.9625818
        }
      },
      "bounds": {
        "southwest": {
          "lat": 39.9275660,
          "lng": -76.9908959
        },
        "northeast": {
          "lat": 39.9440589,
          "lng": -76.9698150
        }
      }
    }
  } ]
}
