{
  "status": "OK",
  "results": [ {
    "types": [ "administrative_area_level_3", "political" ],
    "formatted_address": "East Penn, PA, USA",
    "address_components": [ {
      "long_name": "East Penn",
      "short_name": "East Penn",
      "types": [ "administrative_area_level_3", "political" ]
    }, {
      "long_name": "Carbon",
      "short_name": "Carbon",
      "types": [ "administrative_area_level_2", "political" ]
    }, {
      "long_name": "Pennsylvania",
      "short_name": "PA",
      "types": [ "administrative_area_level_1", "political" ]
    }, {
      "long_name": "United States",
      "short_name": "US",
      "types": [ "country", "political" ]
    } ],
    "geometry": {
      "location": {
        "lat": 40.7804012,
        "lng": -75.7255192
      },
      "location_type": "APPROXIMATE",
      "viewport": {
        "southwest": {
          "lat": 40.7465965,
          "lng": -75.7895489
        },
        "northeast": {
          "lat": 40.8141887,
          "lng": -75.6614895
        }
      },
      "bounds": {
        "southwest": {
          "lat": 40.7354420,
          "lng": -75.8132990
        },
        "northeast": {
          "lat": 40.8121079,
          "lng": -75.6089849
        }
      }
    }
  } ]
}
