{
  "status": "OK",
  "results": [ {
    "types": [ "administrative_area_level_3", "political" ],
    "formatted_address": "East Whiteland Township, PA, USA",
    "address_components": [ {
      "long_name": "East Whiteland Township",
      "short_name": "East Whiteland Township",
      "types": [ "administrative_area_level_3", "political" ]
    }, {
      "long_name": "Chester",
      "short_name": "Chester",
      "types": [ "administrative_area_level_2", "political" ]
    }, {
      "long_name": "Pennsylvania",
      "short_name": "PA",
      "types": [ "administrative_area_level_1", "political" ]
    }, {
      "long_name": "United States",
      "short_name": "US",
      "types": [ "country", "political" ]
    } ],
    "geometry": {
      "location": {
        "lat": 40.0407005,
        "lng": -75.5626039
      },
      "location_type": "APPROXIMATE",
      "viewport": {
        "southwest": {
          "lat": 40.0065223,
          "lng": -75.6266336
        },
        "northeast": {
          "lat": 40.0748616,
          "lng": -75.4985742
        }
      },
      "bounds": {
        "southwest": {
          "lat": 40.0163860,
          "lng": -75.6013100
        },
        "northeast": {
          "lat": 40.0749829,
          "lng": -75.5069640
        }
      }
    }
  } ]
}
