{
  "status": "OK",
  "results": [ {
    "types": [ "locality", "political" ],
    "formatted_address": "Eddystone, PA, USA",
    "address_components": [ {
      "long_name": "Eddystone",
      "short_name": "Eddystone",
      "types": [ "locality", "political" ]
    }, {
      "long_name": "Delaware",
      "short_name": "Delaware",
      "types": [ "administrative_area_level_2", "political" ]
    }, {
      "long_name": "Pennsylvania",
      "short_name": "PA",
      "types": [ "administrative_area_level_1", "political" ]
    }, {
      "long_name": "United States",
      "short_name": "US",
      "types": [ "country", "political" ]
    } ],
    "geometry": {
      "location": {
        "lat": 39.8601125,
        "lng": -75.3443561
      },
      "location_type": "APPROXIMATE",
      "viewport": {
        "southwest": {
          "lat": 39.8429804,
          "lng": -75.3763709
        },
        "northeast": {
          "lat": 39.8772404,
          "lng": -75.3123413
        }
      },
      "bounds": {
        "southwest": {
          "lat": 39.8461120,
          "lng": -75.3481340
        },
        "northeast": {
          "lat": 39.8668119,
          "lng": -75.3185309
        }
      }
    }
  } ]
}
