{
  "status": "OK",
  "results": [ {
    "types": [ "locality", "political" ],
    "formatted_address": "Edgeworth, PA, USA",
    "address_components": [ {
      "long_name": "Edgeworth",
      "short_name": "Edgeworth",
      "types": [ "locality", "political" ]
    }, {
      "long_name": "Allegheny",
      "short_name": "Allegheny",
      "types": [ "administrative_area_level_2", "political" ]
    }, {
      "long_name": "Pennsylvania",
      "short_name": "PA",
      "types": [ "administrative_area_level_1", "political" ]
    }, {
      "long_name": "United States",
      "short_name": "US",
      "types": [ "country", "political" ]
    } ],
    "geometry": {
      "location": {
        "lat": 40.5511787,
        "lng": -80.1928368
      },
      "location_type": "APPROXIMATE",
      "viewport": {
        "southwest": {
          "lat": 40.5427000,
          "lng": -80.2088442
        },
        "northeast": {
          "lat": 40.5596563,
          "lng": -80.1768294
        }
      },
      "bounds": {
        "southwest": {
          "lat": 40.5405669,
          "lng": -80.2095810
        },
        "northeast": {
          "lat": 40.5697670,
          "lng": -80.1803800
        }
      }
    }
  } ]
}
