{
  "status": "OK",
  "results": [ {
    "types": [ "locality", "political" ],
    "formatted_address": "Ford City, PA, USA",
    "address_components": [ {
      "long_name": "Ford City",
      "short_name": "Ford City",
      "types": [ "locality", "political" ]
    }, {
      "long_name": "Armstrong",
      "short_name": "Armstrong",
      "types": [ "administrative_area_level_2", "political" ]
    }, {
      "long_name": "Pennsylvania",
      "short_name": "PA",
      "types": [ "administrative_area_level_1", "political" ]
    }, {
      "long_name": "United States",
      "short_name": "US",
      "types": [ "country", "political" ]
    } ],
    "geometry": {
      "location": {
        "lat": 40.7722865,
        "lng": -79.5297673
      },
      "location_type": "APPROXIMATE",
      "viewport": {
        "southwest": {
          "lat": 40.7638359,
          "lng": -79.5457747
        },
        "northeast": {
          "lat": 40.7807360,
          "lng": -79.5137599
        }
      },
      "bounds": {
        "southwest": {
          "lat": 40.7594379,
          "lng": -79.5452129
        },
        "northeast": {
          "lat": 40.7821379,
          "lng": -79.5217469
        }
      }
    }
  } ]
}
