{
  "status": "OK",
  "results": [ {
    "types": [ "locality", "political" ],
    "formatted_address": "Freedom, PA, USA",
    "address_components": [ {
      "long_name": "Freedom",
      "short_name": "Freedom",
      "types": [ "locality", "political" ]
    }, {
      "long_name": "Beaver",
      "short_name": "Beaver",
      "types": [ "administrative_area_level_2", "political" ]
    }, {
      "long_name": "Pennsylvania",
      "short_name": "PA",
      "types": [ "administrative_area_level_1", "political" ]
    }, {
      "long_name": "United States",
      "short_name": "US",
      "types": [ "country", "political" ]
    } ],
    "geometry": {
      "location": {
        "lat": 40.6856221,
        "lng": -80.2517277
      },
      "location_type": "APPROXIMATE",
      "viewport": {
        "southwest": {
          "lat": 40.6771605,
          "lng": -80.2677351
        },
        "northeast": {
          "lat": 40.6940826,
          "lng": -80.2357203
        }
      },
      "bounds": {
        "southwest": {
          "lat": 40.6736660,
          "lng": -80.2655829
        },
        "northeast": {
          "lat": 40.6951660,
          "lng": -80.2422830
        }
      }
    }
  } ]
}
