{
  "status": "OK",
  "results": [ {
    "types": [ "locality", "political" ],
    "formatted_address": "Galeton, PA, USA",
    "address_components": [ {
      "long_name": "Galeton",
      "short_name": "Galeton",
      "types": [ "locality", "political" ]
    }, {
      "long_name": "Potter",
      "short_name": "Potter",
      "types": [ "administrative_area_level_2", "political" ]
    }, {
      "long_name": "Pennsylvania",
      "short_name": "PA",
      "types": [ "administrative_area_level_1", "political" ]
    }, {
      "long_name": "United States",
      "short_name": "US",
      "types": [ "country", "political" ]
    } ],
    "geometry": {
      "location": {
        "lat": 41.7331245,
        "lng": -77.6419310
      },
      "location_type": "APPROXIMATE",
      "viewport": {
        "southwest": {
          "lat": 41.7164690,
          "lng": -77.6739458
        },
        "northeast": {
          "lat": 41.7497757,
          "lng": -77.6099162
        }
      },
      "bounds": {
        "southwest": {
          "lat": 41.7268330,
          "lng": -77.6659930
        },
        "northeast": {
          "lat": 41.7480009,
          "lng": -77.6188969
        }
      }
    }
  } ]
}
