{
  "status": "OK",
  "results": [ {
    "types": [ "locality", "political" ],
    "formatted_address": "Gettysburg, PA, USA",
    "address_components": [ {
      "long_name": "Gettysburg",
      "short_name": "Gettysburg",
      "types": [ "locality", "political" ]
    }, {
      "long_name": "Adams",
      "short_name": "Adams",
      "types": [ "administrative_area_level_2", "political" ]
    }, {
      "long_name": "Pennsylvania",
      "short_name": "PA",
      "types": [ "administrative_area_level_1", "political" ]
    }, {
      "long_name": "United States",
      "short_name": "US",
      "types": [ "country", "political" ]
    } ],
    "geometry": {
      "location": {
        "lat": 39.8309293,
        "lng": -77.2310955
      },
      "location_type": "APPROXIMATE",
      "viewport": {
        "southwest": {
          "lat": 39.8223601,
          "lng": -77.2471029
        },
        "northeast": {
          "lat": 39.8394974,
          "lng": -77.2150881
        }
      },
      "bounds": {
        "southwest": {
          "lat": 39.8159280,
          "lng": -77.2466250
        },
        "northeast": {
          "lat": 39.8437130,
          "lng": -77.2176360
        }
      }
    }
  } ]
}
