{
  "status": "OK",
  "results": [ {
    "types": [ "locality", "political" ],
    "formatted_address": "Green Tree, PA, USA",
    "address_components": [ {
      "long_name": "Green Tree",
      "short_name": "Green Tree",
      "types": [ "locality", "political" ]
    }, {
      "long_name": "Allegheny",
      "short_name": "Allegheny",
      "types": [ "administrative_area_level_2", "political" ]
    }, {
      "long_name": "Pennsylvania",
      "short_name": "PA",
      "types": [ "administrative_area_level_1", "political" ]
    }, {
      "long_name": "United States",
      "short_name": "US",
      "types": [ "country", "political" ]
    } ],
    "geometry": {
      "location": {
        "lat": 40.4117358,
        "lng": -80.0456097
      },
      "location_type": "APPROXIMATE",
      "viewport": {
        "southwest": {
          "lat": 40.3947421,
          "lng": -80.0776245
        },
        "northeast": {
          "lat": 40.4287252,
          "lng": -80.0135949
        }
      },
      "bounds": {
        "southwest": {
          "lat": 40.4019690,
          "lng": -80.0745769
        },
        "northeast": {
          "lat": 40.4294690,
          "lng": -80.0345299
        }
      }
    }
  } ]
}
