{
  "status": "OK",
  "results": [ {
    "types": [ "locality", "political" ],
    "formatted_address": "Hampton Township, PA, USA",
    "address_components": [ {
      "long_name": "Hampton Township",
      "short_name": "Hampton Township",
      "types": [ "locality", "political" ]
    }, {
      "long_name": "Hampton",
      "short_name": "Hampton",
      "types": [ "administrative_area_level_3", "political" ]
    }, {
      "long_name": "Allegheny",
      "short_name": "Allegheny",
      "types": [ "administrative_area_level_2", "political" ]
    }, {
      "long_name": "Pennsylvania",
      "short_name": "PA",
      "types": [ "administrative_area_level_1", "political" ]
    }, {
      "long_name": "United States",
      "short_name": "US",
      "types": [ "country", "political" ]
    } ],
    "geometry": {
      "location": {
        "lat": 40.5858400,
        "lng": -79.9549850
      },
      "location_type": "APPROXIMATE",
      "viewport": {
        "southwest": {
          "lat": 40.5519365,
          "lng": -80.0190147
        },
        "northeast": {
          "lat": 40.6197264,
          "lng": -79.8909553
        }
      },
      "bounds": {
        "southwest": {
          "lat": 40.5539659,
          "lng": -79.9906419
        },
        "northeast": {
          "lat": 40.6162430,
          "lng": -79.9156139
        }
      }
    }
  } ]
}
