{
  "status": "OK",
  "results": [ {
    "types": [ "locality", "political" ],
    "formatted_address": "Hampton, PA, USA",
    "address_components": [ {
      "long_name": "Hampton",
      "short_name": "Hampton",
      "types": [ "locality", "political" ]
    }, {
      "long_name": "Adams",
      "short_name": "Adams",
      "types": [ "administrative_area_level_2", "political" ]
    }, {
      "long_name": "Pennsylvania",
      "short_name": "PA",
      "types": [ "administrative_area_level_1", "political" ]
    }, {
      "long_name": "United States",
      "short_name": "US",
      "types": [ "country", "political" ]
    } ],
    "geometry": {
      "location": {
        "lat": 39.9295406,
        "lng": -77.0583135
      },
      "location_type": "APPROXIMATE",
      "viewport": {
        "southwest": {
          "lat": 39.9209837,
          "lng": -77.0743209
        },
        "northeast": {
          "lat": 39.9380964,
          "lng": -77.0423061
        }
      },
      "bounds": {
        "southwest": {
          "lat": 39.9177959,
          "lng": -77.0674350
        },
        "northeast": {
          "lat": 39.9376430,
          "lng": -77.0479639
        }
      }
    }
  } ]
}
