{
  "status": "OK",
  "results": [ {
    "types": [ "administrative_area_level_3", "political" ],
    "formatted_address": "Hampden, PA, USA",
    "address_components": [ {
      "long_name": "Hampden",
      "short_name": "Hampden",
      "types": [ "administrative_area_level_3", "political" ]
    }, {
      "long_name": "Cumberland",
      "short_name": "Cumberland",
      "types": [ "administrative_area_level_2", "political" ]
    }, {
      "long_name": "Pennsylvania",
      "short_name": "PA",
      "types": [ "administrative_area_level_1", "political" ]
    }, {
      "long_name": "United States",
      "short_name": "US",
      "types": [ "country", "political" ]
    } ],
    "geometry": {
      "location": {
        "lat": 40.2510902,
        "lng": -76.9758274
      },
      "location_type": "APPROXIMATE",
      "viewport": {
        "southwest": {
          "lat": 40.2170176,
          "lng": -77.0398571
        },
        "northeast": {
          "lat": 40.2851456,
          "lng": -76.9117977
        }
      },
      "bounds": {
        "southwest": {
          "lat": 40.2146110,
          "lng": -77.0147190
        },
        "northeast": {
          "lat": 40.3098570,
          "lng": -76.9357589
        }
      }
    }
  } ]
}
