{
  "status": "OK",
  "results": [ {
    "types": [ "locality", "political" ],
    "formatted_address": "Harrisville, PA 16038, USA",
    "address_components": [ {
      "long_name": "Harrisville",
      "short_name": "Harrisville",
      "types": [ "locality", "political" ]
    }, {
      "long_name": "Butler",
      "short_name": "Butler",
      "types": [ "administrative_area_level_2", "political" ]
    }, {
      "long_name": "Pennsylvania",
      "short_name": "PA",
      "types": [ "administrative_area_level_1", "political" ]
    }, {
      "long_name": "United States",
      "short_name": "US",
      "types": [ "country", "political" ]
    }, {
      "long_name": "16038",
      "short_name": "16038",
      "types": [ "postal_code" ]
    } ],
    "geometry": {
      "location": {
        "lat": 41.1367274,
        "lng": -80.0092239
      },
      "location_type": "APPROXIMATE",
      "viewport": {
        "southwest": {
          "lat": 41.1283233,
          "lng": -80.0252313
        },
        "northeast": {
          "lat": 41.1451304,
          "lng": -79.9932165
        }
      },
      "bounds": {
        "southwest": {
          "lat": 41.1274469,
          "lng": -80.0220159
        },
        "northeast": {
          "lat": 41.1451799,
          "lng": -80.0001180
        }
      }
    }
  } ]
}
