{
  "status": "OK",
  "results": [ {
    "types": [ "locality", "political" ],
    "formatted_address": "Harveys Lake, PA, USA",
    "address_components": [ {
      "long_name": "Harveys Lake",
      "short_name": "Harveys Lake",
      "types": [ "locality", "political" ]
    }, {
      "long_name": "Luzerne",
      "short_name": "Luzerne",
      "types": [ "administrative_area_level_2", "political" ]
    }, {
      "long_name": "Pennsylvania",
      "short_name": "PA",
      "types": [ "administrative_area_level_1", "political" ]
    }, {
      "long_name": "United States",
      "short_name": "US",
      "types": [ "country", "political" ]
    } ],
    "geometry": {
      "location": {
        "lat": 41.3633350,
        "lng": -76.0439890
      },
      "location_type": "APPROXIMATE",
      "viewport": {
        "southwest": {
          "lat": 41.3465839,
          "lng": -76.0760038
        },
        "northeast": {
          "lat": 41.3800817,
          "lng": -76.0119742
        }
      },
      "bounds": {
        "southwest": {
          "lat": 41.3392799,
          "lng": -76.0694719
        },
        "northeast": {
          "lat": 41.3839509,
          "lng": -76.0086050
        }
      }
    }
  } ]
}
