{
  "status": "OK",
  "results": [ {
    "types": [ "administrative_area_level_3", "political" ],
    "formatted_address": "Haverford Township, PA, USA",
    "address_components": [ {
      "long_name": "Haverford Township",
      "short_name": "Haverford Township",
      "types": [ "administrative_area_level_3", "political" ]
    }, {
      "long_name": "Delaware",
      "short_name": "Delaware",
      "types": [ "administrative_area_level_2", "political" ]
    }, {
      "long_name": "Pennsylvania",
      "short_name": "PA",
      "types": [ "administrative_area_level_1", "political" ]
    }, {
      "long_name": "United States",
      "short_name": "US",
      "types": [ "country", "political" ]
    } ],
    "geometry": {
      "location": {
        "lat": 39.9877992,
        "lng": -75.3062326
      },
      "location_type": "APPROXIMATE",
      "viewport": {
        "southwest": {
          "lat": 39.9535945,
          "lng": -75.3702623
        },
        "northeast": {
          "lat": 40.0219868,
          "lng": -75.2422029
        }
      },
      "bounds": {
        "southwest": {
          "lat": 39.9519109,
          "lng": -75.3627350
        },
        "northeast": {
          "lat": 40.0198110,
          "lng": -75.2764749
        }
      }
    }
  } ]
}
