{
  "status": "OK",
  "results": [ {
    "types": [ "locality", "political" ],
    "formatted_address": "Hickory, PA, USA",
    "address_components": [ {
      "long_name": "Hickory",
      "short_name": "Hickory",
      "types": [ "locality", "political" ]
    }, {
      "long_name": "Washington",
      "short_name": "Washington",
      "types": [ "administrative_area_level_2", "political" ]
    }, {
      "long_name": "Pennsylvania",
      "short_name": "PA",
      "types": [ "administrative_area_level_1", "political" ]
    }, {
      "long_name": "United States",
      "short_name": "US",
      "types": [ "country", "political" ]
    } ],
    "geometry": {
      "location": {
        "lat": 40.2989589,
        "lng": -80.3086727
      },
      "location_type": "APPROXIMATE",
      "viewport": {
        "southwest": {
          "lat": 40.2649104,
          "lng": -80.3727024
        },
        "northeast": {
          "lat": 40.3329902,
          "lng": -80.2446430
        }
      },
      "bounds": {
        "southwest": {
          "lat": 40.2489880,
          "lng": -80.3979990
        },
        "northeast": {
          "lat": 40.3274490,
          "lng": -80.2603209
        }
      }
    }
  } ]
}
