{
  "status": "OK",
  "results": [ {
    "types": [ "locality", "political" ],
    "formatted_address": "Highspire, PA, USA",
    "address_components": [ {
      "long_name": "Highspire",
      "short_name": "Highspire",
      "types": [ "locality", "political" ]
    }, {
      "long_name": "Dauphin",
      "short_name": "Dauphin",
      "types": [ "administrative_area_level_2", "political" ]
    }, {
      "long_name": "Pennsylvania",
      "short_name": "PA",
      "types": [ "administrative_area_level_1", "political" ]
    }, {
      "long_name": "United States",
      "short_name": "US",
      "types": [ "country", "political" ]
    } ],
    "geometry": {
      "location": {
        "lat": 40.2109244,
        "lng": -76.7910821
      },
      "location_type": "APPROXIMATE",
      "viewport": {
        "southwest": {
          "lat": 40.2024028,
          "lng": -76.8070895
        },
        "northeast": {
          "lat": 40.2194449,
          "lng": -76.7750747
        }
      },
      "bounds": {
        "southwest": {
          "lat": 40.2008910,
          "lng": -76.7999930
        },
        "northeast": {
          "lat": 40.2151900,
          "lng": -76.7689920
        }
      }
    }
  } ]
}
