{
  "status": "OK",
  "results": [ {
    "types": [ "locality", "political" ],
    "formatted_address": "Irwin, PA, USA",
    "address_components": [ {
      "long_name": "Irwin",
      "short_name": "Irwin",
      "types": [ "locality", "political" ]
    }, {
      "long_name": "Westmoreland",
      "short_name": "Westmoreland",
      "types": [ "administrative_area_level_2", "political" ]
    }, {
      "long_name": "Pennsylvania",
      "short_name": "PA",
      "types": [ "administrative_area_level_1", "political" ]
    }, {
      "long_name": "United States",
      "short_name": "US",
      "types": [ "country", "political" ]
    } ],
    "geometry": {
      "location": {
        "lat": 40.3245138,
        "lng": -79.7011549
      },
      "location_type": "APPROXIMATE",
      "viewport": {
        "southwest": {
          "lat": 40.3160065,
          "lng": -79.7171623
        },
        "northeast": {
          "lat": 40.3330200,
          "lng": -79.6851475
        }
      },
      "bounds": {
        "southwest": {
          "lat": 40.3124789,
          "lng": -79.7131660
        },
        "northeast": {
          "lat": 40.3356689,
          "lng": -79.6816650
        }
      }
    }
  } ]
}
