{
  "status": "OK",
  "results": [ {
    "types": [ "locality", "political" ],
    "formatted_address": "Jermyn, PA, USA",
    "address_components": [ {
      "long_name": "Jermyn",
      "short_name": "Jermyn",
      "types": [ "locality", "political" ]
    }, {
      "long_name": "Lackawanna",
      "short_name": "Lackawanna",
      "types": [ "administrative_area_level_2", "political" ]
    }, {
      "long_name": "Pennsylvania",
      "short_name": "PA",
      "types": [ "administrative_area_level_1", "political" ]
    }, {
      "long_name": "United States",
      "short_name": "US",
      "types": [ "country", "political" ]
    } ],
    "geometry": {
      "location": {
        "lat": 41.5309146,
        "lng": -75.5454634
      },
      "location_type": "APPROXIMATE",
      "viewport": {
        "southwest": {
          "lat": 41.5225612,
          "lng": -75.5614708
        },
        "northeast": {
          "lat": 41.5392669,
          "lng": -75.5294560
        }
      },
      "bounds": {
        "southwest": {
          "lat": 41.5150809,
          "lng": -75.5570300
        },
        "northeast": {
          "lat": 41.5362809,
          "lng": -75.5350290
        }
      }
    }
  } ]
}
