{
  "status": "OK",
  "results": [ {
    "types": [ "locality", "political" ],
    "formatted_address": "Lansdowne, PA, USA",
    "address_components": [ {
      "long_name": "Lansdowne",
      "short_name": "Lansdowne",
      "types": [ "locality", "political" ]
    }, {
      "long_name": "Delaware",
      "short_name": "Delaware",
      "types": [ "administrative_area_level_2", "political" ]
    }, {
      "long_name": "Pennsylvania",
      "short_name": "PA",
      "types": [ "administrative_area_level_1", "political" ]
    }, {
      "long_name": "United States",
      "short_name": "US",
      "types": [ "country", "political" ]
    } ],
    "geometry": {
      "location": {
        "lat": 39.9381682,
        "lng": -75.2718507
      },
      "location_type": "APPROXIMATE",
      "viewport": {
        "southwest": {
          "lat": 39.9296124,
          "lng": -75.2878581
        },
        "northeast": {
          "lat": 39.9467229,
          "lng": -75.2558433
        }
      },
      "bounds": {
        "southwest": {
          "lat": 39.9302120,
          "lng": -75.2896289
        },
        "northeast": {
          "lat": 39.9510120,
          "lng": -75.2643270
        }
      }
    }
  } ]
}
