{
  "status": "OK",
  "results": [ {
    "types": [ "locality", "political" ],
    "formatted_address": "Lansdale, PA, USA",
    "address_components": [ {
      "long_name": "Lansdale",
      "short_name": "Lansdale",
      "types": [ "locality", "political" ]
    }, {
      "long_name": "Montgomery",
      "short_name": "Montgomery",
      "types": [ "administrative_area_level_2", "political" ]
    }, {
      "long_name": "Pennsylvania",
      "short_name": "PA",
      "types": [ "administrative_area_level_1", "political" ]
    }, {
      "long_name": "United States",
      "short_name": "US",
      "types": [ "country", "political" ]
    } ],
    "geometry": {
      "location": {
        "lat": 40.2414952,
        "lng": -75.2837862
      },
      "location_type": "APPROXIMATE",
      "viewport": {
        "southwest": {
          "lat": 40.2244586,
          "lng": -75.3158010
        },
        "northeast": {
          "lat": 40.2585275,
          "lng": -75.2517714
        }
      },
      "bounds": {
        "southwest": {
          "lat": 40.2229059,
          "lng": -75.3033190
        },
        "northeast": {
          "lat": 40.2616049,
          "lng": -75.2539190
        }
      }
    }
  } ]
}
