{
  "status": "OK",
  "results": [ {
    "types": [ "locality", "political" ],
    "formatted_address": "Leechburg, PA, USA",
    "address_components": [ {
      "long_name": "Leechburg",
      "short_name": "Leechburg",
      "types": [ "locality", "political" ]
    }, {
      "long_name": "Armstrong",
      "short_name": "Armstrong",
      "types": [ "administrative_area_level_2", "political" ]
    }, {
      "long_name": "Pennsylvania",
      "short_name": "PA",
      "types": [ "administrative_area_level_1", "political" ]
    }, {
      "long_name": "United States",
      "short_name": "US",
      "types": [ "country", "political" ]
    } ],
    "geometry": {
      "location": {
        "lat": 40.6270100,
        "lng": -79.6056012
      },
      "location_type": "APPROXIMATE",
      "viewport": {
        "southwest": {
          "lat": 40.6185409,
          "lng": -79.6216086
        },
        "northeast": {
          "lat": 40.6354780,
          "lng": -79.5895938
        }
      },
      "bounds": {
        "southwest": {
          "lat": 40.6244490,
          "lng": -79.6101360
        },
        "northeast": {
          "lat": 40.6374889,
          "lng": -79.5937670
        }
      }
    }
  } ]
}
