{
  "status": "OK",
  "results": [ {
    "types": [ "locality", "political" ],
    "formatted_address": "Leetsdale, PA, USA",
    "address_components": [ {
      "long_name": "Leetsdale",
      "short_name": "Leetsdale",
      "types": [ "locality", "political" ]
    }, {
      "long_name": "Allegheny",
      "short_name": "Allegheny",
      "types": [ "administrative_area_level_2", "political" ]
    }, {
      "long_name": "Pennsylvania",
      "short_name": "PA",
      "types": [ "administrative_area_level_1", "political" ]
    }, {
      "long_name": "United States",
      "short_name": "US",
      "types": [ "country", "political" ]
    } ],
    "geometry": {
      "location": {
        "lat": 40.5631230,
        "lng": -80.2083928
      },
      "location_type": "APPROXIMATE",
      "viewport": {
        "southwest": {
          "lat": 40.5546458,
          "lng": -80.2244002
        },
        "northeast": {
          "lat": 40.5715991,
          "lng": -80.1923854
        }
      },
      "bounds": {
        "southwest": {
          "lat": 40.5528670,
          "lng": -80.2282819
        },
        "northeast": {
          "lat": 40.5795670,
          "lng": -80.1978810
        }
      }
    }
  } ]
}
