{
  "status": "OK",
  "results": [ {
    "types": [ "administrative_area_level_3", "political" ],
    "formatted_address": "Lower Salford, PA, USA",
    "address_components": [ {
      "long_name": "Lower Salford",
      "short_name": "Lower Salford",
      "types": [ "administrative_area_level_3", "political" ]
    }, {
      "long_name": "Montgomery",
      "short_name": "Montgomery",
      "types": [ "administrative_area_level_2", "political" ]
    }, {
      "long_name": "Pennsylvania",
      "short_name": "PA",
      "types": [ "administrative_area_level_1", "political" ]
    }, {
      "long_name": "United States",
      "short_name": "US",
      "types": [ "country", "political" ]
    } ],
    "geometry": {
      "location": {
        "lat": 40.2605317,
        "lng": -75.3995089
      },
      "location_type": "APPROXIMATE",
      "viewport": {
        "southwest": {
          "lat": 40.2264639,
          "lng": -75.4635386
        },
        "northeast": {
          "lat": 40.2945824,
          "lng": -75.3354792
        }
      },
      "bounds": {
        "southwest": {
          "lat": 40.2263040,
          "lng": -75.4447639
        },
        "northeast": {
          "lat": 40.3021950,
          "lng": -75.3373240
        }
      }
    }
  } ]
}
