{
  "status": "OK",
  "results": [ {
    "types": [ "administrative_area_level_3", "political" ],
    "formatted_address": "Lower Milford Township, PA, USA",
    "address_components": [ {
      "long_name": "Lower Milford Township",
      "short_name": "Lower Milford Township",
      "types": [ "administrative_area_level_3", "political" ]
    }, {
      "long_name": "Lehigh",
      "short_name": "Lehigh",
      "types": [ "administrative_area_level_2", "political" ]
    }, {
      "long_name": "Pennsylvania",
      "short_name": "PA",
      "types": [ "administrative_area_level_1", "political" ]
    }, {
      "long_name": "United States",
      "short_name": "US",
      "types": [ "country", "political" ]
    } ],
    "geometry": {
      "location": {
        "lat": 40.4692917,
        "lng": -75.4694285
      },
      "location_type": "APPROXIMATE",
      "viewport": {
        "southwest": {
          "lat": 40.4353292,
          "lng": -75.5334582
        },
        "northeast": {
          "lat": 40.5032371,
          "lng": -75.4053988
        }
      },
      "bounds": {
        "southwest": {
          "lat": 40.4184510,
          "lng": -75.5308589
        },
        "northeast": {
          "lat": 40.5168819,
          "lng": -75.4094779
        }
      }
    }
  } ]
}
