{
  "status": "OK",
  "results": [ {
    "types": [ "administrative_area_level_3", "political" ],
    "formatted_address": "Lower Heidelberg, PA, USA",
    "address_components": [ {
      "long_name": "Lower Heidelberg",
      "short_name": "Lower Heidelberg",
      "types": [ "administrative_area_level_3", "political" ]
    }, {
      "long_name": "Berks",
      "short_name": "Berks",
      "types": [ "administrative_area_level_2", "political" ]
    }, {
      "long_name": "Pennsylvania",
      "short_name": "PA",
      "types": [ "administrative_area_level_1", "political" ]
    }, {
      "long_name": "United States",
      "short_name": "US",
      "types": [ "country", "political" ]
    } ],
    "geometry": {
      "location": {
        "lat": 40.3422739,
        "lng": -76.0507949
      },
      "location_type": "APPROXIMATE",
      "viewport": {
        "southwest": {
          "lat": 40.3082473,
          "lng": -76.1148246
        },
        "northeast": {
          "lat": 40.3762834,
          "lng": -75.9867652
        }
      },
      "bounds": {
        "southwest": {
          "lat": 40.3263050,
          "lng": -76.1205909
        },
        "northeast": {
          "lat": 40.3953179,
          "lng": -75.9929990
        }
      }
    }
  } ]
}
