{
  "status": "OK",
  "results": [ {
    "types": [ "administrative_area_level_3", "political" ],
    "formatted_address": "Lower Makefield, PA, USA",
    "address_components": [ {
      "long_name": "Lower Makefield",
      "short_name": "Lower Makefield",
      "types": [ "administrative_area_level_3", "political" ]
    }, {
      "long_name": "Bucks",
      "short_name": "Bucks",
      "types": [ "administrative_area_level_2", "political" ]
    }, {
      "long_name": "Pennsylvania",
      "short_name": "PA",
      "types": [ "administrative_area_level_1", "political" ]
    }, {
      "long_name": "United States",
      "short_name": "US",
      "types": [ "country", "political" ]
    } ],
    "geometry": {
      "location": {
        "lat": 40.2302142,
        "lng": -74.8624092
      },
      "location_type": "APPROXIMATE",
      "viewport": {
        "southwest": {
          "lat": 40.1961311,
          "lng": -74.9264389
        },
        "northeast": {
          "lat": 40.2642801,
          "lng": -74.7983795
        }
      },
      "bounds": {
        "southwest": {
          "lat": 40.1933260,
          "lng": -74.9138220
        },
        "northeast": {
          "lat": 40.2694800,
          "lng": -74.7812570
        }
      }
    }
  } ]
}
