{
  "status": "OK",
  "results": [ {
    "types": [ "administrative_area_level_3", "political" ],
    "formatted_address": "Mahanoy, PA, USA",
    "address_components": [ {
      "long_name": "Mahanoy",
      "short_name": "Mahanoy",
      "types": [ "administrative_area_level_3", "political" ]
    }, {
      "long_name": "Schuylkill",
      "short_name": "Schuylkill",
      "types": [ "administrative_area_level_2", "political" ]
    }, {
      "long_name": "Pennsylvania",
      "short_name": "PA",
      "types": [ "administrative_area_level_1", "political" ]
    }, {
      "long_name": "United States",
      "short_name": "US",
      "types": [ "country", "political" ]
    } ],
    "geometry": {
      "location": {
        "lat": 40.8322136,
        "lng": -76.1435915
      },
      "location_type": "APPROXIMATE",
      "viewport": {
        "southwest": {
          "lat": 40.7984352,
          "lng": -76.2076212
        },
        "northeast": {
          "lat": 40.8659748,
          "lng": -76.0795618
        }
      },
      "bounds": {
        "southwest": {
          "lat": 40.7809249,
          "lng": -76.2024660
        },
        "northeast": {
          "lat": 40.8639860,
          "lng": -76.0799870
        }
      }
    }
  } ]
}
