{
  "status": "OK",
  "results": [ {
    "types": [ "locality", "political" ],
    "formatted_address": "Mansfield, PA, USA",
    "address_components": [ {
      "long_name": "Mansfield",
      "short_name": "Mansfield",
      "types": [ "locality", "political" ]
    }, {
      "long_name": "Tioga",
      "short_name": "Tioga",
      "types": [ "administrative_area_level_2", "political" ]
    }, {
      "long_name": "Pennsylvania",
      "short_name": "PA",
      "types": [ "administrative_area_level_1", "political" ]
    }, {
      "long_name": "United States",
      "short_name": "US",
      "types": [ "country", "political" ]
    } ],
    "geometry": {
      "location": {
        "lat": 41.8072961,
        "lng": -77.0774680
      },
      "location_type": "APPROXIMATE",
      "viewport": {
        "southwest": {
          "lat": 41.7989785,
          "lng": -77.0934754
        },
        "northeast": {
          "lat": 41.8156126,
          "lng": -77.0614606
        }
      },
      "bounds": {
        "southwest": {
          "lat": 41.7922869,
          "lng": -77.0930949
        },
        "northeast": {
          "lat": 41.8204540,
          "lng": -77.0667340
        }
      }
    }
  } ]
}
