{
  "status": "OK",
  "results": [ {
    "types": [ "locality", "political" ],
    "formatted_address": "Mars, PA 16046, USA",
    "address_components": [ {
      "long_name": "Mars",
      "short_name": "Mars",
      "types": [ "locality", "political" ]
    }, {
      "long_name": "Butler",
      "short_name": "Butler",
      "types": [ "administrative_area_level_2", "political" ]
    }, {
      "long_name": "Pennsylvania",
      "short_name": "PA",
      "types": [ "administrative_area_level_1", "political" ]
    }, {
      "long_name": "United States",
      "short_name": "US",
      "types": [ "country", "political" ]
    }, {
      "long_name": "16046",
      "short_name": "16046",
      "types": [ "postal_code" ]
    } ],
    "geometry": {
      "location": {
        "lat": 40.6958996,
        "lng": -80.0117254
      },
      "location_type": "APPROXIMATE",
      "viewport": {
        "southwest": {
          "lat": 40.6874393,
          "lng": -80.0277328
        },
        "northeast": {
          "lat": 40.7043588,
          "lng": -79.9957180
        }
      },
      "bounds": {
        "southwest": {
          "lat": 40.6913780,
          "lng": -80.0243249
        },
        "northeast": {
          "lat": 40.7023380,
          "lng": -80.0040679
        }
      }
    }
  } ]
}
