{
  "status": "OK",
  "results": [ {
    "types": [ "locality", "political" ],
    "formatted_address": "Mayfield, PA, USA",
    "address_components": [ {
      "long_name": "Mayfield",
      "short_name": "Mayfield",
      "types": [ "locality", "political" ]
    }, {
      "long_name": "Lackawanna",
      "short_name": "Lackawanna",
      "types": [ "administrative_area_level_2", "political" ]
    }, {
      "long_name": "Pennsylvania",
      "short_name": "PA",
      "types": [ "administrative_area_level_1", "political" ]
    }, {
      "long_name": "United States",
      "short_name": "US",
      "types": [ "country", "political" ]
    } ],
    "geometry": {
      "location": {
        "lat": 41.5381373,
        "lng": -75.5360186
      },
      "location_type": "APPROXIMATE",
      "viewport": {
        "southwest": {
          "lat": 41.5214313,
          "lng": -75.5680334
        },
        "northeast": {
          "lat": 41.5548390,
          "lng": -75.5040038
        }
      },
      "bounds": {
        "southwest": {
          "lat": 41.5294809,
          "lng": -75.5574300
        },
        "northeast": {
          "lat": 41.5540809,
          "lng": -75.5005280
        }
      }
    }
  } ]
}
