{
  "status": "OK",
  "results": [ {
    "types": [ "route" ],
    "formatted_address": "Mc Donald St, High Bridge, NJ 08829, USA",
    "address_components": [ {
      "long_name": "Mc Donald St",
      "short_name": "Mc Donald St",
      "types": [ "route" ]
    }, {
      "long_name": "High Bridge",
      "short_name": "High Bridge",
      "types": [ "locality", "political" ]
    }, {
      "long_name": "High Bridge",
      "short_name": "High Bridge",
      "types": [ "administrative_area_level_3", "political" ]
    }, {
      "long_name": "Hunterdon",
      "short_name": "Hunterdon",
      "types": [ "administrative_area_level_2", "political" ]
    }, {
      "long_name": "New Jersey",
      "short_name": "NJ",
      "types": [ "administrative_area_level_1", "political" ]
    }, {
      "long_name": "United States",
      "short_name": "US",
      "types": [ "country", "political" ]
    }, {
      "long_name": "08829",
      "short_name": "08829",
      "types": [ "postal_code" ]
    } ],
    "geometry": {
      "location": {
        "lat": 40.6678975,
        "lng": -74.8948130
      },
      "location_type": "GEOMETRIC_CENTER",
      "viewport": {
        "southwest": {
          "lat": 40.6646564,
          "lng": -74.8979739
        },
        "northeast": {
          "lat": 40.6709516,
          "lng": -74.8916787
        }
      },
      "bounds": {
        "southwest": {
          "lat": 40.6677020,
          "lng": -74.8955840
        },
        "northeast": {
          "lat": 40.6679060,
          "lng": -74.8940686
        }
      }
    },
    "partial_match": true
  } ]
}
