{
  "status": "OK",
  "results": [ {
    "types": [ "locality", "political" ],
    "formatted_address": "Mechanicsburg, PA, USA",
    "address_components": [ {
      "long_name": "Mechanicsburg",
      "short_name": "Mechanicsburg",
      "types": [ "locality", "political" ]
    }, {
      "long_name": "Cumberland",
      "short_name": "Cumberland",
      "types": [ "administrative_area_level_2", "political" ]
    }, {
      "long_name": "Pennsylvania",
      "short_name": "PA",
      "types": [ "administrative_area_level_1", "political" ]
    }, {
      "long_name": "United States",
      "short_name": "US",
      "types": [ "country", "political" ]
    } ],
    "geometry": {
      "location": {
        "lat": 40.2142565,
        "lng": -77.0085876
      },
      "location_type": "APPROXIMATE",
      "viewport": {
        "southwest": {
          "lat": 40.1972131,
          "lng": -77.0406024
        },
        "northeast": {
          "lat": 40.2312956,
          "lng": -76.9765728
        }
      },
      "bounds": {
        "southwest": {
          "lat": 40.1967900,
          "lng": -77.0322889
        },
        "northeast": {
          "lat": 40.2243740,
          "lng": -76.9787329
        }
      }
    }
  } ]
}
