{
  "status": "OK",
  "results": [ {
    "types": [ "locality", "political" ],
    "formatted_address": "Meshoppen, PA, USA",
    "address_components": [ {
      "long_name": "Meshoppen",
      "short_name": "Meshoppen",
      "types": [ "locality", "political" ]
    }, {
      "long_name": "Wyoming",
      "short_name": "Wyoming",
      "types": [ "administrative_area_level_2", "political" ]
    }, {
      "long_name": "Pennsylvania",
      "short_name": "PA",
      "types": [ "administrative_area_level_1", "political" ]
    }, {
      "long_name": "United States",
      "short_name": "US",
      "types": [ "country", "political" ]
    } ],
    "geometry": {
      "location": {
        "lat": 41.6142427,
        "lng": -76.0465918
      },
      "location_type": "APPROXIMATE",
      "viewport": {
        "southwest": {
          "lat": 41.6059001,
          "lng": -76.0625992
        },
        "northeast": {
          "lat": 41.6225842,
          "lng": -76.0305844
        }
      },
      "bounds": {
        "southwest": {
          "lat": 41.6021730,
          "lng": -76.0582460
        },
        "northeast": {
          "lat": 41.6206830,
          "lng": -76.0356240
        }
      }
    }
  } ]
}
