{
  "status": "OK",
  "results": [ {
    "types": [ "locality", "political" ],
    "formatted_address": "Midway, PA, USA",
    "address_components": [ {
      "long_name": "Midway",
      "short_name": "Midway",
      "types": [ "locality", "political" ]
    }, {
      "long_name": "Adams",
      "short_name": "Adams",
      "types": [ "administrative_area_level_2", "political" ]
    }, {
      "long_name": "Pennsylvania",
      "short_name": "PA",
      "types": [ "administrative_area_level_1", "political" ]
    }, {
      "long_name": "United States",
      "short_name": "US",
      "types": [ "country", "political" ]
    } ],
    "geometry": {
      "location": {
        "lat": 39.8084327,
        "lng": -77.0027587
      },
      "location_type": "APPROXIMATE",
      "viewport": {
        "southwest": {
          "lat": 39.7998607,
          "lng": -77.0187661
        },
        "northeast": {
          "lat": 39.8170036,
          "lng": -76.9867513
        }
      },
      "bounds": {
        "southwest": {
          "lat": 39.7935669,
          "lng": -77.0142259
        },
        "northeast": {
          "lat": 39.8120569,
          "lng": -76.9996420
        }
      }
    }
  } ]
}
