{
  "status": "OK",
  "results": [ {
    "types": [ "locality", "political" ],
    "formatted_address": "Mill Hall, PA 17751, USA",
    "address_components": [ {
      "long_name": "Mill Hall",
      "short_name": "Mill Hall",
      "types": [ "locality", "political" ]
    }, {
      "long_name": "Clinton",
      "short_name": "Clinton",
      "types": [ "administrative_area_level_2", "political" ]
    }, {
      "long_name": "Pennsylvania",
      "short_name": "PA",
      "types": [ "administrative_area_level_1", "political" ]
    }, {
      "long_name": "United States",
      "short_name": "US",
      "types": [ "country", "political" ]
    }, {
      "long_name": "17751",
      "short_name": "17751",
      "types": [ "postal_code" ]
    } ],
    "geometry": {
      "location": {
        "lat": 41.1072900,
        "lng": -77.4844300
      },
      "location_type": "APPROXIMATE",
      "viewport": {
        "southwest": {
          "lat": 41.0988821,
          "lng": -77.5004374
        },
        "northeast": {
          "lat": 41.1156968,
          "lng": -77.4684226
        }
      },
      "bounds": {
        "southwest": {
          "lat": 41.0929060,
          "lng": -77.4982380
        },
        "northeast": {
          "lat": 41.1137550,
          "lng": -77.4786379
        }
      }
    }
  } ]
}
