{
  "status": "OK",
  "results": [ {
    "types": [ "administrative_area_level_3", "political" ],
    "formatted_address": "Millcreek, PA, USA",
    "address_components": [ {
      "long_name": "Millcreek",
      "short_name": "Millcreek",
      "types": [ "administrative_area_level_3", "political" ]
    }, {
      "long_name": "Erie",
      "short_name": "Erie",
      "types": [ "administrative_area_level_2", "political" ]
    }, {
      "long_name": "Pennsylvania",
      "short_name": "PA",
      "types": [ "administrative_area_level_1", "political" ]
    }, {
      "long_name": "United States",
      "short_name": "US",
      "types": [ "country", "political" ]
    } ],
    "geometry": {
      "location": {
        "lat": 42.0698822,
        "lng": -80.1651854
      },
      "location_type": "APPROXIMATE",
      "viewport": {
        "southwest": {
          "lat": 42.0035845,
          "lng": -80.2932448
        },
        "northeast": {
          "lat": 42.1361107,
          "lng": -80.0371260
        }
      },
      "bounds": {
        "southwest": {
          "lat": 42.0280400,
          "lng": -80.2118400
        },
        "northeast": {
          "lat": 42.1737070,
          "lng": -79.9901170
        }
      }
    }
  } ]
}
