{
  "status": "OK",
  "results": [ {
    "types": [ "locality", "political" ],
    "formatted_address": "Montoursville, PA, USA",
    "address_components": [ {
      "long_name": "Montoursville",
      "short_name": "Montoursville",
      "types": [ "locality", "political" ]
    }, {
      "long_name": "Lycoming",
      "short_name": "Lycoming",
      "types": [ "administrative_area_level_2", "political" ]
    }, {
      "long_name": "Pennsylvania",
      "short_name": "PA",
      "types": [ "administrative_area_level_1", "political" ]
    }, {
      "long_name": "United States",
      "short_name": "US",
      "types": [ "country", "political" ]
    } ],
    "geometry": {
      "location": {
        "lat": 41.2542459,
        "lng": -76.9205199
      },
      "location_type": "APPROXIMATE",
      "viewport": {
        "southwest": {
          "lat": 41.2374668,
          "lng": -76.9525347
        },
        "northeast": {
          "lat": 41.2710207,
          "lng": -76.8885051
        }
      },
      "bounds": {
        "southwest": {
          "lat": 41.2295180,
          "lng": -76.9435010
        },
        "northeast": {
          "lat": 41.2662720,
          "lng": -76.8985759
        }
      }
    }
  } ]
}
