{
  "status": "OK",
  "results": [ {
    "types": [ "locality", "political" ],
    "formatted_address": "Montgomery, PA, USA",
    "address_components": [ {
      "long_name": "Montgomery",
      "short_name": "Montgomery",
      "types": [ "locality", "political" ]
    }, {
      "long_name": "Lycoming",
      "short_name": "Lycoming",
      "types": [ "administrative_area_level_2", "political" ]
    }, {
      "long_name": "Pennsylvania",
      "short_name": "PA",
      "types": [ "administrative_area_level_1", "political" ]
    }, {
      "long_name": "United States",
      "short_name": "US",
      "types": [ "country", "political" ]
    } ],
    "geometry": {
      "location": {
        "lat": 41.1703592,
        "lng": -76.8769076
      },
      "location_type": "APPROXIMATE",
      "viewport": {
        "southwest": {
          "lat": 41.1619594,
          "lng": -76.8929150
        },
        "northeast": {
          "lat": 41.1787579,
          "lng": -76.8609002
        }
      },
      "bounds": {
        "southwest": {
          "lat": 41.1626390,
          "lng": -76.8871719
        },
        "northeast": {
          "lat": 41.1780390,
          "lng": -76.8596010
        }
      }
    }
  } ]
}
