{
  "status": "OK",
  "results": [ {
    "types": [ "locality", "political" ],
    "formatted_address": "Mt Jewett, PA, USA",
    "address_components": [ {
      "long_name": "Mt Jewett",
      "short_name": "Mt Jewett",
      "types": [ "locality", "political" ]
    }, {
      "long_name": "Mount Jewett",
      "short_name": "Mount Jewett",
      "types": [ "administrative_area_level_3", "political" ]
    }, {
      "long_name": "McKean",
      "short_name": "McKean",
      "types": [ "administrative_area_level_2", "political" ]
    }, {
      "long_name": "Pennsylvania",
      "short_name": "PA",
      "types": [ "administrative_area_level_1", "political" ]
    }, {
      "long_name": "United States",
      "short_name": "US",
      "types": [ "country", "political" ]
    } ],
    "geometry": {
      "location": {
        "lat": 41.7256180,
        "lng": -78.6383591
      },
      "location_type": "APPROXIMATE",
      "viewport": {
        "southwest": {
          "lat": 41.7172898,
          "lng": -78.6543665
        },
        "northeast": {
          "lat": 41.7339451,
          "lng": -78.6223517
        }
      },
      "bounds": {
        "southwest": {
          "lat": 41.7181430,
          "lng": -78.6677200
        },
        "northeast": {
          "lat": 41.7329019,
          "lng": -78.6211270
        }
      }
    }
  } ]
}
