{
  "status": "OK",
  "results": [ {
    "types": [ "locality", "political" ],
    "formatted_address": "Mt Oliver, PA 15210, USA",
    "address_components": [ {
      "long_name": "Mt Oliver",
      "short_name": "Mt Oliver",
      "types": [ "locality", "political" ]
    }, {
      "long_name": "Mount Oliver",
      "short_name": "Mount Oliver",
      "types": [ "administrative_area_level_3", "political" ]
    }, {
      "long_name": "Allegheny",
      "short_name": "Allegheny",
      "types": [ "administrative_area_level_2", "political" ]
    }, {
      "long_name": "Pennsylvania",
      "short_name": "PA",
      "types": [ "administrative_area_level_1", "political" ]
    }, {
      "long_name": "United States",
      "short_name": "US",
      "types": [ "country", "political" ]
    }, {
      "long_name": "15210",
      "short_name": "15210",
      "types": [ "postal_code" ]
    } ],
    "geometry": {
      "location": {
        "lat": 40.4142360,
        "lng": -79.9878304
      },
      "location_type": "APPROXIMATE",
      "viewport": {
        "southwest": {
          "lat": 40.4057400,
          "lng": -80.0038378
        },
        "northeast": {
          "lat": 40.4227309,
          "lng": -79.9718230
        }
      },
      "bounds": {
        "southwest": {
          "lat": 40.4057690,
          "lng": -79.9918740
        },
        "northeast": {
          "lat": 40.4185690,
          "lng": -79.9808740
        }
      }
    }
  } ]
}
