{
  "status": "OK",
  "results": [ {
    "types": [ "locality", "political" ],
    "formatted_address": "Mt Gretna, PA, USA",
    "address_components": [ {
      "long_name": "Mt Gretna",
      "short_name": "Mt Gretna",
      "types": [ "locality", "political" ]
    }, {
      "long_name": "Lebanon",
      "short_name": "Lebanon",
      "types": [ "administrative_area_level_2", "political" ]
    }, {
      "long_name": "Pennsylvania",
      "short_name": "PA",
      "types": [ "administrative_area_level_1", "political" ]
    }, {
      "long_name": "United States",
      "short_name": "US",
      "types": [ "country", "political" ]
    } ],
    "geometry": {
      "location": {
        "lat": 40.2475928,
        "lng": -76.4694104
      },
      "location_type": "APPROXIMATE",
      "viewport": {
        "southwest": {
          "lat": 40.1111926,
          "lng": -76.7255292
        },
        "northeast": {
          "lat": 40.3837187,
          "lng": -76.2132916
        }
      },
      "bounds": {
        "southwest": {
          "lat": 40.1868700,
          "lng": -76.8412210
        },
        "northeast": {
          "lat": 40.2679310,
          "lng": -76.4509000
        }
      }
    }
  } ]
}
