{
  "status": "OK",
  "results": [ {
    "types": [ "locality", "political" ],
    "formatted_address": "Myerstown, PA, USA",
    "address_components": [ {
      "long_name": "Myerstown",
      "short_name": "Myerstown",
      "types": [ "locality", "political" ]
    }, {
      "long_name": "Lebanon",
      "short_name": "Lebanon",
      "types": [ "administrative_area_level_2", "political" ]
    }, {
      "long_name": "Pennsylvania",
      "short_name": "PA",
      "types": [ "administrative_area_level_1", "political" ]
    }, {
      "long_name": "United States",
      "short_name": "US",
      "types": [ "country", "political" ]
    } ],
    "geometry": {
      "location": {
        "lat": 40.3745363,
        "lng": -76.3027318
      },
      "location_type": "APPROXIMATE",
      "viewport": {
        "southwest": {
          "lat": 40.3660353,
          "lng": -76.3187392
        },
        "northeast": {
          "lat": 40.3830362,
          "lng": -76.2867244
        }
      },
      "bounds": {
        "southwest": {
          "lat": 40.3635820,
          "lng": -76.3194450
        },
        "northeast": {
          "lat": 40.3820110,
          "lng": -76.2951410
        }
      }
    }
  } ]
}
