{
  "status": "OK",
  "results": [ {
    "types": [ "locality", "political" ],
    "formatted_address": "Narberth, PA, USA",
    "address_components": [ {
      "long_name": "Narberth",
      "short_name": "Narberth",
      "types": [ "locality", "political" ]
    }, {
      "long_name": "Montgomery",
      "short_name": "Montgomery",
      "types": [ "administrative_area_level_2", "political" ]
    }, {
      "long_name": "Pennsylvania",
      "short_name": "PA",
      "types": [ "administrative_area_level_1", "political" ]
    }, {
      "long_name": "United States",
      "short_name": "US",
      "types": [ "country", "political" ]
    } ],
    "geometry": {
      "location": {
        "lat": 40.0084456,
        "lng": -75.2604600
      },
      "location_type": "APPROXIMATE",
      "viewport": {
        "southwest": {
          "lat": 39.9998986,
          "lng": -75.2764674
        },
        "northeast": {
          "lat": 40.0169915,
          "lng": -75.2444526
        }
      },
      "bounds": {
        "southwest": {
          "lat": 40.0004120,
          "lng": -75.2723269
        },
        "northeast": {
          "lat": 40.0133120,
          "lng": -75.2521259
        }
      }
    }
  } ]
}
