{
  "status": "OK",
  "results": [ {
    "types": [ "locality", "political" ],
    "formatted_address": "Nether Providence Township, PA, USA",
    "address_components": [ {
      "long_name": "Nether Providence Township",
      "short_name": "Nether Providence Township",
      "types": [ "locality", "political" ]
    }, {
      "long_name": "Delaware",
      "short_name": "Delaware",
      "types": [ "administrative_area_level_2", "political" ]
    }, {
      "long_name": "Pennsylvania",
      "short_name": "PA",
      "types": [ "administrative_area_level_1", "political" ]
    }, {
      "long_name": "United States",
      "short_name": "US",
      "types": [ "country", "political" ]
    } ],
    "geometry": {
      "location": {
        "lat": 39.8979330,
        "lng": -75.3681820
      },
      "location_type": "APPROXIMATE",
      "viewport": {
        "southwest": {
          "lat": 39.8808103,
          "lng": -75.4001968
        },
        "northeast": {
          "lat": 39.9150514,
          "lng": -75.3361672
        }
      },
      "bounds": {
        "southwest": {
          "lat": 39.8702119,
          "lng": -75.3915640
        },
        "northeast": {
          "lat": 39.9302530,
          "lng": -75.3501340
        }
      }
    }
  } ]
}
