{
  "status": "OK",
  "results": [ {
    "types": [ "administrative_area_level_3", "political" ],
    "formatted_address": "Neville Township, PA, USA",
    "address_components": [ {
      "long_name": "Neville Township",
      "short_name": "Neville Township",
      "types": [ "administrative_area_level_3", "political" ]
    }, {
      "long_name": "Allegheny",
      "short_name": "Allegheny",
      "types": [ "administrative_area_level_2", "political" ]
    }, {
      "long_name": "Pennsylvania",
      "short_name": "PA",
      "types": [ "administrative_area_level_1", "political" ]
    }, {
      "long_name": "United States",
      "short_name": "US",
      "types": [ "country", "political" ]
    } ],
    "geometry": {
      "location": {
        "lat": 40.5069633,
        "lng": -80.1121493
      },
      "location_type": "APPROXIMATE",
      "viewport": {
        "southwest": {
          "lat": 40.4899937,
          "lng": -80.1441641
        },
        "northeast": {
          "lat": 40.5239286,
          "lng": -80.0801345
        }
      },
      "bounds": {
        "southwest": {
          "lat": 40.4913680,
          "lng": -80.1603799
        },
        "northeast": {
          "lat": 40.5236669,
          "lng": -80.0676770
        }
      }
    }
  } ]
}
