{
  "status": "OK",
  "results": [ {
    "types": [ "locality", "political" ],
    "formatted_address": "New Hope, PA, USA",
    "address_components": [ {
      "long_name": "New Hope",
      "short_name": "New Hope",
      "types": [ "locality", "political" ]
    }, {
      "long_name": "Bucks",
      "short_name": "Bucks",
      "types": [ "administrative_area_level_2", "political" ]
    }, {
      "long_name": "Pennsylvania",
      "short_name": "PA",
      "types": [ "administrative_area_level_1", "political" ]
    }, {
      "long_name": "United States",
      "short_name": "US",
      "types": [ "country", "political" ]
    } ],
    "geometry": {
      "location": {
        "lat": 40.3642728,
        "lng": -74.9512785
      },
      "location_type": "APPROXIMATE",
      "viewport": {
        "southwest": {
          "lat": 40.3557705,
          "lng": -74.9672859
        },
        "northeast": {
          "lat": 40.3727740,
          "lng": -74.9352711
        }
      },
      "bounds": {
        "southwest": {
          "lat": 40.3498860,
          "lng": -74.9687910
        },
        "northeast": {
          "lat": 40.3735030,
          "lng": -74.9453340
        }
      }
    }
  } ]
}
