{
  "status": "OK",
  "results": [ {
    "types": [ "administrative_area_level_3", "political" ],
    "formatted_address": "New Garden Township, PA, USA",
    "address_components": [ {
      "long_name": "New Garden Township",
      "short_name": "New Garden Township",
      "types": [ "administrative_area_level_3", "political" ]
    }, {
      "long_name": "Chester",
      "short_name": "Chester",
      "types": [ "administrative_area_level_2", "political" ]
    }, {
      "long_name": "Pennsylvania",
      "short_name": "PA",
      "types": [ "administrative_area_level_1", "political" ]
    }, {
      "long_name": "United States",
      "short_name": "US",
      "types": [ "country", "political" ]
    } ],
    "geometry": {
      "location": {
        "lat": 39.8023098,
        "lng": -75.7487779
      },
      "location_type": "APPROXIMATE",
      "viewport": {
        "southwest": {
          "lat": 39.7680124,
          "lng": -75.8128076
        },
        "northeast": {
          "lat": 39.8365901,
          "lng": -75.6847482
        }
      },
      "bounds": {
        "southwest": {
          "lat": 39.7556639,
          "lng": -75.7850430
        },
        "northeast": {
          "lat": 39.8544950,
          "lng": -75.7195030
        }
      }
    }
  } ]
}
