{
  "status": "OK",
  "results": [ {
    "types": [ "locality", "political" ],
    "formatted_address": "New Cumberland, PA, USA",
    "address_components": [ {
      "long_name": "New Cumberland",
      "short_name": "New Cumberland",
      "types": [ "locality", "political" ]
    }, {
      "long_name": "Cumberland",
      "short_name": "Cumberland",
      "types": [ "administrative_area_level_2", "political" ]
    }, {
      "long_name": "Pennsylvania",
      "short_name": "PA",
      "types": [ "administrative_area_level_1", "political" ]
    }, {
      "long_name": "United States",
      "short_name": "US",
      "types": [ "country", "political" ]
    } ],
    "geometry": {
      "location": {
        "lat": 40.2323122,
        "lng": -76.8846956
      },
      "location_type": "APPROXIMATE",
      "viewport": {
        "southwest": {
          "lat": 40.2152733,
          "lng": -76.9167104
        },
        "northeast": {
          "lat": 40.2493468,
          "lng": -76.8526808
        }
      },
      "bounds": {
        "southwest": {
          "lat": 40.2157459,
          "lng": -76.8943740
        },
        "northeast": {
          "lat": 40.2457590,
          "lng": -76.8588670
        }
      }
    }
  } ]
}
