{
  "status": "OK",
  "results": [ {
    "types": [ "locality", "political" ],
    "formatted_address": "New Brighton, PA, USA",
    "address_components": [ {
      "long_name": "New Brighton",
      "short_name": "New Brighton",
      "types": [ "locality", "political" ]
    }, {
      "long_name": "Beaver",
      "short_name": "Beaver",
      "types": [ "administrative_area_level_2", "political" ]
    }, {
      "long_name": "Pennsylvania",
      "short_name": "PA",
      "types": [ "administrative_area_level_1", "political" ]
    }, {
      "long_name": "United States",
      "short_name": "US",
      "types": [ "country", "political" ]
    } ],
    "geometry": {
      "location": {
        "lat": 40.7303434,
        "lng": -80.3100627
      },
      "location_type": "APPROXIMATE",
      "viewport": {
        "southwest": {
          "lat": 40.7218875,
          "lng": -80.3260701
        },
        "northeast": {
          "lat": 40.7387983,
          "lng": -80.2940553
        }
      },
      "bounds": {
        "southwest": {
          "lat": 40.7186650,
          "lng": -80.3193850
        },
        "northeast": {
          "lat": 40.7480649,
          "lng": -80.3005840
        }
      }
    }
  } ]
}
