{
  "status": "OK",
  "results": [ {
    "types": [ "administrative_area_level_2", "political" ],
    "formatted_address": "Lawrence, Pennsylvania, USA",
    "address_components": [ {
      "long_name": "Lawrence",
      "short_name": "Lawrence",
      "types": [ "administrative_area_level_2", "political" ]
    }, {
      "long_name": "Pennsylvania",
      "short_name": "PA",
      "types": [ "administrative_area_level_1", "political" ]
    }, {
      "long_name": "United States",
      "short_name": "US",
      "types": [ "country", "political" ]
    } ],
    "geometry": {
      "location": {
        "lat": 40.9578550,
        "lng": -80.3658650
      },
      "location_type": "APPROXIMATE",
      "viewport": {
        "southwest": {
          "lat": 40.8228946,
          "lng": -80.6219838
        },
        "northeast": {
          "lat": 41.0925401,
          "lng": -80.1097462
        }
      },
      "bounds": {
        "southwest": {
          "lat": 40.8513370,
          "lng": -80.5198949
        },
        "northeast": {
          "lat": 41.1279870,
          "lng": -80.0968609
        }
      }
    },
    "partial_match": true
  }, {
    "types": [ "locality", "political" ],
    "formatted_address": "Lawrence, PA, USA",
    "address_components": [ {
      "long_name": "Lawrence",
      "short_name": "Lawrence",
      "types": [ "locality", "political" ]
    }, {
      "long_name": "Cecil",
      "short_name": "Cecil",
      "types": [ "administrative_area_level_3", "political" ]
    }, {
      "long_name": "Washington",
      "short_name": "Washington",
      "types": [ "administrative_area_level_2", "political" ]
    }, {
      "long_name": "Pennsylvania",
      "short_name": "PA",
      "types": [ "administrative_area_level_1", "political" ]
    }, {
      "long_name": "United States",
      "short_name": "US",
      "types": [ "country", "political" ]
    } ],
    "geometry": {
      "location": {
        "lat": 40.3033330,
        "lng": -80.1183330
      },
      "location_type": "APPROXIMATE",
      "viewport": {
        "southwest": {
          "lat": 40.3001854,
          "lng": -80.1214806
        },
        "northeast": {
          "lat": 40.3064806,
          "lng": -80.1151854
        }
      }
    },
    "partial_match": true
  } ]
}
