{
  "status": "OK",
  "results": [ {
    "types": [ "locality", "political" ],
    "formatted_address": "North Charleroi, PA, USA",
    "address_components": [ {
      "long_name": "North Charleroi",
      "short_name": "North Charleroi",
      "types": [ "locality", "political" ]
    }, {
      "long_name": "Washington",
      "short_name": "Washington",
      "types": [ "administrative_area_level_2", "political" ]
    }, {
      "long_name": "Pennsylvania",
      "short_name": "PA",
      "types": [ "administrative_area_level_1", "political" ]
    }, {
      "long_name": "United States",
      "short_name": "US",
      "types": [ "country", "political" ]
    } ],
    "geometry": {
      "location": {
        "lat": 40.1511830,
        "lng": -79.9075484
      },
      "location_type": "APPROXIMATE",
      "viewport": {
        "southwest": {
          "lat": 40.1426539,
          "lng": -79.9235558
        },
        "northeast": {
          "lat": 40.1597110,
          "lng": -79.8915410
        }
      },
      "bounds": {
        "southwest": {
          "lat": 40.1443590,
          "lng": -79.9135620
        },
        "northeast": {
          "lat": 40.1551750,
          "lng": -79.9020740
        }
      }
    }
  } ]
}
