{
  "status": "OK",
  "results": [ {
    "types": [ "point_of_interest", "establishment" ],
    "formatted_address": "Northern School, Dillsburg, PA 17019, USA",
    "address_components": [ {
      "long_name": "Northern School",
      "short_name": "Northern School",
      "types": [ "point_of_interest", "establishment" ]
    }, {
      "long_name": "Dillsburg",
      "short_name": "Dillsburg",
      "types": [ "locality", "political" ]
    }, {
      "long_name": "Franklin",
      "short_name": "Franklin",
      "types": [ "administrative_area_level_3", "political" ]
    }, {
      "long_name": "York",
      "short_name": "York",
      "types": [ "administrative_area_level_2", "political" ]
    }, {
      "long_name": "Pennsylvania",
      "short_name": "PA",
      "types": [ "administrative_area_level_1", "political" ]
    }, {
      "long_name": "United States",
      "short_name": "US",
      "types": [ "country", "political" ]
    }, {
      "long_name": "17019",
      "short_name": "17019",
      "types": [ "postal_code" ]
    } ],
    "geometry": {
      "location": {
        "lat": 40.0970366,
        "lng": -77.0602565
      },
      "location_type": "APPROXIMATE",
      "viewport": {
        "southwest": {
          "lat": 40.0885007,
          "lng": -77.0762639
        },
        "northeast": {
          "lat": 40.1055714,
          "lng": -77.0442491
        }
      }
    },
    "partial_match": true
  }, {
    "types": [ "route" ],
    "formatted_address": "Northern Blvd, Clarks Summit, PA, USA",
    "address_components": [ {
      "long_name": "Northern Blvd",
      "short_name": "Northern Blvd",
      "types": [ "route" ]
    }, {
      "long_name": "Clarks Summit",
      "short_name": "Clarks Summit",
      "types": [ "locality", "political" ]
    }, {
      "long_name": "Lackawanna",
      "short_name": "Lackawanna",
      "types": [ "administrative_area_level_2", "political" ]
    }, {
      "long_name": "Pennsylvania",
      "short_name": "PA",
      "types": [ "administrative_area_level_1", "political" ]
    }, {
      "long_name": "United States",
      "short_name": "US",
      "types": [ "country", "political" ]
    } ],
    "geometry": {
      "location": {
        "lat": 41.4729012,
        "lng": -75.6803363
      },
      "location_type": "GEOMETRIC_CENTER",
      "viewport": {
        "southwest": {
          "lat": 41.4564361,
          "lng": -75.6966328
        },
        "northeast": {
          "lat": 41.4888475,
          "lng": -75.6634341
        }
      },
      "bounds": {
        "southwest": {
          "lat": 41.4564361,
          "lng": -75.6966328
        },
        "northeast": {
          "lat": 41.4888475,
          "lng": -75.6634341
        }
      }
    },
    "partial_match": true
  }, {
    "types": [ "route" ],
    "formatted_address": "Northern Ave, Kittanning, PA 16201, USA",
    "address_components": [ {
      "long_name": "Northern Ave",
      "short_name": "Northern Ave",
      "types": [ "route" ]
    }, {
      "long_name": "Kittanning",
      "short_name": "Kittanning",
      "types": [ "locality", "political" ]
    }, {
      "long_name": "Armstrong",
      "short_name": "Armstrong",
      "types": [ "administrative_area_level_2", "political" ]
    }, {
      "long_name": "Pennsylvania",
      "short_name": "PA",
      "types": [ "administrative_area_level_1", "political" ]
    }, {
      "long_name": "United States",
      "short_name": "US",
      "types": [ "country", "political" ]
    }, {
      "long_name": "16201",
      "short_name": "16201",
      "types": [ "postal_code" ]
    } ],
    "geometry": {
      "location": {
        "lat": 40.8129984,
        "lng": -79.5307856
      },
      "location_type": "GEOMETRIC_CENTER",
      "viewport": {
        "southwest": {
          "lat": 40.8097112,
          "lng": -79.5344808
        },
        "northeast": {
          "lat": 40.8160064,
          "lng": -79.5276912
        }
      },
      "bounds": {
        "southwest": {
          "lat": 40.8119616,
          "lng": -79.5344808
        },
        "northeast": {
          "lat": 40.8137560,
          "lng": -79.5276912
        }
      }
    },
    "partial_match": true
  }, {
    "types": [ "route" ],
    "formatted_address": "Northern Ave, Verona, PA 15147, USA",
    "address_components": [ {
      "long_name": "Northern Ave",
      "short_name": "Northern Ave",
      "types": [ "route" ]
    }, {
      "long_name": "Verona",
      "short_name": "Verona",
      "types": [ "locality", "political" ]
    }, {
      "long_name": "Plum",
      "short_name": "Plum",
      "types": [ "locality", "political" ]
    }, {
      "long_name": "Plum",
      "short_name": "Plum",
      "types": [ "administrative_area_level_3", "political" ]
    }, {
      "long_name": "Allegheny",
      "short_name": "Allegheny",
      "types": [ "administrative_area_level_2", "political" ]
    }, {
      "long_name": "Pennsylvania",
      "short_name": "PA",
      "types": [ "administrative_area_level_1", "political" ]
    }, {
      "long_name": "United States",
      "short_name": "US",
      "types": [ "country", "political" ]
    }, {
      "long_name": "15147",
      "short_name": "15147",
      "types": [ "postal_code" ]
    } ],
    "geometry": {
      "location": {
        "lat": 40.5222634,
        "lng": -79.8134396
      },
      "location_type": "GEOMETRIC_CENTER",
      "viewport": {
        "southwest": {
          "lat": 40.5198768,
          "lng": -79.8166367
        },
        "northeast": {
          "lat": 40.5261721,
          "lng": -79.8103415
        }
      },
      "bounds": {
        "southwest": {
          "lat": 40.5216399,
          "lng": -79.8145399
        },
        "northeast": {
          "lat": 40.5244090,
          "lng": -79.8124383
        }
      }
    },
    "partial_match": true
  }, {
    "types": [ "route" ],
    "formatted_address": "Northern Dr, South Park Township, PA 15129, USA",
    "address_components": [ {
      "long_name": "Northern Dr",
      "short_name": "Northern Dr",
      "types": [ "route" ]
    }, {
      "long_name": "South Park Township",
      "short_name": "South Park Township",
      "types": [ "locality", "political" ]
    }, {
      "long_name": "South Park",
      "short_name": "South Park",
      "types": [ "administrative_area_level_3", "political" ]
    }, {
      "long_name": "Allegheny",
      "short_name": "Allegheny",
      "types": [ "administrative_area_level_2", "political" ]
    }, {
      "long_name": "Pennsylvania",
      "short_name": "PA",
      "types": [ "administrative_area_level_1", "political" ]
    }, {
      "long_name": "United States",
      "short_name": "US",
      "types": [ "country", "political" ]
    }, {
      "long_name": "15129",
      "short_name": "15129",
      "types": [ "postal_code" ]
    } ],
    "geometry": {
      "location": {
        "lat": 40.2819979,
        "lng": -79.9986492
      },
      "location_type": "GEOMETRIC_CENTER",
      "viewport": {
        "southwest": {
          "lat": 40.2784401,
          "lng": -80.0018975
        },
        "northeast": {
          "lat": 40.2847353,
          "lng": -79.9956023
        }
      },
      "bounds": {
        "southwest": {
          "lat": 40.2811720,
          "lng": -80.0006712
        },
        "northeast": {
          "lat": 40.2820034,
          "lng": -79.9968286
        }
      }
    },
    "partial_match": true
  }, {
    "types": [ "route" ],
    "formatted_address": "Northern Pike, Monroeville, PA 15146, USA",
    "address_components": [ {
      "long_name": "Northern Pike",
      "short_name": "Northern Pike",
      "types": [ "route" ]
    }, {
      "long_name": "Monroeville",
      "short_name": "Monroeville",
      "types": [ "locality", "political" ]
    }, {
      "long_name": "Monroeville",
      "short_name": "Monroeville",
      "types": [ "administrative_area_level_3", "political" ]
    }, {
      "long_name": "Allegheny",
      "short_name": "Allegheny",
      "types": [ "administrative_area_level_2", "political" ]
    }, {
      "long_name": "Pennsylvania",
      "short_name": "PA",
      "types": [ "administrative_area_level_1", "political" ]
    }, {
      "long_name": "United States",
      "short_name": "US",
      "types": [ "country", "political" ]
    }, {
      "long_name": "15146",
      "short_name": "15146",
      "types": [ "postal_code" ]
    } ],
    "geometry": {
      "location": {
        "lat": 40.4332829,
        "lng": -79.7602872
      },
      "location_type": "GEOMETRIC_CENTER",
      "viewport": {
        "southwest": {
          "lat": 40.4262060,
          "lng": -79.8129450
        },
        "northeast": {
          "lat": 40.4417886,
          "lng": -79.7233853
        }
      },
      "bounds": {
        "southwest": {
          "lat": 40.4262060,
          "lng": -79.8129450
        },
        "northeast": {
          "lat": 40.4417886,
          "lng": -79.7233853
        }
      }
    },
    "partial_match": true
  }, {
    "types": [ "route" ],
    "formatted_address": "Northern Ave, Nanticoke, PA 18634, USA",
    "address_components": [ {
      "long_name": "Northern Ave",
      "short_name": "Northern Ave",
      "types": [ "route" ]
    }, {
      "long_name": "Nanticoke",
      "short_name": "Nanticoke",
      "types": [ "locality", "political" ]
    }, {
      "long_name": "Newport",
      "short_name": "Newport",
      "types": [ "administrative_area_level_3", "political" ]
    }, {
      "long_name": "Luzerne",
      "short_name": "Luzerne",
      "types": [ "administrative_area_level_2", "political" ]
    }, {
      "long_name": "Pennsylvania",
      "short_name": "PA",
      "types": [ "administrative_area_level_1", "political" ]
    }, {
      "long_name": "United States",
      "short_name": "US",
      "types": [ "country", "political" ]
    }, {
      "long_name": "18634",
      "short_name": "18634",
      "types": [ "postal_code" ]
    } ],
    "geometry": {
      "location": {
        "lat": 41.1923451,
        "lng": -76.0237710
      },
      "location_type": "GEOMETRIC_CENTER",
      "viewport": {
        "southwest": {
          "lat": 41.1893270,
          "lng": -76.0283043
        },
        "northeast": {
          "lat": 41.1956223,
          "lng": -76.0192489
        }
      },
      "bounds": {
        "southwest": {
          "lat": 41.1917220,
          "lng": -76.0283043
        },
        "northeast": {
          "lat": 41.1932273,
          "lng": -76.0192489
        }
      }
    },
    "partial_match": true
  }, {
    "types": [ "route" ],
    "formatted_address": "Northern Way, Pittsburgh, PA 15210, USA",
    "address_components": [ {
      "long_name": "Northern Way",
      "short_name": "Northern Way",
      "types": [ "route" ]
    }, {
      "long_name": "Pittsburgh",
      "short_name": "Pittsburgh",
      "types": [ "locality", "political" ]
    }, {
      "long_name": "Pittsburgh",
      "short_name": "Pittsburgh",
      "types": [ "administrative_area_level_3", "political" ]
    }, {
      "long_name": "Allegheny",
      "short_name": "Allegheny",
      "types": [ "administrative_area_level_2", "political" ]
    }, {
      "long_name": "Pennsylvania",
      "short_name": "PA",
      "types": [ "administrative_area_level_1", "political" ]
    }, {
      "long_name": "United States",
      "short_name": "US",
      "types": [ "country", "political" ]
    }, {
      "long_name": "15210",
      "short_name": "15210",
      "types": [ "postal_code" ]
    } ],
    "geometry": {
      "location": {
        "lat": 40.4039248,
        "lng": -79.9866020
      },
      "location_type": "GEOMETRIC_CENTER",
      "viewport": {
        "southwest": {
          "lat": 40.4010482,
          "lng": -79.9897266
        },
        "northeast": {
          "lat": 40.4073434,
          "lng": -79.9834314
        }
      },
      "bounds": {
        "southwest": {
          "lat": 40.4037301,
          "lng": -79.9891218
        },
        "northeast": {
          "lat": 40.4046615,
          "lng": -79.9840362
        }
      }
    },
    "partial_match": true
  }, {
    "types": [ "route" ],
    "formatted_address": "N Northern Way, York, PA 17402, USA",
    "address_components": [ {
      "long_name": "N Northern Way",
      "short_name": "N Northern Way",
      "types": [ "route" ]
    }, {
      "long_name": "York",
      "short_name": "York",
      "types": [ "locality", "political" ]
    }, {
      "long_name": "Springettsbury",
      "short_name": "Springettsbury",
      "types": [ "administrative_area_level_3", "political" ]
    }, {
      "long_name": "York",
      "short_name": "York",
      "types": [ "administrative_area_level_2", "political" ]
    }, {
      "long_name": "Pennsylvania",
      "short_name": "PA",
      "types": [ "administrative_area_level_1", "political" ]
    }, {
      "long_name": "United States",
      "short_name": "US",
      "types": [ "country", "political" ]
    }, {
      "long_name": "17402",
      "short_name": "17402",
      "types": [ "postal_code" ]
    } ],
    "geometry": {
      "location": {
        "lat": 39.9798546,
        "lng": -76.6749731
      },
      "location_type": "GEOMETRIC_CENTER",
      "viewport": {
        "southwest": {
          "lat": 39.9752792,
          "lng": -76.6763266
        },
        "northeast": {
          "lat": 39.9823585,
          "lng": -76.6700314
        }
      },
      "bounds": {
        "southwest": {
          "lat": 39.9752792,
          "lng": -76.6756910
        },
        "northeast": {
          "lat": 39.9823585,
          "lng": -76.6706670
        }
      }
    },
    "partial_match": true
  }, {
    "types": [ "route" ],
    "formatted_address": "S Northern Way, East York, PA 17402, USA",
    "address_components": [ {
      "long_name": "S Northern Way",
      "short_name": "S Northern Way",
      "types": [ "route" ]
    }, {
      "long_name": "East York",
      "short_name": "East York",
      "types": [ "locality", "political" ]
    }, {
      "long_name": "Springettsbury",
      "short_name": "Springettsbury",
      "types": [ "administrative_area_level_3", "political" ]
    }, {
      "long_name": "York",
      "short_name": "York",
      "types": [ "administrative_area_level_2", "political" ]
    }, {
      "long_name": "Pennsylvania",
      "short_name": "PA",
      "types": [ "administrative_area_level_1", "political" ]
    }, {
      "long_name": "United States",
      "short_name": "US",
      "types": [ "country", "political" ]
    }, {
      "long_name": "17402",
      "short_name": "17402",
      "types": [ "postal_code" ]
    } ],
    "geometry": {
      "location": {
        "lat": 39.9733856,
        "lng": -76.6724508
      },
      "location_type": "GEOMETRIC_CENTER",
      "viewport": {
        "southwest": {
          "lat": 39.9705250,
          "lng": -76.6757576
        },
        "northeast": {
          "lat": 39.9768202,
          "lng": -76.6694623
        }
      },
      "bounds": {
        "southwest": {
          "lat": 39.9720660,
          "lng": -76.6732507
        },
        "northeast": {
          "lat": 39.9752792,
          "lng": -76.6719692
        }
      }
    },
    "partial_match": true
  } ]
}
