{
  "status": "OK",
  "results": [ {
    "types": [ "administrative_area_level_3", "political" ],
    "formatted_address": "Oley Township, PA, USA",
    "address_components": [ {
      "long_name": "Oley Township",
      "short_name": "Oley Township",
      "types": [ "administrative_area_level_3", "political" ]
    }, {
      "long_name": "Berks",
      "short_name": "Berks",
      "types": [ "administrative_area_level_2", "political" ]
    }, {
      "long_name": "Pennsylvania",
      "short_name": "PA",
      "types": [ "administrative_area_level_1", "political" ]
    }, {
      "long_name": "United States",
      "short_name": "US",
      "types": [ "country", "political" ]
    } ],
    "geometry": {
      "location": {
        "lat": 40.3677818,
        "lng": -75.7720328
      },
      "location_type": "APPROXIMATE",
      "viewport": {
        "southwest": {
          "lat": 40.3337680,
          "lng": -75.8360625
        },
        "northeast": {
          "lat": 40.4017784,
          "lng": -75.7080031
        }
      },
      "bounds": {
        "southwest": {
          "lat": 40.3213030,
          "lng": -75.8242600
        },
        "northeast": {
          "lat": 40.4175929,
          "lng": -75.7201329
        }
      }
    }
  } ]
}
