{
  "status": "OK",
  "results": [ {
    "types": [ "locality", "political" ],
    "formatted_address": "Orwigsburg, PA, USA",
    "address_components": [ {
      "long_name": "Orwigsburg",
      "short_name": "Orwigsburg",
      "types": [ "locality", "political" ]
    }, {
      "long_name": "Schuylkill",
      "short_name": "Schuylkill",
      "types": [ "administrative_area_level_2", "political" ]
    }, {
      "long_name": "Pennsylvania",
      "short_name": "PA",
      "types": [ "administrative_area_level_1", "political" ]
    }, {
      "long_name": "United States",
      "short_name": "US",
      "types": [ "country", "political" ]
    } ],
    "geometry": {
      "location": {
        "lat": 40.6548130,
        "lng": -76.1007713
      },
      "location_type": "APPROXIMATE",
      "viewport": {
        "southwest": {
          "lat": 40.6463475,
          "lng": -76.1167787
        },
        "northeast": {
          "lat": 40.6632775,
          "lng": -76.0847639
        }
      },
      "bounds": {
        "southwest": {
          "lat": 40.6424729,
          "lng": -76.1244739
        },
        "northeast": {
          "lat": 40.6672970,
          "lng": -76.0849439
        }
      }
    }
  } ]
}
