{
  "status": "OK",
  "results": [ {
    "types": [ "locality", "political" ],
    "formatted_address": "Parker, PA, USA",
    "address_components": [ {
      "long_name": "Parker",
      "short_name": "Parker",
      "types": [ "locality", "political" ]
    }, {
      "long_name": "Armstrong",
      "short_name": "Armstrong",
      "types": [ "administrative_area_level_2", "political" ]
    }, {
      "long_name": "Pennsylvania",
      "short_name": "PA",
      "types": [ "administrative_area_level_1", "political" ]
    }, {
      "long_name": "United States",
      "short_name": "US",
      "types": [ "country", "political" ]
    } ],
    "geometry": {
      "location": {
        "lat": 41.0958957,
        "lng": -79.6825489
      },
      "location_type": "APPROXIMATE",
      "viewport": {
        "southwest": {
          "lat": 41.0874864,
          "lng": -79.6985563
        },
        "northeast": {
          "lat": 41.1043039,
          "lng": -79.6665415
        }
      },
      "bounds": {
        "southwest": {
          "lat": 41.0785170,
          "lng": -79.6902719
        },
        "northeast": {
          "lat": 41.1072269,
          "lng": -79.6744580
        }
      }
    }
  } ]
}
