{
  "status": "OK",
  "results": [ {
    "types": [ "locality", "political" ],
    "formatted_address": "Parkesburg, PA, USA",
    "address_components": [ {
      "long_name": "Parkesburg",
      "short_name": "Parkesburg",
      "types": [ "locality", "political" ]
    }, {
      "long_name": "Chester",
      "short_name": "Chester",
      "types": [ "administrative_area_level_2", "political" ]
    }, {
      "long_name": "Pennsylvania",
      "short_name": "PA",
      "types": [ "administrative_area_level_1", "political" ]
    }, {
      "long_name": "United States",
      "short_name": "US",
      "types": [ "country", "political" ]
    } ],
    "geometry": {
      "location": {
        "lat": 39.9587160,
        "lng": -75.9193928
      },
      "location_type": "APPROXIMATE",
      "viewport": {
        "southwest": {
          "lat": 39.9501628,
          "lng": -75.9354002
        },
        "northeast": {
          "lat": 39.9672681,
          "lng": -75.9033854
        }
      },
      "bounds": {
        "southwest": {
          "lat": 39.9492560,
          "lng": -75.9337500
        },
        "northeast": {
          "lat": 39.9691780,
          "lng": -75.9040490
        }
      }
    }
  } ]
}
