{
  "status": "OK",
  "results": [ {
    "types": [ "locality", "political" ],
    "formatted_address": "Pleasant Hills, PA, USA",
    "address_components": [ {
      "long_name": "Pleasant Hills",
      "short_name": "Pleasant Hills",
      "types": [ "locality", "political" ]
    }, {
      "long_name": "Allegheny",
      "short_name": "Allegheny",
      "types": [ "administrative_area_level_2", "political" ]
    }, {
      "long_name": "Pennsylvania",
      "short_name": "PA",
      "types": [ "administrative_area_level_1", "political" ]
    }, {
      "long_name": "United States",
      "short_name": "US",
      "types": [ "country", "political" ]
    } ],
    "geometry": {
      "location": {
        "lat": 40.3356252,
        "lng": -79.9606066
      },
      "location_type": "APPROXIMATE",
      "viewport": {
        "southwest": {
          "lat": 40.3186123,
          "lng": -79.9926214
        },
        "northeast": {
          "lat": 40.3526338,
          "lng": -79.9285918
        }
      },
      "bounds": {
        "southwest": {
          "lat": 40.3167690,
          "lng": -79.9856729
        },
        "northeast": {
          "lat": 40.3446689,
          "lng": -79.9372719
        }
      }
    }
  } ]
}
