{
  "status": "OK",
  "results": [ {
    "types": [ "locality", "political" ],
    "formatted_address": "Radnor, PA, USA",
    "address_components": [ {
      "long_name": "Radnor",
      "short_name": "Radnor",
      "types": [ "locality", "political" ]
    }, {
      "long_name": "Delaware",
      "short_name": "Delaware",
      "types": [ "administrative_area_level_2", "political" ]
    }, {
      "long_name": "Pennsylvania",
      "short_name": "PA",
      "types": [ "administrative_area_level_1", "political" ]
    }, {
      "long_name": "United States",
      "short_name": "US",
      "types": [ "country", "political" ]
    } ],
    "geometry": {
      "location": {
        "lat": 40.0462208,
        "lng": -75.3599105
      },
      "location_type": "APPROXIMATE",
      "viewport": {
        "southwest": {
          "lat": 39.9778527,
          "lng": -75.4879699
        },
        "northeast": {
          "lat": 40.1145204,
          "lng": -75.2318511
        }
      },
      "bounds": {
        "southwest": {
          "lat": 39.9446795,
          "lng": -75.5241100
        },
        "northeast": {
          "lat": 40.1475291,
          "lng": -75.3056489
        }
      }
    }
  } ]
}
