{
  "status": "OK",
  "results": [ {
    "types": [ "administrative_area_level_3", "political" ],
    "formatted_address": "Redstone Township, PA, USA",
    "address_components": [ {
      "long_name": "Redstone Township",
      "short_name": "Redstone Township",
      "types": [ "administrative_area_level_3", "political" ]
    }, {
      "long_name": "Fayette",
      "short_name": "Fayette",
      "types": [ "administrative_area_level_2", "political" ]
    }, {
      "long_name": "Pennsylvania",
      "short_name": "PA",
      "types": [ "administrative_area_level_1", "political" ]
    }, {
      "long_name": "United States",
      "short_name": "US",
      "types": [ "country", "political" ]
    } ],
    "geometry": {
      "location": {
        "lat": 39.9747101,
        "lng": -79.8408787
      },
      "location_type": "APPROXIMATE",
      "viewport": {
        "southwest": {
          "lat": 39.9404988,
          "lng": -79.9049084
        },
        "northeast": {
          "lat": 40.0089043,
          "lng": -79.7768490
        }
      },
      "bounds": {
        "southwest": {
          "lat": 39.9291629,
          "lng": -79.9015929
        },
        "northeast": {
          "lat": 40.0298979,
          "lng": -79.7870530
        }
      }
    }
  } ]
}
