{
  "status": "OK",
  "results": [ {
    "types": [ "administrative_area_level_3", "political" ],
    "formatted_address": "Ross, PA, USA",
    "address_components": [ {
      "long_name": "Ross",
      "short_name": "Ross",
      "types": [ "administrative_area_level_3", "political" ]
    }, {
      "long_name": "Monroe",
      "short_name": "Monroe",
      "types": [ "administrative_area_level_2", "political" ]
    }, {
      "long_name": "Pennsylvania",
      "short_name": "PA",
      "types": [ "administrative_area_level_1", "political" ]
    }, {
      "long_name": "United States",
      "short_name": "US",
      "types": [ "country", "political" ]
    } ],
    "geometry": {
      "location": {
        "lat": 40.8716609,
        "lng": -75.3528779
      },
      "location_type": "APPROXIMATE",
      "viewport": {
        "southwest": {
          "lat": 40.8379026,
          "lng": -75.4169076
        },
        "northeast": {
          "lat": 40.9054020,
          "lng": -75.2888482
        }
      },
      "bounds": {
        "southwest": {
          "lat": 40.8325240,
          "lng": -75.4262490
        },
        "northeast": {
          "lat": 40.9177649,
          "lng": -75.2948859
        }
      }
    }
  } ]
}
