{
  "status": "OK",
  "results": [ {
    "types": [ "administrative_area_level_3", "political" ],
    "formatted_address": "Sadsbury Township, PA, USA",
    "address_components": [ {
      "long_name": "Sadsbury Township",
      "short_name": "Sadsbury Township",
      "types": [ "administrative_area_level_3", "political" ]
    }, {
      "long_name": "Chester",
      "short_name": "Chester",
      "types": [ "administrative_area_level_2", "political" ]
    }, {
      "long_name": "Pennsylvania",
      "short_name": "PA",
      "types": [ "administrative_area_level_1", "political" ]
    }, {
      "long_name": "United States",
      "short_name": "US",
      "types": [ "country", "political" ]
    } ],
    "geometry": {
      "location": {
        "lat": 39.9780490,
        "lng": -75.9056753
      },
      "location_type": "APPROXIMATE",
      "viewport": {
        "southwest": {
          "lat": 39.9609463,
          "lng": -75.9376901
        },
        "northeast": {
          "lat": 39.9951474,
          "lng": -75.8736605
        }
      },
      "bounds": {
        "southwest": {
          "lat": 39.9552170,
          "lng": -75.9380180
        },
        "northeast": {
          "lat": 40.0076520,
          "lng": -75.8781700
        }
      }
    }
  } ]
}
