{
  "status": "OK",
  "results": [ {
    "types": [ "locality", "political" ],
    "formatted_address": "Saltsburg, PA, USA",
    "address_components": [ {
      "long_name": "Saltsburg",
      "short_name": "Saltsburg",
      "types": [ "locality", "political" ]
    }, {
      "long_name": "Indiana",
      "short_name": "Indiana",
      "types": [ "administrative_area_level_2", "political" ]
    }, {
      "long_name": "Pennsylvania",
      "short_name": "PA",
      "types": [ "administrative_area_level_1", "political" ]
    }, {
      "long_name": "United States",
      "short_name": "US",
      "types": [ "country", "political" ]
    } ],
    "geometry": {
      "location": {
        "lat": 40.4864553,
        "lng": -79.4514298
      },
      "location_type": "APPROXIMATE",
      "viewport": {
        "southwest": {
          "lat": 40.4779684,
          "lng": -79.4674372
        },
        "northeast": {
          "lat": 40.4949411,
          "lng": -79.4354224
        }
      },
      "bounds": {
        "southwest": {
          "lat": 40.4808109,
          "lng": -79.4540110
        },
        "northeast": {
          "lat": 40.4890029,
          "lng": -79.4409429
        }
      }
    }
  } ]
}
