{
  "status": "OK",
  "results": [ {
    "types": [ "locality", "political" ],
    "formatted_address": "Sandy, PA, USA",
    "address_components": [ {
      "long_name": "Sandy",
      "short_name": "Sandy",
      "types": [ "locality", "political" ]
    }, {
      "long_name": "Clearfield",
      "short_name": "Clearfield",
      "types": [ "administrative_area_level_2", "political" ]
    }, {
      "long_name": "Pennsylvania",
      "short_name": "PA",
      "types": [ "administrative_area_level_1", "political" ]
    }, {
      "long_name": "United States",
      "short_name": "US",
      "types": [ "country", "political" ]
    } ],
    "geometry": {
      "location": {
        "lat": 41.1078394,
        "lng": -78.7711411
      },
      "location_type": "APPROXIMATE",
      "viewport": {
        "southwest": {
          "lat": 41.0994316,
          "lng": -78.7871485
        },
        "northeast": {
          "lat": 41.1162461,
          "lng": -78.7551337
        }
      },
      "bounds": {
        "southwest": {
          "lat": 41.0952190,
          "lng": -78.7939909
        },
        "northeast": {
          "lat": 41.1180060,
          "lng": -78.7595290
        }
      }
    }
  } ]
}
