{
  "status": "OK",
  "results": [ {
    "types": [ "locality", "political" ],
    "formatted_address": "Schuylkill Haven, PA, USA",
    "address_components": [ {
      "long_name": "Schuylkill Haven",
      "short_name": "Schuylkill Haven",
      "types": [ "locality", "political" ]
    }, {
      "long_name": "Schuylkill",
      "short_name": "Schuylkill",
      "types": [ "administrative_area_level_2", "political" ]
    }, {
      "long_name": "Pennsylvania",
      "short_name": "PA",
      "types": [ "administrative_area_level_1", "political" ]
    }, {
      "long_name": "United States",
      "short_name": "US",
      "types": [ "country", "political" ]
    } ],
    "geometry": {
      "location": {
        "lat": 40.6306464,
        "lng": -76.1710540
      },
      "location_type": "APPROXIMATE",
      "viewport": {
        "southwest": {
          "lat": 40.6221778,
          "lng": -76.1870614
        },
        "northeast": {
          "lat": 40.6391139,
          "lng": -76.1550466
        }
      },
      "bounds": {
        "southwest": {
          "lat": 40.6155989,
          "lng": -76.1850829
        },
        "northeast": {
          "lat": 40.6433810,
          "lng": -76.1566890
        }
      }
    }
  } ]
}
