{
  "status": "OK",
  "results": [ {
    "types": [ "locality", "political" ],
    "formatted_address": "Sharpsville, PA, USA",
    "address_components": [ {
      "long_name": "Sharpsville",
      "short_name": "Sharpsville",
      "types": [ "locality", "political" ]
    }, {
      "long_name": "Mercer",
      "short_name": "Mercer",
      "types": [ "administrative_area_level_2", "political" ]
    }, {
      "long_name": "Pennsylvania",
      "short_name": "PA",
      "types": [ "administrative_area_level_1", "political" ]
    }, {
      "long_name": "United States",
      "short_name": "US",
      "types": [ "country", "political" ]
    } ],
    "geometry": {
      "location": {
        "lat": 41.2592225,
        "lng": -80.4720141
      },
      "location_type": "APPROXIMATE",
      "viewport": {
        "southwest": {
          "lat": 41.2424447,
          "lng": -80.5040289
        },
        "northeast": {
          "lat": 41.2759960,
          "lng": -80.4399993
        }
      },
      "bounds": {
        "southwest": {
          "lat": 41.2496550,
          "lng": -80.4993920
        },
        "northeast": {
          "lat": 41.2718409,
          "lng": -80.4676099
        }
      }
    }
  } ]
}
