{
  "status": "OK",
  "results": [ {
    "types": [ "administrative_area_level_3", "political" ],
    "formatted_address": "Shohola Township, PA, USA",
    "address_components": [ {
      "long_name": "Shohola Township",
      "short_name": "Shohola Township",
      "types": [ "administrative_area_level_3", "political" ]
    }, {
      "long_name": "Pike",
      "short_name": "Pike",
      "types": [ "administrative_area_level_2", "political" ]
    }, {
      "long_name": "Pennsylvania",
      "short_name": "PA",
      "types": [ "administrative_area_level_1", "political" ]
    }, {
      "long_name": "United States",
      "short_name": "US",
      "types": [ "country", "political" ]
    } ],
    "geometry": {
      "location": {
        "lat": 41.4124421,
        "lng": -74.8974925
      },
      "location_type": "APPROXIMATE",
      "viewport": {
        "southwest": {
          "lat": 41.3454626,
          "lng": -75.0255519
        },
        "northeast": {
          "lat": 41.4793526,
          "lng": -74.7694331
        }
      },
      "bounds": {
        "southwest": {
          "lat": 41.3609079,
          "lng": -74.9906130
        },
        "northeast": {
          "lat": 41.4835740,
          "lng": -74.8047969
        }
      }
    }
  } ]
}
