{
  "status": "OK",
  "results": [ {
    "types": [ "locality", "political" ],
    "formatted_address": "Sinking Spring, PA 19608, USA",
    "address_components": [ {
      "long_name": "Sinking Spring",
      "short_name": "Sinking Spring",
      "types": [ "locality", "political" ]
    }, {
      "long_name": "Berks",
      "short_name": "Berks",
      "types": [ "administrative_area_level_2", "political" ]
    }, {
      "long_name": "Pennsylvania",
      "short_name": "PA",
      "types": [ "administrative_area_level_1", "political" ]
    }, {
      "long_name": "United States",
      "short_name": "US",
      "types": [ "country", "political" ]
    }, {
      "long_name": "19608",
      "short_name": "19608",
      "types": [ "postal_code" ]
    } ],
    "geometry": {
      "location": {
        "lat": 40.3273146,
        "lng": -76.0110489
      },
      "location_type": "APPROXIMATE",
      "viewport": {
        "southwest": {
          "lat": 40.3188077,
          "lng": -76.0270563
        },
        "northeast": {
          "lat": 40.3358205,
          "lng": -75.9950415
        }
      },
      "bounds": {
        "southwest": {
          "lat": 40.3149249,
          "lng": -76.0372100
        },
        "northeast": {
          "lat": 40.3354250,
          "lng": -76.0066279
        }
      }
    }
  } ]
}
