{
  "status": "OK",
  "results": [ {
    "types": [ "administrative_area_level_3", "political" ],
    "formatted_address": "Smith Township, PA, USA",
    "address_components": [ {
      "long_name": "Smith Township",
      "short_name": "Smith Township",
      "types": [ "administrative_area_level_3", "political" ]
    }, {
      "long_name": "Washington",
      "short_name": "Washington",
      "types": [ "administrative_area_level_2", "political" ]
    }, {
      "long_name": "Pennsylvania",
      "short_name": "PA",
      "types": [ "administrative_area_level_1", "political" ]
    }, {
      "long_name": "United States",
      "short_name": "US",
      "types": [ "country", "political" ]
    } ],
    "geometry": {
      "location": {
        "lat": 40.3837683,
        "lng": -80.3547286
      },
      "location_type": "APPROXIMATE",
      "viewport": {
        "southwest": {
          "lat": 40.3157397,
          "lng": -80.4827880
        },
        "northeast": {
          "lat": 40.4517283,
          "lng": -80.2266692
        }
      },
      "bounds": {
        "southwest": {
          "lat": 40.3085960,
          "lng": -80.4350269
        },
        "northeast": {
          "lat": 40.4296200,
          "lng": -80.2796080
        }
      }
    }
  } ]
}
