{
  "status": "OK",
  "results": [ {
    "types": [ "administrative_area_level_3", "political" ],
    "formatted_address": "Solebury Township, PA, USA",
    "address_components": [ {
      "long_name": "Solebury Township",
      "short_name": "Solebury Township",
      "types": [ "administrative_area_level_3", "political" ]
    }, {
      "long_name": "Bucks",
      "short_name": "Bucks",
      "types": [ "administrative_area_level_2", "political" ]
    }, {
      "long_name": "Pennsylvania",
      "short_name": "PA",
      "types": [ "administrative_area_level_1", "political" ]
    }, {
      "long_name": "United States",
      "short_name": "US",
      "types": [ "country", "political" ]
    } ],
    "geometry": {
      "location": {
        "lat": 40.3686760,
        "lng": -75.0026972
      },
      "location_type": "APPROXIMATE",
      "viewport": {
        "southwest": {
          "lat": 40.3346627,
          "lng": -75.0667269
        },
        "northeast": {
          "lat": 40.4026722,
          "lng": -74.9386675
        }
      },
      "bounds": {
        "southwest": {
          "lat": 40.3185590,
          "lng": -75.0805470
        },
        "northeast": {
          "lat": 40.4104139,
          "lng": -74.9262920
        }
      }
    }
  } ]
}
