{
  "status": "OK",
  "results": [ {
    "types": [ "administrative_area_level_3", "political" ],
    "formatted_address": "South Strabane Township, PA, USA",
    "address_components": [ {
      "long_name": "South Strabane Township",
      "short_name": "South Strabane Township",
      "types": [ "administrative_area_level_3", "political" ]
    }, {
      "long_name": "Washington",
      "short_name": "Washington",
      "types": [ "administrative_area_level_2", "political" ]
    }, {
      "long_name": "Pennsylvania",
      "short_name": "PA",
      "types": [ "administrative_area_level_1", "political" ]
    }, {
      "long_name": "United States",
      "short_name": "US",
      "types": [ "country", "political" ]
    } ],
    "geometry": {
      "location": {
        "lat": 40.1681457,
        "lng": -80.1986649
      },
      "location_type": "APPROXIMATE",
      "viewport": {
        "southwest": {
          "lat": 40.1340314,
          "lng": -80.2626946
        },
        "northeast": {
          "lat": 40.2022429,
          "lng": -80.1346352
        }
      },
      "bounds": {
        "southwest": {
          "lat": 40.1259910,
          "lng": -80.2657660
        },
        "northeast": {
          "lat": 40.2235580,
          "lng": -80.1302740
        }
      }
    }
  } ]
}
