{
  "status": "OK",
  "results": [ {
    "types": [ "point_of_interest", "establishment" ],
    "formatted_address": "Southwestern School, Doylestown, PA 18902, USA",
    "address_components": [ {
      "long_name": "Southwestern School",
      "short_name": "Southwestern School",
      "types": [ "point_of_interest", "establishment" ]
    }, {
      "long_name": "Doylestown",
      "short_name": "Doylestown",
      "types": [ "locality", "political" ]
    }, {
      "long_name": "Plumstead",
      "short_name": "Plumstead",
      "types": [ "administrative_area_level_3", "political" ]
    }, {
      "long_name": "Bucks",
      "short_name": "Bucks",
      "types": [ "administrative_area_level_2", "political" ]
    }, {
      "long_name": "Pennsylvania",
      "short_name": "PA",
      "types": [ "administrative_area_level_1", "political" ]
    }, {
      "long_name": "United States",
      "short_name": "US",
      "types": [ "country", "political" ]
    }, {
      "long_name": "18902",
      "short_name": "18902",
      "types": [ "postal_code" ]
    } ],
    "geometry": {
      "location": {
        "lat": 40.3506610,
        "lng": -75.1448946
      },
      "location_type": "APPROXIMATE",
      "viewport": {
        "southwest": {
          "lat": 40.3421570,
          "lng": -75.1609020
        },
        "northeast": {
          "lat": 40.3591639,
          "lng": -75.1288872
        }
      }
    },
    "partial_match": true
  }, {
    "types": [ "route" ],
    "formatted_address": "Southwestern Rd, Hanover, PA 17331, USA",
    "address_components": [ {
      "long_name": "Southwestern Rd",
      "short_name": "Southwestern Rd",
      "types": [ "route" ]
    }, {
      "long_name": "Hanover",
      "short_name": "Hanover",
      "types": [ "locality", "political" ]
    }, {
      "long_name": "Penn",
      "short_name": "Penn",
      "types": [ "administrative_area_level_3", "political" ]
    }, {
      "long_name": "York",
      "short_name": "York",
      "types": [ "administrative_area_level_2", "political" ]
    }, {
      "long_name": "Pennsylvania",
      "short_name": "PA",
      "types": [ "administrative_area_level_1", "political" ]
    }, {
      "long_name": "United States",
      "short_name": "US",
      "types": [ "country", "political" ]
    }, {
      "long_name": "17331",
      "short_name": "17331",
      "types": [ "postal_code" ]
    } ],
    "geometry": {
      "location": {
        "lat": 39.7863867,
        "lng": -76.9577086
      },
      "location_type": "GEOMETRIC_CENTER",
      "viewport": {
        "southwest": {
          "lat": 39.7830125,
          "lng": -76.9605134
        },
        "northeast": {
          "lat": 39.7893077,
          "lng": -76.9542181
        }
      },
      "bounds": {
        "southwest": {
          "lat": 39.7858449,
          "lng": -76.9597074
        },
        "northeast": {
          "lat": 39.7864753,
          "lng": -76.9550241
        }
      }
    },
    "partial_match": true
  } ]
}
