{
  "status": "OK",
  "results": [ {
    "types": [ "locality", "political" ],
    "formatted_address": "South Waverly, PA, USA",
    "address_components": [ {
      "long_name": "South Waverly",
      "short_name": "South Waverly",
      "types": [ "locality", "political" ]
    }, {
      "long_name": "Bradford",
      "short_name": "Bradford",
      "types": [ "administrative_area_level_2", "political" ]
    }, {
      "long_name": "Pennsylvania",
      "short_name": "PA",
      "types": [ "administrative_area_level_1", "political" ]
    }, {
      "long_name": "United States",
      "short_name": "US",
      "types": [ "country", "political" ]
    } ],
    "geometry": {
      "location": {
        "lat": 41.9975741,
        "lng": -76.5371665
      },
      "location_type": "APPROXIMATE",
      "viewport": {
        "southwest": {
          "lat": 41.9892812,
          "lng": -76.5531739
        },
        "northeast": {
          "lat": 42.0058659,
          "lng": -76.5211591
        }
      },
      "bounds": {
        "southwest": {
          "lat": 41.9907929,
          "lng": -76.5590400
        },
        "northeast": {
          "lat": 42.0001600,
          "lng": -76.5286990
        }
      }
    }
  } ]
}
