{
  "status": "OK",
  "results": [ {
    "types": [ "locality", "political" ],
    "formatted_address": "Southwest Greensburg, PA 15601, USA",
    "address_components": [ {
      "long_name": "Southwest Greensburg",
      "short_name": "Southwest Greensburg",
      "types": [ "locality", "political" ]
    }, {
      "long_name": "Westmoreland",
      "short_name": "Westmoreland",
      "types": [ "administrative_area_level_2", "political" ]
    }, {
      "long_name": "Pennsylvania",
      "short_name": "PA",
      "types": [ "administrative_area_level_1", "political" ]
    }, {
      "long_name": "United States",
      "short_name": "US",
      "types": [ "country", "political" ]
    }, {
      "long_name": "15601",
      "short_name": "15601",
      "types": [ "postal_code" ]
    } ],
    "geometry": {
      "location": {
        "lat": 40.2911805,
        "lng": -79.5469844
      },
      "location_type": "APPROXIMATE",
      "viewport": {
        "southwest": {
          "lat": 40.2826690,
          "lng": -79.5629918
        },
        "northeast": {
          "lat": 40.2996909,
          "lng": -79.5309770
        }
      },
      "bounds": {
        "southwest": {
          "lat": 40.2833810,
          "lng": -79.5554580
        },
        "northeast": {
          "lat": 40.2987250,
          "lng": -79.5423060
        }
      }
    }
  } ]
}
