{
  "status": "OK",
  "results": [ {
    "types": [ "locality", "political" ],
    "formatted_address": "Steelton, PA, USA",
    "address_components": [ {
      "long_name": "Steelton",
      "short_name": "Steelton",
      "types": [ "locality", "political" ]
    }, {
      "long_name": "Dauphin",
      "short_name": "Dauphin",
      "types": [ "administrative_area_level_2", "political" ]
    }, {
      "long_name": "Pennsylvania",
      "short_name": "PA",
      "types": [ "administrative_area_level_1", "political" ]
    }, {
      "long_name": "United States",
      "short_name": "US",
      "types": [ "country", "political" ]
    } ],
    "geometry": {
      "location": {
        "lat": 40.2353679,
        "lng": -76.8413613
      },
      "location_type": "APPROXIMATE",
      "viewport": {
        "southwest": {
          "lat": 40.2183298,
          "lng": -76.8733761
        },
        "northeast": {
          "lat": 40.2524017,
          "lng": -76.8093465
        }
      },
      "bounds": {
        "southwest": {
          "lat": 40.2087910,
          "lng": -76.8535940
        },
        "northeast": {
          "lat": 40.2434889,
          "lng": -76.7956930
        }
      }
    }
  } ]
}
