{
  "status": "OK",
  "results": [ {
    "types": [ "locality", "political" ],
    "formatted_address": "Stoneboro, PA, USA",
    "address_components": [ {
      "long_name": "Stoneboro",
      "short_name": "Stoneboro",
      "types": [ "locality", "political" ]
    }, {
      "long_name": "Mercer",
      "short_name": "Mercer",
      "types": [ "administrative_area_level_2", "political" ]
    }, {
      "long_name": "Pennsylvania",
      "short_name": "PA",
      "types": [ "administrative_area_level_1", "political" ]
    }, {
      "long_name": "United States",
      "short_name": "US",
      "types": [ "country", "political" ]
    } ],
    "geometry": {
      "location": {
        "lat": 41.3392232,
        "lng": -80.1050604
      },
      "location_type": "APPROXIMATE",
      "viewport": {
        "southwest": {
          "lat": 41.3224659,
          "lng": -80.1370752
        },
        "northeast": {
          "lat": 41.3559762,
          "lng": -80.0730456
        }
      },
      "bounds": {
        "southwest": {
          "lat": 41.3204459,
          "lng": -80.1293539
        },
        "northeast": {
          "lat": 41.3486390,
          "lng": -80.0947870
        }
      }
    }
  } ]
}
