{
  "status": "OK",
  "results": [ {
    "types": [ "locality", "political" ],
    "formatted_address": "Summerhill, PA, USA",
    "address_components": [ {
      "long_name": "Summerhill",
      "short_name": "Summerhill",
      "types": [ "locality", "political" ]
    }, {
      "long_name": "Cambria",
      "short_name": "Cambria",
      "types": [ "administrative_area_level_2", "political" ]
    }, {
      "long_name": "Pennsylvania",
      "short_name": "PA",
      "types": [ "administrative_area_level_1", "political" ]
    }, {
      "long_name": "United States",
      "short_name": "US",
      "types": [ "country", "political" ]
    } ],
    "geometry": {
      "location": {
        "lat": 40.3781296,
        "lng": -78.7605764
      },
      "location_type": "APPROXIMATE",
      "viewport": {
        "southwest": {
          "lat": 40.3696291,
          "lng": -78.7765838
        },
        "northeast": {
          "lat": 40.3866291,
          "lng": -78.7445690
        }
      },
      "bounds": {
        "southwest": {
          "lat": 40.3710610,
          "lng": -78.7689840
        },
        "northeast": {
          "lat": 40.3809630,
          "lng": -78.7534189
        }
      }
    }
  } ]
}
