{
  "status": "OK",
  "results": [ {
    "types": [ "political" ],
    "formatted_address": "Forest City Regional School District, Pennsylvania, USA",
    "address_components": [ {
      "long_name": "Forest City Regional School District",
      "short_name": "Forest City Regional School District",
      "types": [ "political" ]
    }, {
      "long_name": "Pennsylvania",
      "short_name": "PA",
      "types": [ "administrative_area_level_1", "political" ]
    }, {
      "long_name": "United States",
      "short_name": "US",
      "types": [ "country", "political" ]
    } ],
    "geometry": {
      "location": {
        "lat": 41.7311191,
        "lng": -75.3878525
      },
      "location_type": "APPROXIMATE",
      "viewport": {
        "southwest": {
          "lat": 41.6644690,
          "lng": -75.5159119
        },
        "northeast": {
          "lat": 41.7977001,
          "lng": -75.2597931
        }
      },
      "bounds": {
        "southwest": {
          "lat": 41.6159680,
          "lng": -75.5772140
        },
        "northeast": {
          "lat": 41.7978480,
          "lng": -75.3125360
        }
      }
    },
    "partial_match": true
  }, {
    "types": [ "route" ],
    "formatted_address": "Susquehanna St, Forest City, PA 18421, USA",
    "address_components": [ {
      "long_name": "Susquehanna St",
      "short_name": "Susquehanna St",
      "types": [ "route" ]
    }, {
      "long_name": "Forest City",
      "short_name": "Forest City",
      "types": [ "locality", "political" ]
    }, {
      "long_name": "Forest City",
      "short_name": "Forest City",
      "types": [ "administrative_area_level_3", "political" ]
    }, {
      "long_name": "Susquehanna",
      "short_name": "Susquehanna",
      "types": [ "administrative_area_level_2", "political" ]
    }, {
      "long_name": "Pennsylvania",
      "short_name": "PA",
      "types": [ "administrative_area_level_1", "political" ]
    }, {
      "long_name": "United States",
      "short_name": "US",
      "types": [ "country", "political" ]
    }, {
      "long_name": "18421",
      "short_name": "18421",
      "types": [ "postal_code" ]
    } ],
    "geometry": {
      "location": {
        "lat": 41.6520012,
        "lng": -75.4699047
      },
      "location_type": "GEOMETRIC_CENTER",
      "viewport": {
        "southwest": {
          "lat": 41.6442909,
          "lng": -75.4744436
        },
        "northeast": {
          "lat": 41.6598519,
          "lng": -75.4681483
        }
      },
      "bounds": {
        "southwest": {
          "lat": 41.6442909,
          "lng": -75.4730300
        },
        "northeast": {
          "lat": 41.6598519,
          "lng": -75.4695619
        }
      }
    },
    "partial_match": true
  } ]
}
