{
  "status": "OK",
  "results": [ {
    "types": [ "locality", "political" ],
    "formatted_address": "Tidioute, PA, USA",
    "address_components": [ {
      "long_name": "Tidioute",
      "short_name": "Tidioute",
      "types": [ "locality", "political" ]
    }, {
      "long_name": "Warren",
      "short_name": "Warren",
      "types": [ "administrative_area_level_2", "political" ]
    }, {
      "long_name": "Pennsylvania",
      "short_name": "PA",
      "types": [ "administrative_area_level_1", "political" ]
    }, {
      "long_name": "United States",
      "short_name": "US",
      "types": [ "country", "political" ]
    } ],
    "geometry": {
      "location": {
        "lat": 41.6850604,
        "lng": -79.4031034
      },
      "location_type": "APPROXIMATE",
      "viewport": {
        "southwest": {
          "lat": 41.6767269,
          "lng": -79.4191108
        },
        "northeast": {
          "lat": 41.6933928,
          "lng": -79.3870960
        }
      },
      "bounds": {
        "southwest": {
          "lat": 41.6772349,
          "lng": -79.4254500
        },
        "northeast": {
          "lat": 41.6919830,
          "lng": -79.3770179
        }
      }
    }
  } ]
}
