{
  "status": "OK",
  "results": [ {
    "types": [ "locality", "political" ],
    "formatted_address": "Tinicum Township, PA, USA",
    "address_components": [ {
      "long_name": "Tinicum Township",
      "short_name": "Tinicum Township",
      "types": [ "locality", "political" ]
    }, {
      "long_name": "Tinicum",
      "short_name": "Tinicum",
      "types": [ "administrative_area_level_3", "political" ]
    }, {
      "long_name": "Delaware",
      "short_name": "Delaware",
      "types": [ "administrative_area_level_2", "political" ]
    }, {
      "long_name": "Pennsylvania",
      "short_name": "PA",
      "types": [ "administrative_area_level_1", "political" ]
    }, {
      "long_name": "United States",
      "short_name": "US",
      "types": [ "country", "political" ]
    } ],
    "geometry": {
      "location": {
        "lat": 39.8649980,
        "lng": -75.2751960
      },
      "location_type": "APPROXIMATE",
      "viewport": {
        "southwest": {
          "lat": 39.8478671,
          "lng": -75.3072108
        },
        "northeast": {
          "lat": 39.8821246,
          "lng": -75.2431812
        }
      },
      "bounds": {
        "southwest": {
          "lat": 39.8487820,
          "lng": -75.3165310
        },
        "northeast": {
          "lat": 39.8814120,
          "lng": -75.2114630
        }
      }
    }
  } ]
}
