{
  "status": "OK",
  "results": [ {
    "types": [ "locality", "political" ],
    "formatted_address": "Towanda, PA, USA",
    "address_components": [ {
      "long_name": "Towanda",
      "short_name": "Towanda",
      "types": [ "locality", "political" ]
    }, {
      "long_name": "Bradford",
      "short_name": "Bradford",
      "types": [ "administrative_area_level_2", "political" ]
    }, {
      "long_name": "Pennsylvania",
      "short_name": "PA",
      "types": [ "administrative_area_level_1", "political" ]
    }, {
      "long_name": "United States",
      "short_name": "US",
      "types": [ "country", "political" ]
    } ],
    "geometry": {
      "location": {
        "lat": 41.7675750,
        "lng": -76.4427188
      },
      "location_type": "APPROXIMATE",
      "viewport": {
        "southwest": {
          "lat": 41.7592522,
          "lng": -76.4587262
        },
        "northeast": {
          "lat": 41.7758967,
          "lng": -76.4267114
        }
      },
      "bounds": {
        "southwest": {
          "lat": 41.7569120,
          "lng": -76.4559270
        },
        "northeast": {
          "lat": 41.7857540,
          "lng": -76.4409300
        }
      }
    }
  } ]
}
