{
  "status": "OK",
  "results": [ {
    "types": [ "locality", "political" ],
    "formatted_address": "Tunkhannock, PA, USA",
    "address_components": [ {
      "long_name": "Tunkhannock",
      "short_name": "Tunkhannock",
      "types": [ "locality", "political" ]
    }, {
      "long_name": "Wyoming",
      "short_name": "Wyoming",
      "types": [ "administrative_area_level_2", "political" ]
    }, {
      "long_name": "Pennsylvania",
      "short_name": "PA",
      "types": [ "administrative_area_level_1", "political" ]
    }, {
      "long_name": "United States",
      "short_name": "US",
      "types": [ "country", "political" ]
    } ],
    "geometry": {
      "location": {
        "lat": 41.5386878,
        "lng": -75.9465880
      },
      "location_type": "APPROXIMATE",
      "viewport": {
        "southwest": {
          "lat": 41.5303354,
          "lng": -75.9625954
        },
        "northeast": {
          "lat": 41.5470391,
          "lng": -75.9305806
        }
      },
      "bounds": {
        "southwest": {
          "lat": 41.5349549,
          "lng": -75.9631720
        },
        "northeast": {
          "lat": 41.5507140,
          "lng": -75.9352390
        }
      }
    }
  } ]
}
