{
  "status": "OK",
  "results": [ {
    "types": [ "locality", "political" ],
    "formatted_address": "Union Dale, PA, USA",
    "address_components": [ {
      "long_name": "Union Dale",
      "short_name": "Union Dale",
      "types": [ "locality", "political" ]
    }, {
      "long_name": "Susquehanna",
      "short_name": "Susquehanna",
      "types": [ "administrative_area_level_2", "political" ]
    }, {
      "long_name": "Pennsylvania",
      "short_name": "PA",
      "types": [ "administrative_area_level_1", "political" ]
    }, {
      "long_name": "United States",
      "short_name": "US",
      "types": [ "country", "political" ]
    } ],
    "geometry": {
      "location": {
        "lat": 41.7167495,
        "lng": -75.4921284
      },
      "location_type": "APPROXIMATE",
      "viewport": {
        "southwest": {
          "lat": 41.7000897,
          "lng": -75.5241432
        },
        "northeast": {
          "lat": 41.7334050,
          "lng": -75.4601136
        }
      },
      "bounds": {
        "southwest": {
          "lat": 41.7030580,
          "lng": -75.4981239
        },
        "northeast": {
          "lat": 41.7281450,
          "lng": -75.4660750
        }
      }
    }
  } ]
}
