{
  "status": "OK",
  "results": [ {
    "types": [ "locality", "political" ],
    "formatted_address": "Upper Providence Township, PA, USA",
    "address_components": [ {
      "long_name": "Upper Providence Township",
      "short_name": "Upper Providence Township",
      "types": [ "locality", "political" ]
    }, {
      "long_name": "Upper Providence",
      "short_name": "Upper Providence",
      "types": [ "administrative_area_level_3", "political" ]
    }, {
      "long_name": "Delaware",
      "short_name": "Delaware",
      "types": [ "administrative_area_level_2", "political" ]
    }, {
      "long_name": "Pennsylvania",
      "short_name": "PA",
      "types": [ "administrative_area_level_1", "political" ]
    }, {
      "long_name": "United States",
      "short_name": "US",
      "types": [ "country", "political" ]
    } ],
    "geometry": {
      "location": {
        "lat": 39.9376550,
        "lng": -75.3964880
      },
      "location_type": "APPROXIMATE",
      "viewport": {
        "southwest": {
          "lat": 39.9205422,
          "lng": -75.4285028
        },
        "northeast": {
          "lat": 39.9547635,
          "lng": -75.3644732
        }
      },
      "bounds": {
        "southwest": {
          "lat": 39.9008110,
          "lng": -75.4323529
        },
        "northeast": {
          "lat": 39.9632099,
          "lng": -75.3648709
        }
      }
    }
  } ]
}
