{
  "status": "OK",
  "results": [ {
    "types": [ "locality", "political" ],
    "formatted_address": "Upper Darby, PA, USA",
    "address_components": [ {
      "long_name": "Upper Darby",
      "short_name": "Upper Darby",
      "types": [ "locality", "political" ]
    }, {
      "long_name": "Delaware",
      "short_name": "Delaware",
      "types": [ "administrative_area_level_2", "political" ]
    }, {
      "long_name": "Pennsylvania",
      "short_name": "PA",
      "types": [ "administrative_area_level_1", "political" ]
    }, {
      "long_name": "United States",
      "short_name": "US",
      "types": [ "country", "political" ]
    } ],
    "geometry": {
      "location": {
        "lat": 39.9284459,
        "lng": -75.2737955
      },
      "location_type": "APPROXIMATE",
      "viewport": {
        "southwest": {
          "lat": 39.8942115,
          "lng": -75.3378252
        },
        "northeast": {
          "lat": 39.9626632,
          "lng": -75.2097658
        }
      },
      "bounds": {
        "southwest": {
          "lat": 39.9131709,
          "lng": -75.3314020
        },
        "northeast": {
          "lat": 40.0089760,
          "lng": -75.2467217
        }
      }
    }
  } ]
}
