{
  "status": "OK",
  "results": [ {
    "types": [ "locality", "political" ],
    "formatted_address": "Vandergrift, PA, USA",
    "address_components": [ {
      "long_name": "Vandergrift",
      "short_name": "Vandergrift",
      "types": [ "locality", "political" ]
    }, {
      "long_name": "Westmoreland",
      "short_name": "Westmoreland",
      "types": [ "administrative_area_level_2", "political" ]
    }, {
      "long_name": "Pennsylvania",
      "short_name": "PA",
      "types": [ "administrative_area_level_1", "political" ]
    }, {
      "long_name": "United States",
      "short_name": "US",
      "types": [ "country", "political" ]
    } ],
    "geometry": {
      "location": {
        "lat": 40.6028434,
        "lng": -79.5647667
      },
      "location_type": "APPROXIMATE",
      "viewport": {
        "southwest": {
          "lat": 40.5943713,
          "lng": -79.5807741
        },
        "northeast": {
          "lat": 40.6113144,
          "lng": -79.5487593
        }
      },
      "bounds": {
        "southwest": {
          "lat": 40.5912650,
          "lng": -79.5984940
        },
        "northeast": {
          "lat": 40.6079529,
          "lng": -79.5504220
        }
      }
    }
  } ]
}
