{
  "status": "OK",
  "results": [ {
    "types": [ "locality", "political" ],
    "formatted_address": "Vandling, PA, USA",
    "address_components": [ {
      "long_name": "Vandling",
      "short_name": "Vandling",
      "types": [ "locality", "political" ]
    }, {
      "long_name": "Lackawanna",
      "short_name": "Lackawanna",
      "types": [ "administrative_area_level_2", "political" ]
    }, {
      "long_name": "Pennsylvania",
      "short_name": "PA",
      "types": [ "administrative_area_level_1", "political" ]
    }, {
      "long_name": "United States",
      "short_name": "US",
      "types": [ "country", "political" ]
    } ],
    "geometry": {
      "location": {
        "lat": 41.6331388,
        "lng": -75.4704609
      },
      "location_type": "APPROXIMATE",
      "viewport": {
        "southwest": {
          "lat": 41.6247986,
          "lng": -75.4864683
        },
        "northeast": {
          "lat": 41.6414779,
          "lng": -75.4544535
        }
      },
      "bounds": {
        "southwest": {
          "lat": 41.6159679,
          "lng": -75.4836440
        },
        "northeast": {
          "lat": 41.6416989,
          "lng": -75.4611670
        }
      }
    }
  } ]
}
