{
  "status": "OK",
  "results": [ {
    "types": [ "administrative_area_level_3", "political" ],
    "formatted_address": "Walker, PA, USA",
    "address_components": [ {
      "long_name": "Walker",
      "short_name": "Walker",
      "types": [ "administrative_area_level_3", "political" ]
    }, {
      "long_name": "Centre",
      "short_name": "Centre",
      "types": [ "administrative_area_level_2", "political" ]
    }, {
      "long_name": "Pennsylvania",
      "short_name": "PA",
      "types": [ "administrative_area_level_1", "political" ]
    }, {
      "long_name": "United States",
      "short_name": "US",
      "types": [ "country", "political" ]
    } ],
    "geometry": {
      "location": {
        "lat": 40.9427674,
        "lng": -77.6192447
      },
      "location_type": "APPROXIMATE",
      "viewport": {
        "southwest": {
          "lat": 40.8753062,
          "lng": -77.7473041
        },
        "northeast": {
          "lat": 41.0101598,
          "lng": -77.4911853
        }
      },
      "bounds": {
        "southwest": {
          "lat": 40.8749390,
          "lng": -77.7096959
        },
        "northeast": {
          "lat": 41.0216749,
          "lng": -77.5086970
        }
      }
    }
  } ]
}
