{
  "status": "OK",
  "results": [ {
    "types": [ "locality", "political" ],
    "formatted_address": "Warminster, PA, USA",
    "address_components": [ {
      "long_name": "Warminster",
      "short_name": "Warminster",
      "types": [ "locality", "political" ]
    }, {
      "long_name": "Bucks",
      "short_name": "Bucks",
      "types": [ "administrative_area_level_2", "political" ]
    }, {
      "long_name": "Pennsylvania",
      "short_name": "PA",
      "types": [ "administrative_area_level_1", "political" ]
    }, {
      "long_name": "United States",
      "short_name": "US",
      "types": [ "country", "political" ]
    } ],
    "geometry": {
      "location": {
        "lat": 40.2067751,
        "lng": -75.0996159
      },
      "location_type": "APPROXIMATE",
      "viewport": {
        "southwest": {
          "lat": 40.1385682,
          "lng": -75.2276753
        },
        "northeast": {
          "lat": 40.2749134,
          "lng": -74.9715565
        }
      },
      "bounds": {
        "southwest": {
          "lat": 40.1418629,
          "lng": -75.1539711
        },
        "northeast": {
          "lat": 40.2799371,
          "lng": -75.0082020
        }
      }
    }
  } ]
}
