{
  "status": "OK",
  "results": [ {
    "types": [ "administrative_area_level_3", "political" ],
    "formatted_address": "Washington Township, PA, USA",
    "address_components": [ {
      "long_name": "Washington Township",
      "short_name": "Washington Township",
      "types": [ "administrative_area_level_3", "political" ]
    }, {
      "long_name": "Northampton",
      "short_name": "Northampton",
      "types": [ "administrative_area_level_2", "political" ]
    }, {
      "long_name": "Pennsylvania",
      "short_name": "PA",
      "types": [ "administrative_area_level_1", "political" ]
    }, {
      "long_name": "United States",
      "short_name": "US",
      "types": [ "country", "political" ]
    } ],
    "geometry": {
      "location": {
        "lat": 40.8336646,
        "lng": -75.2128996
      },
      "location_type": "APPROXIMATE",
      "viewport": {
        "southwest": {
          "lat": 40.7998870,
          "lng": -75.2769293
        },
        "northeast": {
          "lat": 40.8674250,
          "lng": -75.1488699
        }
      },
      "bounds": {
        "southwest": {
          "lat": 40.7964700,
          "lng": -75.2436240
        },
        "northeast": {
          "lat": 40.8991509,
          "lng": -75.1288270
        }
      }
    }
  } ]
}
