{
  "status": "OK",
  "results": [ {
    "types": [ "locality", "political" ],
    "formatted_address": "Wellsboro, PA, USA",
    "address_components": [ {
      "long_name": "Wellsboro",
      "short_name": "Wellsboro",
      "types": [ "locality", "political" ]
    }, {
      "long_name": "Tioga",
      "short_name": "Tioga",
      "types": [ "administrative_area_level_2", "political" ]
    }, {
      "long_name": "Pennsylvania",
      "short_name": "PA",
      "types": [ "administrative_area_level_1", "political" ]
    }, {
      "long_name": "United States",
      "short_name": "US",
      "types": [ "country", "political" ]
    } ],
    "geometry": {
      "location": {
        "lat": 41.7486838,
        "lng": -77.3005304
      },
      "location_type": "APPROXIMATE",
      "viewport": {
        "southwest": {
          "lat": 41.7320323,
          "lng": -77.3325452
        },
        "northeast": {
          "lat": 41.7653310,
          "lng": -77.2685156
        }
      },
      "bounds": {
        "southwest": {
          "lat": 41.7258560,
          "lng": -77.3239320
        },
        "northeast": {
          "lat": 41.7625100,
          "lng": -77.2807270
        }
      }
    }
  } ]
}
