{
  "status": "OK",
  "results": [ {
    "types": [ "administrative_area_level_3", "political" ],
    "formatted_address": "West Pike Run, PA, USA",
    "address_components": [ {
      "long_name": "West Pike Run",
      "short_name": "West Pike Run",
      "types": [ "administrative_area_level_3", "political" ]
    }, {
      "long_name": "Washington",
      "short_name": "Washington",
      "types": [ "administrative_area_level_2", "political" ]
    }, {
      "long_name": "Pennsylvania",
      "short_name": "PA",
      "types": [ "administrative_area_level_1", "political" ]
    }, {
      "long_name": "United States",
      "short_name": "US",
      "types": [ "country", "political" ]
    } ],
    "geometry": {
      "location": {
        "lat": 40.0880441,
        "lng": -79.9752212
      },
      "location_type": "APPROXIMATE",
      "viewport": {
        "southwest": {
          "lat": 40.0538896,
          "lng": -80.0392509
        },
        "northeast": {
          "lat": 40.1221815,
          "lng": -79.9111915
        }
      },
      "bounds": {
        "southwest": {
          "lat": 40.0390650,
          "lng": -80.0403670
        },
        "northeast": {
          "lat": 40.1136879,
          "lng": -79.9313550
        }
      }
    }
  } ]
}
