{
  "status": "OK",
  "results": [ {
    "types": [ "administrative_area_level_3", "political" ],
    "formatted_address": "West Caln, PA, USA",
    "address_components": [ {
      "long_name": "West Caln",
      "short_name": "West Caln",
      "types": [ "administrative_area_level_3", "political" ]
    }, {
      "long_name": "Chester",
      "short_name": "Chester",
      "types": [ "administrative_area_level_2", "political" ]
    }, {
      "long_name": "Pennsylvania",
      "short_name": "PA",
      "types": [ "administrative_area_level_1", "political" ]
    }, {
      "long_name": "United States",
      "short_name": "US",
      "types": [ "country", "political" ]
    } ],
    "geometry": {
      "location": {
        "lat": 40.0211815,
        "lng": -75.8882508
      },
      "location_type": "APPROXIMATE",
      "viewport": {
        "southwest": {
          "lat": 39.9869935,
          "lng": -75.9522805
        },
        "northeast": {
          "lat": 40.0553524,
          "lng": -75.8242211
        }
      },
      "bounds": {
        "southwest": {
          "lat": 39.9848670,
          "lng": -75.9513980
        },
        "northeast": {
          "lat": 40.0581610,
          "lng": -75.8250470
        }
      }
    }
  } ]
}
