{
  "status": "OK",
  "results": [ {
    "types": [ "locality", "political" ],
    "formatted_address": "West View, PA, USA",
    "address_components": [ {
      "long_name": "West View",
      "short_name": "West View",
      "types": [ "locality", "political" ]
    }, {
      "long_name": "Allegheny",
      "short_name": "Allegheny",
      "types": [ "administrative_area_level_2", "political" ]
    }, {
      "long_name": "Pennsylvania",
      "short_name": "PA",
      "types": [ "administrative_area_level_1", "political" ]
    }, {
      "long_name": "United States",
      "short_name": "US",
      "types": [ "country", "political" ]
    } ],
    "geometry": {
      "location": {
        "lat": 40.5222907,
        "lng": -80.0342217
      },
      "location_type": "APPROXIMATE",
      "viewport": {
        "southwest": {
          "lat": 40.5138084,
          "lng": -80.0502291
        },
        "northeast": {
          "lat": 40.5307719,
          "lng": -80.0182143
        }
      },
      "bounds": {
        "southwest": {
          "lat": 40.5089679,
          "lng": -80.0480769
        },
        "northeast": {
          "lat": 40.5280680,
          "lng": -80.0172760
        }
      }
    }
  } ]
}
