{
  "status": "OK",
  "results": [ {
    "types": [ "administrative_area_level_3", "political" ],
    "formatted_address": "West Sadsbury, PA, USA",
    "address_components": [ {
      "long_name": "West Sadsbury",
      "short_name": "West Sadsbury",
      "types": [ "administrative_area_level_3", "political" ]
    }, {
      "long_name": "Chester",
      "short_name": "Chester",
      "types": [ "administrative_area_level_2", "political" ]
    }, {
      "long_name": "Pennsylvania",
      "short_name": "PA",
      "types": [ "administrative_area_level_1", "political" ]
    }, {
      "long_name": "United States",
      "short_name": "US",
      "types": [ "country", "political" ]
    } ],
    "geometry": {
      "location": {
        "lat": 39.9693925,
        "lng": -75.9579358
      },
      "location_type": "APPROXIMATE",
      "viewport": {
        "southwest": {
          "lat": 39.9351786,
          "lng": -76.0219655
        },
        "northeast": {
          "lat": 40.0035893,
          "lng": -75.8939061
        }
      },
      "bounds": {
        "southwest": {
          "lat": 39.9377099,
          "lng": -75.9946439
        },
        "northeast": {
          "lat": 40.0164210,
          "lng": -75.9271930
        }
      }
    }
  } ]
}
