{
  "status": "OK",
  "results": [ {
    "types": [ "locality", "political" ],
    "formatted_address": "West Reading, PA, USA",
    "address_components": [ {
      "long_name": "West Reading",
      "short_name": "West Reading",
      "types": [ "locality", "political" ]
    }, {
      "long_name": "Berks",
      "short_name": "Berks",
      "types": [ "administrative_area_level_2", "political" ]
    }, {
      "long_name": "Pennsylvania",
      "short_name": "PA",
      "types": [ "administrative_area_level_1", "political" ]
    }, {
      "long_name": "United States",
      "short_name": "US",
      "types": [ "country", "political" ]
    } ],
    "geometry": {
      "location": {
        "lat": 40.3337038,
        "lng": -75.9474322
      },
      "location_type": "APPROXIMATE",
      "viewport": {
        "southwest": {
          "lat": 40.3251977,
          "lng": -75.9634396
        },
        "northeast": {
          "lat": 40.3422089,
          "lng": -75.9314248
        }
      },
      "bounds": {
        "southwest": {
          "lat": 40.3266370,
          "lng": -75.9537249
        },
        "northeast": {
          "lat": 40.3405739,
          "lng": -75.9374450
        }
      }
    }
  } ]
}
