{
  "status": "OK",
  "results": [ {
    "types": [ "administrative_area_level_3", "political" ],
    "formatted_address": "West Vincent Township, PA, USA",
    "address_components": [ {
      "long_name": "West Vincent Township",
      "short_name": "West Vincent Township",
      "types": [ "administrative_area_level_3", "political" ]
    }, {
      "long_name": "Chester",
      "short_name": "Chester",
      "types": [ "administrative_area_level_2", "political" ]
    }, {
      "long_name": "Pennsylvania",
      "short_name": "PA",
      "types": [ "administrative_area_level_1", "political" ]
    }, {
      "long_name": "United States",
      "short_name": "US",
      "types": [ "country", "political" ]
    } ],
    "geometry": {
      "location": {
        "lat": 40.1328022,
        "lng": -75.6557206
      },
      "location_type": "APPROXIMATE",
      "viewport": {
        "southwest": {
          "lat": 40.0986702,
          "lng": -75.7197503
        },
        "northeast": {
          "lat": 40.1669171,
          "lng": -75.5916909
        }
      },
      "bounds": {
        "southwest": {
          "lat": 40.0823770,
          "lng": -75.7094510
        },
        "northeast": {
          "lat": 40.1584960,
          "lng": -75.5771879
        }
      }
    }
  } ]
}
