{
  "status": "OK",
  "results": [ {
    "types": [ "administrative_area_level_3", "political" ],
    "formatted_address": "Whitemarsh Township, PA, USA",
    "address_components": [ {
      "long_name": "Whitemarsh Township",
      "short_name": "Whitemarsh Township",
      "types": [ "administrative_area_level_3", "political" ]
    }, {
      "long_name": "Montgomery",
      "short_name": "Montgomery",
      "types": [ "administrative_area_level_2", "political" ]
    }, {
      "long_name": "Pennsylvania",
      "short_name": "PA",
      "types": [ "administrative_area_level_1", "political" ]
    }, {
      "long_name": "United States",
      "short_name": "US",
      "types": [ "country", "political" ]
    } ],
    "geometry": {
      "location": {
        "lat": 40.1192546,
        "lng": -75.2362381
      },
      "location_type": "APPROXIMATE",
      "viewport": {
        "southwest": {
          "lat": 40.0851158,
          "lng": -75.3002678
        },
        "northeast": {
          "lat": 40.1533763,
          "lng": -75.1722084
        }
      },
      "bounds": {
        "southwest": {
          "lat": 40.0540940,
          "lng": -75.2986270
        },
        "northeast": {
          "lat": 40.1502860,
          "lng": -75.1962200
        }
      }
    }
  } ]
}
