{
  "status": "OK",
  "results": [ {
    "types": [ "administrative_area_level_3", "political" ],
    "formatted_address": "Whitpain Township, PA, USA",
    "address_components": [ {
      "long_name": "Whitpain Township",
      "short_name": "Whitpain Township",
      "types": [ "administrative_area_level_3", "political" ]
    }, {
      "long_name": "Montgomery",
      "short_name": "Montgomery",
      "types": [ "administrative_area_level_2", "political" ]
    }, {
      "long_name": "Pennsylvania",
      "short_name": "PA",
      "types": [ "administrative_area_level_1", "political" ]
    }, {
      "long_name": "United States",
      "short_name": "US",
      "types": [ "country", "political" ]
    } ],
    "geometry": {
      "location": {
        "lat": 40.1653934,
        "lng": -75.2829046
      },
      "location_type": "APPROXIMATE",
      "viewport": {
        "southwest": {
          "lat": 40.1312777,
          "lng": -75.3469343
        },
        "northeast": {
          "lat": 40.1994919,
          "lng": -75.2188749
        }
      },
      "bounds": {
        "southwest": {
          "lat": 40.1218090,
          "lng": -75.3266240
        },
        "northeast": {
          "lat": 40.1933409,
          "lng": -75.2271200
        }
      }
    }
  } ]
}
