{
  "status": "OK",
  "results": [ {
    "types": [ "park", "establishment" ],
    "formatted_address": "Forest Hills Park, Pittsburgh, PA 15221, USA",
    "address_components": [ {
      "long_name": "Forest Hills Park",
      "short_name": "Forest Hills Park",
      "types": [ "establishment" ]
    }, {
      "long_name": "Pittsburgh",
      "short_name": "Pittsburgh",
      "types": [ "locality", "political" ]
    }, {
      "long_name": "Forest Hills",
      "short_name": "Forest Hills",
      "types": [ "locality", "political" ]
    }, {
      "long_name": "Forest Hills",
      "short_name": "Forest Hills",
      "types": [ "administrative_area_level_3", "political" ]
    }, {
      "long_name": "Allegheny",
      "short_name": "Allegheny",
      "types": [ "administrative_area_level_2", "political" ]
    }, {
      "long_name": "Pennsylvania",
      "short_name": "PA",
      "types": [ "administrative_area_level_1", "political" ]
    }, {
      "long_name": "United States",
      "short_name": "US",
      "types": [ "country", "political" ]
    }, {
      "long_name": "15221",
      "short_name": "15221",
      "types": [ "postal_code" ]
    } ],
    "geometry": {
      "location": {
        "lat": 40.4244963,
        "lng": -79.8566326
      },
      "location_type": "APPROXIMATE",
      "viewport": {
        "southwest": {
          "lat": 40.4160016,
          "lng": -79.8726400
        },
        "northeast": {
          "lat": 40.4329899,
          "lng": -79.8406252
        }
      },
      "bounds": {
        "southwest": {
          "lat": 40.4228964,
          "lng": -79.8592913
        },
        "northeast": {
          "lat": 40.4266679,
          "lng": -79.8541226
        }
      }
    },
    "partial_match": true
  }, {
    "types": [ "bus_station", "transit_station" ],
    "formatted_address": "Greensprings Ave at Borough Parking Lot, West Mifflin, PA 15122, USA",
    "address_components": [ {
      "long_name": "Greensprings Ave at Borough Parking Lot",
      "short_name": "Greensprings Ave at Borough Parking Lot",
      "types": [ "bus_station", "transit_station" ]
    }, {
      "long_name": "West Mifflin",
      "short_name": "West Mifflin",
      "types": [ "locality", "political" ]
    }, {
      "long_name": "West Mifflin",
      "short_name": "West Mifflin",
      "types": [ "administrative_area_level_3", "political" ]
    }, {
      "long_name": "Allegheny",
      "short_name": "Allegheny",
      "types": [ "administrative_area_level_2", "political" ]
    }, {
      "long_name": "Pennsylvania",
      "short_name": "PA",
      "types": [ "administrative_area_level_1", "political" ]
    }, {
      "long_name": "United States",
      "short_name": "US",
      "types": [ "country", "political" ]
    }, {
      "long_name": "15122",
      "short_name": "15122",
      "types": [ "postal_code" ]
    } ],
    "geometry": {
      "location": {
        "lat": 40.3918517,
        "lng": -79.8845670
      },
      "location_type": "APPROXIMATE",
      "viewport": {
        "southwest": {
          "lat": 40.3887041,
          "lng": -79.8877146
        },
        "northeast": {
          "lat": 40.3949993,
          "lng": -79.8814194
        }
      }
    },
    "partial_match": true
  }, {
    "types": [ "political" ],
    "formatted_address": "Wilkinsburg Borough School District, Pennsylvania, USA",
    "address_components": [ {
      "long_name": "Wilkinsburg Borough School District",
      "short_name": "Wilkinsburg Borough School District",
      "types": [ "political" ]
    }, {
      "long_name": "Allegheny",
      "short_name": "Allegheny",
      "types": [ "administrative_area_level_2", "political" ]
    }, {
      "long_name": "Pennsylvania",
      "short_name": "PA",
      "types": [ "administrative_area_level_1", "political" ]
    }, {
      "long_name": "United States",
      "short_name": "US",
      "types": [ "country", "political" ]
    } ],
    "geometry": {
      "location": {
        "lat": 40.4456821,
        "lng": -79.8716837
      },
      "location_type": "APPROXIMATE",
      "viewport": {
        "southwest": {
          "lat": 40.4324680,
          "lng": -79.8952720
        },
        "northeast": {
          "lat": 40.4596680,
          "lng": -79.8539710
        }
      },
      "bounds": {
        "southwest": {
          "lat": 40.4324680,
          "lng": -79.8952720
        },
        "northeast": {
          "lat": 40.4596680,
          "lng": -79.8539710
        }
      }
    },
    "partial_match": true
  } ]
}
