{
  "status": "OK",
  "results": [ {
    "types": [ "locality", "political" ],
    "formatted_address": "Wilkins Township, PA, USA",
    "address_components": [ {
      "long_name": "Wilkins Township",
      "short_name": "Wilkins Township",
      "types": [ "locality", "political" ]
    }, {
      "long_name": "Wilkins",
      "short_name": "Wilkins",
      "types": [ "administrative_area_level_3", "political" ]
    }, {
      "long_name": "Allegheny",
      "short_name": "Allegheny",
      "types": [ "administrative_area_level_2", "political" ]
    }, {
      "long_name": "Pennsylvania",
      "short_name": "PA",
      "types": [ "administrative_area_level_1", "political" ]
    }, {
      "long_name": "United States",
      "short_name": "US",
      "types": [ "country", "political" ]
    } ],
    "geometry": {
      "location": {
        "lat": 40.4263500,
        "lng": -79.8242950
      },
      "location_type": "APPROXIMATE",
      "viewport": {
        "southwest": {
          "lat": 40.4093600,
          "lng": -79.8563098
        },
        "northeast": {
          "lat": 40.4433357,
          "lng": -79.7922802
        }
      },
      "bounds": {
        "southwest": {
          "lat": 40.4025690,
          "lng": -79.8466700
        },
        "northeast": {
          "lat": 40.4443680,
          "lng": -79.8017689
        }
      }
    }
  } ]
}
