{
  "status": "OK",
  "results": [ {
    "types": [ "locality", "political" ],
    "formatted_address": "Clovis, NM, USA",
    "address_components": [ {
      "long_name": "Clovis",
      "short_name": "Clovis",
      "types": [ "locality", "political" ]
    }, {
      "long_name": "Curry",
      "short_name": "Curry",
      "types": [ "administrative_area_level_2", "political" ]
    }, {
      "long_name": "New Mexico",
      "short_name": "NM",
      "types": [ "administrative_area_level_1", "political" ]
    }, {
      "long_name": "United States",
      "short_name": "US",
      "types": [ "country", "political" ]
    } ],
    "geometry": {
      "location": {
        "lat": 34.4047987,
        "lng": -103.2052272
      },
      "location_type": "APPROXIMATE",
      "viewport": {
        "southwest": {
          "lat": 34.3311177,
          "lng": -103.3332866
        },
        "northeast": {
          "lat": 34.4784149,
          "lng": -103.0771678
        }
      },
      "bounds": {
        "southwest": {
          "lat": 34.3756980,
          "lng": -103.2623629
        },
        "northeast": {
          "lat": 34.5321740,
          "lng": -103.1346240
        }
      }
    }
  } ]
}
