{
  "status": "OK",
  "results": [ {
    "types": [ "locality", "political" ],
    "formatted_address": "Espanola, NM, USA",
    "address_components": [ {
      "long_name": "Espanola",
      "short_name": "Espanola",
      "types": [ "locality", "political" ]
    }, {
      "long_name": "Rio Arriba",
      "short_name": "Rio Arriba",
      "types": [ "administrative_area_level_2", "political" ]
    }, {
      "long_name": "New Mexico",
      "short_name": "NM",
      "types": [ "administrative_area_level_1", "political" ]
    }, {
      "long_name": "United States",
      "short_name": "US",
      "types": [ "country", "political" ]
    } ],
    "geometry": {
      "location": {
        "lat": 36.0018840,
        "lng": -106.0645870
      },
      "location_type": "APPROXIMATE",
      "viewport": {
        "southwest": {
          "lat": 35.9657686,
          "lng": -106.1286167
        },
        "northeast": {
          "lat": 36.0379829,
          "lng": -106.0005573
        }
      },
      "bounds": {
        "southwest": {
          "lat": 35.9763830,
          "lng": -106.1201880
        },
        "northeast": {
          "lat": 36.0310330,
          "lng": -106.0304480
        }
      }
    }
  } ]
}
