{
  "status": "OK",
  "results": [ {
    "types": [ "locality", "political" ],
    "formatted_address": "Farmington, NM, USA",
    "address_components": [ {
      "long_name": "Farmington",
      "short_name": "Farmington",
      "types": [ "locality", "political" ]
    }, {
      "long_name": "San Juan",
      "short_name": "San Juan",
      "types": [ "administrative_area_level_2", "political" ]
    }, {
      "long_name": "New Mexico",
      "short_name": "NM",
      "types": [ "administrative_area_level_1", "political" ]
    }, {
      "long_name": "United States",
      "short_name": "US",
      "types": [ "country", "political" ]
    } ],
    "geometry": {
      "location": {
        "lat": 36.7280583,
        "lng": -108.2186856
      },
      "location_type": "APPROXIMATE",
      "viewport": {
        "southwest": {
          "lat": 36.6564815,
          "lng": -108.3467450
        },
        "northeast": {
          "lat": 36.7995685,
          "lng": -108.0906262
        }
      },
      "bounds": {
        "southwest": {
          "lat": 36.7102430,
          "lng": -108.2835960
        },
        "northeast": {
          "lat": 36.8215809,
          "lng": -108.0957540
        }
      }
    }
  } ]
}
