{
  "status": "OK",
  "results": [ {
    "types": [ "locality", "political" ],
    "formatted_address": "Las Cruces, NM, USA",
    "address_components": [ {
      "long_name": "Las Cruces",
      "short_name": "Las Cruces",
      "types": [ "locality", "political" ]
    }, {
      "long_name": "Dona Ana",
      "short_name": "Dona Ana",
      "types": [ "administrative_area_level_2", "political" ]
    }, {
      "long_name": "New Mexico",
      "short_name": "NM",
      "types": [ "administrative_area_level_1", "political" ]
    }, {
      "long_name": "United States",
      "short_name": "US",
      "types": [ "country", "political" ]
    } ],
    "geometry": {
      "location": {
        "lat": 32.3123157,
        "lng": -106.7783374
      },
      "location_type": "APPROXIMATE",
      "viewport": {
        "southwest": {
          "lat": 32.2368432,
          "lng": -106.9063968
        },
        "northeast": {
          "lat": 32.3877254,
          "lng": -106.6502780
        }
      },
      "bounds": {
        "southwest": {
          "lat": 32.2540950,
          "lng": -106.9569310
        },
        "northeast": {
          "lat": 32.4339320,
          "lng": -106.6658320
        }
      }
    }
  } ]
}
