{
  "status": "OK",
  "results": [ {
    "types": [ "locality", "political" ],
    "formatted_address": "Melrose, NM, USA",
    "address_components": [ {
      "long_name": "Melrose",
      "short_name": "Melrose",
      "types": [ "locality", "political" ]
    }, {
      "long_name": "Curry",
      "short_name": "Curry",
      "types": [ "administrative_area_level_2", "political" ]
    }, {
      "long_name": "New Mexico",
      "short_name": "NM",
      "types": [ "administrative_area_level_1", "political" ]
    }, {
      "long_name": "United States",
      "short_name": "US",
      "types": [ "country", "political" ]
    } ],
    "geometry": {
      "location": {
        "lat": 34.4303525,
        "lng": -103.6324600
      },
      "location_type": "APPROXIMATE",
      "viewport": {
        "southwest": {
          "lat": 34.4211487,
          "lng": -103.6484674
        },
        "northeast": {
          "lat": 34.4395553,
          "lng": -103.6164526
        }
      },
      "bounds": {
        "southwest": {
          "lat": 34.4202779,
          "lng": -103.6426390
        },
        "northeast": {
          "lat": 34.4418840,
          "lng": -103.6165160
        }
      }
    }
  } ]
}
