{
  "status": "OK",
  "results": [ {
    "types": [ "locality", "political" ],
    "formatted_address": "Ruidoso, NM, USA",
    "address_components": [ {
      "long_name": "Ruidoso",
      "short_name": "Ruidoso",
      "types": [ "locality", "political" ]
    }, {
      "long_name": "Lincoln",
      "short_name": "Lincoln",
      "types": [ "administrative_area_level_2", "political" ]
    }, {
      "long_name": "New Mexico",
      "short_name": "NM",
      "types": [ "administrative_area_level_1", "political" ]
    }, {
      "long_name": "United States",
      "short_name": "US",
      "types": [ "country", "political" ]
    } ],
    "geometry": {
      "location": {
        "lat": 33.3317494,
        "lng": -105.6730411
      },
      "location_type": "APPROXIMATE",
      "viewport": {
        "southwest": {
          "lat": 33.1824613,
          "lng": -105.9291599
        },
        "northeast": {
          "lat": 33.4807822,
          "lng": -105.4169223
        }
      },
      "bounds": {
        "southwest": {
          "lat": 33.3050870,
          "lng": -105.7261960
        },
        "northeast": {
          "lat": 33.4753440,
          "lng": -105.5036890
        }
      }
    }
  } ]
}
