{
  "status": "OK",
  "results": [ {
    "types": [ "locality", "political" ],
    "formatted_address": "Santa Clara, NM, USA",
    "address_components": [ {
      "long_name": "Santa Clara",
      "short_name": "Santa Clara",
      "types": [ "locality", "political" ]
    }, {
      "long_name": "Grant",
      "short_name": "Grant",
      "types": [ "administrative_area_level_2", "political" ]
    }, {
      "long_name": "New Mexico",
      "short_name": "NM",
      "types": [ "administrative_area_level_1", "political" ]
    }, {
      "long_name": "United States",
      "short_name": "US",
      "types": [ "country", "political" ]
    } ],
    "geometry": {
      "location": {
        "lat": 32.7795198,
        "lng": -108.1503219
      },
      "location_type": "APPROXIMATE",
      "viewport": {
        "southwest": {
          "lat": 32.7701381,
          "lng": -108.1663293
        },
        "northeast": {
          "lat": 32.7889005,
          "lng": -108.1343145
        }
      },
      "bounds": {
        "southwest": {
          "lat": 32.7681610,
          "lng": -108.1675110
        },
        "northeast": {
          "lat": 32.7845590,
          "lng": -108.1447130
        }
      }
    }
  } ]
}
