{
  "status": "OK",
  "results": [ {
    "types": [ "locality", "political" ],
    "formatted_address": "Texico, NM, USA",
    "address_components": [ {
      "long_name": "Texico",
      "short_name": "Texico",
      "types": [ "locality", "political" ]
    }, {
      "long_name": "Curry",
      "short_name": "Curry",
      "types": [ "administrative_area_level_2", "political" ]
    }, {
      "long_name": "New Mexico",
      "short_name": "NM",
      "types": [ "administrative_area_level_1", "political" ]
    }, {
      "long_name": "United States",
      "short_name": "US",
      "types": [ "country", "political" ]
    } ],
    "geometry": {
      "location": {
        "lat": 34.3886868,
        "lng": -103.0513351
      },
      "location_type": "APPROXIMATE",
      "viewport": {
        "southwest": {
          "lat": 34.3794784,
          "lng": -103.0673425
        },
        "northeast": {
          "lat": 34.3978941,
          "lng": -103.0353277
        }
      },
      "bounds": {
        "southwest": {
          "lat": 34.3818060,
          "lng": -103.0644990
        },
        "northeast": {
          "lat": 34.3979099,
          "lng": -103.0435560
        }
      }
    }
  } ]
}
