{
  "status": "OK",
  "results": [ {
    "types": [ "locality", "political" ],
    "formatted_address": "Adamsville, AL, USA",
    "address_components": [ {
      "long_name": "Adamsville",
      "short_name": "Adamsville",
      "types": [ "locality", "political" ]
    }, {
      "long_name": "Jefferson",
      "short_name": "Jefferson",
      "types": [ "administrative_area_level_2", "political" ]
    }, {
      "long_name": "Alabama",
      "short_name": "AL",
      "types": [ "administrative_area_level_1", "political" ]
    }, {
      "long_name": "United States",
      "short_name": "US",
      "types": [ "country", "political" ]
    } ],
    "geometry": {
      "location": {
        "lat": 33.6009389,
        "lng": -86.9561059
      },
      "location_type": "APPROXIMATE",
      "viewport": {
        "southwest": {
          "lat": 33.5265579,
          "lng": -87.0841653
        },
        "northeast": {
          "lat": 33.6752558,
          "lng": -86.8280465
        }
      },
      "bounds": {
        "southwest": {
          "lat": 33.5208770,
          "lng": -87.0451740
        },
        "northeast": {
          "lat": 33.6737679,
          "lng": -86.8964740
        }
      }
    }
  } ]
}
