{
  "status": "OK",
  "results": [ {
    "types": [ "locality", "political" ],
    "formatted_address": "Andalusia, AL, USA",
    "address_components": [ {
      "long_name": "Andalusia",
      "short_name": "Andalusia",
      "types": [ "locality", "political" ]
    }, {
      "long_name": "Covington",
      "short_name": "Covington",
      "types": [ "administrative_area_level_2", "political" ]
    }, {
      "long_name": "Alabama",
      "short_name": "AL",
      "types": [ "administrative_area_level_1", "political" ]
    }, {
      "long_name": "United States",
      "short_name": "US",
      "types": [ "country", "political" ]
    } ],
    "geometry": {
      "location": {
        "lat": 31.3085039,
        "lng": -86.4832913
      },
      "location_type": "APPROXIMATE",
      "viewport": {
        "southwest": {
          "lat": 31.2703635,
          "lng": -86.5473210
        },
        "northeast": {
          "lat": 31.3466289,
          "lng": -86.4192616
        }
      },
      "bounds": {
        "southwest": {
          "lat": 31.2770950,
          "lng": -86.5225200
        },
        "northeast": {
          "lat": 31.3483900,
          "lng": -86.4302270
        }
      }
    }
  } ]
}
