{
  "status": "OK",
  "results": [ {
    "types": [ "locality", "political" ],
    "formatted_address": "Ashland, AL, USA",
    "address_components": [ {
      "long_name": "Ashland",
      "short_name": "Ashland",
      "types": [ "locality", "political" ]
    }, {
      "long_name": "Clay",
      "short_name": "Clay",
      "types": [ "administrative_area_level_2", "political" ]
    }, {
      "long_name": "Alabama",
      "short_name": "AL",
      "types": [ "administrative_area_level_1", "political" ]
    }, {
      "long_name": "United States",
      "short_name": "US",
      "types": [ "country", "political" ]
    } ],
    "geometry": {
      "location": {
        "lat": 33.2737256,
        "lng": -85.8360741
      },
      "location_type": "APPROXIMATE",
      "viewport": {
        "southwest": {
          "lat": 33.2364027,
          "lng": -85.9001038
        },
        "northeast": {
          "lat": 33.3110326,
          "lng": -85.7720444
        }
      },
      "bounds": {
        "southwest": {
          "lat": 33.2363200,
          "lng": -85.8812330
        },
        "northeast": {
          "lat": 33.3020069,
          "lng": -85.7892339
        }
      }
    }
  } ]
}
