{
  "status": "OK",
  "results": [ {
    "types": [ "locality", "political" ],
    "formatted_address": "Ashville, AL, USA",
    "address_components": [ {
      "long_name": "Ashville",
      "short_name": "Ashville",
      "types": [ "locality", "political" ]
    }, {
      "long_name": "St. Clair",
      "short_name": "St. Clair",
      "types": [ "administrative_area_level_2", "political" ]
    }, {
      "long_name": "Alabama",
      "short_name": "AL",
      "types": [ "administrative_area_level_1", "political" ]
    }, {
      "long_name": "United States",
      "short_name": "US",
      "types": [ "country", "political" ]
    } ],
    "geometry": {
      "location": {
        "lat": 33.8370433,
        "lng": -86.2544223
      },
      "location_type": "APPROXIMATE",
      "viewport": {
        "southwest": {
          "lat": 33.7999629,
          "lng": -86.3184520
        },
        "northeast": {
          "lat": 33.8741077,
          "lng": -86.1903926
        }
      },
      "bounds": {
        "southwest": {
          "lat": 33.7805740,
          "lng": -86.3044489
        },
        "northeast": {
          "lat": 33.8945189,
          "lng": -86.2179050
        }
      }
    }
  } ]
}
