{
  "status": "OK",
  "results": [ {
    "types": [ "locality", "political" ],
    "formatted_address": "Athens, AL, USA",
    "address_components": [ {
      "long_name": "Athens",
      "short_name": "Athens",
      "types": [ "locality", "political" ]
    }, {
      "long_name": "Limestone",
      "short_name": "Limestone",
      "types": [ "administrative_area_level_2", "political" ]
    }, {
      "long_name": "Alabama",
      "short_name": "AL",
      "types": [ "administrative_area_level_1", "political" ]
    }, {
      "long_name": "United States",
      "short_name": "US",
      "types": [ "country", "political" ]
    } ],
    "geometry": {
      "location": {
        "lat": 34.8028661,
        "lng": -86.9716741
      },
      "location_type": "APPROXIMATE",
      "viewport": {
        "southwest": {
          "lat": 34.7295371,
          "lng": -87.0997335
        },
        "northeast": {
          "lat": 34.8761299,
          "lng": -86.8436147
        }
      },
      "bounds": {
        "southwest": {
          "lat": 34.6857029,
          "lng": -87.0857200
        },
        "northeast": {
          "lat": 34.8409930,
          "lng": -86.8684179
        }
      }
    }
  } ]
}
