{
  "status": "OK",
  "results": [ {
    "types": [ "locality", "political" ],
    "formatted_address": "Atmore, AL, USA",
    "address_components": [ {
      "long_name": "Atmore",
      "short_name": "Atmore",
      "types": [ "locality", "political" ]
    }, {
      "long_name": "Escambia",
      "short_name": "Escambia",
      "types": [ "administrative_area_level_2", "political" ]
    }, {
      "long_name": "Alabama",
      "short_name": "AL",
      "types": [ "administrative_area_level_1", "political" ]
    }, {
      "long_name": "United States",
      "short_name": "US",
      "types": [ "country", "political" ]
    } ],
    "geometry": {
      "location": {
        "lat": 31.0237921,
        "lng": -87.4938708
      },
      "location_type": "APPROXIMATE",
      "viewport": {
        "southwest": {
          "lat": 30.9855369,
          "lng": -87.5579005
        },
        "northeast": {
          "lat": 31.0620319,
          "lng": -87.4298411
        }
      },
      "bounds": {
        "southwest": {
          "lat": 30.9974320,
          "lng": -87.5433900
        },
        "northeast": {
          "lat": 31.1194070,
          "lng": -87.4429469
        }
      }
    }
  } ]
}
