{
  "status": "OK",
  "results": [ {
    "types": [ "locality", "political" ],
    "formatted_address": "Brent, AL, USA",
    "address_components": [ {
      "long_name": "Brent",
      "short_name": "Brent",
      "types": [ "locality", "political" ]
    }, {
      "long_name": "Bibb",
      "short_name": "Bibb",
      "types": [ "administrative_area_level_2", "political" ]
    }, {
      "long_name": "Alabama",
      "short_name": "AL",
      "types": [ "administrative_area_level_1", "political" ]
    }, {
      "long_name": "United States",
      "short_name": "US",
      "types": [ "country", "political" ]
    } ],
    "geometry": {
      "location": {
        "lat": 32.9373463,
        "lng": -87.1647184
      },
      "location_type": "APPROXIMATE",
      "viewport": {
        "southwest": {
          "lat": 32.8998803,
          "lng": -87.2287481
        },
        "northeast": {
          "lat": 32.9747964,
          "lng": -87.1006887
        }
      },
      "bounds": {
        "southwest": {
          "lat": 32.9080079,
          "lng": -87.2047439
        },
        "northeast": {
          "lat": 32.9834070,
          "lng": -87.1486599
        }
      }
    }
  } ]
}
