{
  "status": "OK",
  "results": [ {
    "types": [ "locality", "political" ],
    "formatted_address": "Brighton, AL, USA",
    "address_components": [ {
      "long_name": "Brighton",
      "short_name": "Brighton",
      "types": [ "locality", "political" ]
    }, {
      "long_name": "Jefferson",
      "short_name": "Jefferson",
      "types": [ "administrative_area_level_2", "political" ]
    }, {
      "long_name": "Alabama",
      "short_name": "AL",
      "types": [ "administrative_area_level_1", "political" ]
    }, {
      "long_name": "United States",
      "short_name": "US",
      "types": [ "country", "political" ]
    } ],
    "geometry": {
      "location": {
        "lat": 33.4342755,
        "lng": -86.9472148
      },
      "location_type": "APPROXIMATE",
      "viewport": {
        "southwest": {
          "lat": 33.4249635,
          "lng": -86.9632222
        },
        "northeast": {
          "lat": 33.4435865,
          "lng": -86.9312074
        }
      },
      "bounds": {
        "southwest": {
          "lat": 33.4252089,
          "lng": -86.9578569
        },
        "northeast": {
          "lat": 33.4497560,
          "lng": -86.9287490
        }
      }
    }
  } ]
}
