{
  "status": "OK",
  "results": [ {
    "types": [ "locality", "political" ],
    "formatted_address": "Cherokee, AL, USA",
    "address_components": [ {
      "long_name": "Cherokee",
      "short_name": "Cherokee",
      "types": [ "locality", "political" ]
    }, {
      "long_name": "Colbert",
      "short_name": "Colbert",
      "types": [ "administrative_area_level_2", "political" ]
    }, {
      "long_name": "Alabama",
      "short_name": "AL",
      "types": [ "administrative_area_level_1", "political" ]
    }, {
      "long_name": "United States",
      "short_name": "US",
      "types": [ "country", "political" ]
    } ],
    "geometry": {
      "location": {
        "lat": 34.7570342,
        "lng": -87.9728143
      },
      "location_type": "APPROXIMATE",
      "viewport": {
        "southwest": {
          "lat": 34.7478665,
          "lng": -87.9888217
        },
        "northeast": {
          "lat": 34.7662008,
          "lng": -87.9568069
        }
      },
      "bounds": {
        "southwest": {
          "lat": 34.7454010,
          "lng": -87.9841989
        },
        "northeast": {
          "lat": 34.7714689,
          "lng": -87.9533280
        }
      }
    }
  } ]
}
