{
  "status": "OK",
  "results": [ {
    "types": [ "locality", "political" ],
    "formatted_address": "Clio, AL, USA",
    "address_components": [ {
      "long_name": "Clio",
      "short_name": "Clio",
      "types": [ "locality", "political" ]
    }, {
      "long_name": "Barbour",
      "short_name": "Barbour",
      "types": [ "administrative_area_level_2", "political" ]
    }, {
      "long_name": "Alabama",
      "short_name": "AL",
      "types": [ "administrative_area_level_1", "political" ]
    }, {
      "long_name": "United States",
      "short_name": "US",
      "types": [ "country", "political" ]
    } ],
    "geometry": {
      "location": {
        "lat": 31.7087753,
        "lng": -85.6104972
      },
      "location_type": "APPROXIMATE",
      "viewport": {
        "southwest": {
          "lat": 31.6707978,
          "lng": -85.6745269
        },
        "northeast": {
          "lat": 31.7467373,
          "lng": -85.5464675
        }
      },
      "bounds": {
        "southwest": {
          "lat": 31.6755240,
          "lng": -85.6539950
        },
        "northeast": {
          "lat": 31.7347279,
          "lng": -85.5675189
        }
      }
    }
  } ]
}
