{
  "status": "OK",
  "results": [ {
    "types": [ "locality", "political" ],
    "formatted_address": "Coosada, AL, USA",
    "address_components": [ {
      "long_name": "Coosada",
      "short_name": "Coosada",
      "types": [ "locality", "political" ]
    }, {
      "long_name": "Elmore",
      "short_name": "Elmore",
      "types": [ "administrative_area_level_2", "political" ]
    }, {
      "long_name": "Alabama",
      "short_name": "AL",
      "types": [ "administrative_area_level_1", "political" ]
    }, {
      "long_name": "United States",
      "short_name": "US",
      "types": [ "country", "political" ]
    } ],
    "geometry": {
      "location": {
        "lat": 32.4979127,
        "lng": -86.3313602
      },
      "location_type": "APPROXIMATE",
      "viewport": {
        "southwest": {
          "lat": 32.4790892,
          "lng": -86.3633750
        },
        "northeast": {
          "lat": 32.5167323,
          "lng": -86.2993454
        }
      },
      "bounds": {
        "southwest": {
          "lat": 32.4671350,
          "lng": -86.3590490
        },
        "northeast": {
          "lat": 32.5389130,
          "lng": -86.3074970
        }
      }
    }
  } ]
}
