{
  "status": "OK",
  "results": [ {
    "types": [ "locality", "political" ],
    "formatted_address": "Cordova, AL, USA",
    "address_components": [ {
      "long_name": "Cordova",
      "short_name": "Cordova",
      "types": [ "locality", "political" ]
    }, {
      "long_name": "Walker",
      "short_name": "Walker",
      "types": [ "administrative_area_level_2", "political" ]
    }, {
      "long_name": "Alabama",
      "short_name": "AL",
      "types": [ "administrative_area_level_1", "political" ]
    }, {
      "long_name": "United States",
      "short_name": "US",
      "types": [ "country", "political" ]
    } ],
    "geometry": {
      "location": {
        "lat": 33.7598291,
        "lng": -87.1833349
      },
      "location_type": "APPROXIMATE",
      "viewport": {
        "southwest": {
          "lat": 33.7412742,
          "lng": -87.2153497
        },
        "northeast": {
          "lat": 33.7783800,
          "lng": -87.1513201
        }
      },
      "bounds": {
        "southwest": {
          "lat": 33.7447320,
          "lng": -87.2221139
        },
        "northeast": {
          "lat": 33.7867619,
          "lng": -87.1573399
        }
      }
    }
  } ]
}
