{
  "status": "OK",
  "results": [ {
    "types": [ "locality", "political" ],
    "formatted_address": "Daphne, AL, USA",
    "address_components": [ {
      "long_name": "Daphne",
      "short_name": "Daphne",
      "types": [ "locality", "political" ]
    }, {
      "long_name": "Baldwin",
      "short_name": "Baldwin",
      "types": [ "administrative_area_level_2", "political" ]
    }, {
      "long_name": "Alabama",
      "short_name": "AL",
      "types": [ "administrative_area_level_1", "political" ]
    }, {
      "long_name": "United States",
      "short_name": "US",
      "types": [ "country", "political" ]
    } ],
    "geometry": {
      "location": {
        "lat": 30.6035255,
        "lng": -87.9036047
      },
      "location_type": "APPROXIMATE",
      "viewport": {
        "southwest": {
          "lat": 30.5651027,
          "lng": -87.9676344
        },
        "northeast": {
          "lat": 30.6419331,
          "lng": -87.8395750
        }
      },
      "bounds": {
        "southwest": {
          "lat": 30.5690320,
          "lng": -87.9216670
        },
        "northeast": {
          "lat": 30.6767680,
          "lng": -87.8430449
        }
      }
    }
  } ]
}
