{
  "status": "OK",
  "results": [ {
    "types": [ "locality", "political" ],
    "formatted_address": "Dozier, AL, USA",
    "address_components": [ {
      "long_name": "Dozier",
      "short_name": "Dozier",
      "types": [ "locality", "political" ]
    }, {
      "long_name": "Crenshaw",
      "short_name": "Crenshaw",
      "types": [ "administrative_area_level_2", "political" ]
    }, {
      "long_name": "Alabama",
      "short_name": "AL",
      "types": [ "administrative_area_level_1", "political" ]
    }, {
      "long_name": "United States",
      "short_name": "US",
      "types": [ "country", "political" ]
    } ],
    "geometry": {
      "location": {
        "lat": 31.4921084,
        "lng": -86.3649582
      },
      "location_type": "APPROXIMATE",
      "viewport": {
        "southwest": {
          "lat": 31.4730774,
          "lng": -86.3969730
        },
        "northeast": {
          "lat": 31.5111356,
          "lng": -86.3329434
        }
      },
      "bounds": {
        "southwest": {
          "lat": 31.4841080,
          "lng": -86.3931829
        },
        "northeast": {
          "lat": 31.5157550,
          "lng": -86.3555820
        }
      }
    }
  } ]
}
