{
  "status": "OK",
  "results": [ {
    "types": [ "locality", "political" ],
    "formatted_address": "Excel, AL, USA",
    "address_components": [ {
      "long_name": "Excel",
      "short_name": "Excel",
      "types": [ "locality", "political" ]
    }, {
      "long_name": "Monroe",
      "short_name": "Monroe",
      "types": [ "administrative_area_level_2", "political" ]
    }, {
      "long_name": "Alabama",
      "short_name": "AL",
      "types": [ "administrative_area_level_1", "political" ]
    }, {
      "long_name": "United States",
      "short_name": "US",
      "types": [ "country", "political" ]
    } ],
    "geometry": {
      "location": {
        "lat": 31.4279433,
        "lng": -87.3413731
      },
      "location_type": "APPROXIMATE",
      "viewport": {
        "southwest": {
          "lat": 31.4184217,
          "lng": -87.3573805
        },
        "northeast": {
          "lat": 31.4374639,
          "lng": -87.3253657
        }
      },
      "bounds": {
        "southwest": {
          "lat": 31.4129020,
          "lng": -87.3539009
        },
        "northeast": {
          "lat": 31.4355010,
          "lng": -87.3268559
        }
      }
    }
  } ]
}
