{
  "status": "OK",
  "results": [ {
    "types": [ "locality", "political" ],
    "formatted_address": "Fairfield, AL, USA",
    "address_components": [ {
      "long_name": "Fairfield",
      "short_name": "Fairfield",
      "types": [ "locality", "political" ]
    }, {
      "long_name": "Jefferson",
      "short_name": "Jefferson",
      "types": [ "administrative_area_level_2", "political" ]
    }, {
      "long_name": "Alabama",
      "short_name": "AL",
      "types": [ "administrative_area_level_1", "political" ]
    }, {
      "long_name": "United States",
      "short_name": "US",
      "types": [ "country", "political" ]
    } ],
    "geometry": {
      "location": {
        "lat": 33.4859402,
        "lng": -86.9119366
      },
      "location_type": "APPROXIMATE",
      "viewport": {
        "southwest": {
          "lat": 33.4673262,
          "lng": -86.9439514
        },
        "northeast": {
          "lat": 33.5045502,
          "lng": -86.8799218
        }
      },
      "bounds": {
        "southwest": {
          "lat": 33.4511649,
          "lng": -86.9419700
        },
        "northeast": {
          "lat": 33.5002439,
          "lng": -86.9037709
        }
      }
    }
  } ]
}
