{
  "status": "OK",
  "results": [ {
    "types": [ "locality", "political" ],
    "formatted_address": "Falkville, AL, USA",
    "address_components": [ {
      "long_name": "Falkville",
      "short_name": "Falkville",
      "types": [ "locality", "political" ]
    }, {
      "long_name": "Morgan",
      "short_name": "Morgan",
      "types": [ "administrative_area_level_2", "political" ]
    }, {
      "long_name": "Alabama",
      "short_name": "AL",
      "types": [ "administrative_area_level_1", "political" ]
    }, {
      "long_name": "United States",
      "short_name": "US",
      "types": [ "country", "political" ]
    } ],
    "geometry": {
      "location": {
        "lat": 34.3684295,
        "lng": -86.9086160
      },
      "location_type": "APPROXIMATE",
      "viewport": {
        "southwest": {
          "lat": 34.3500073,
          "lng": -86.9406308
        },
        "northeast": {
          "lat": 34.3868476,
          "lng": -86.8766012
        }
      },
      "bounds": {
        "southwest": {
          "lat": 34.3629789,
          "lng": -86.9261540
        },
        "northeast": {
          "lat": 34.4043190,
          "lng": -86.8860869
        }
      }
    }
  } ]
}
