{
  "status": "OK",
  "results": [ {
    "types": [ "locality", "political" ],
    "formatted_address": "Flomaton, AL, USA",
    "address_components": [ {
      "long_name": "Flomaton",
      "short_name": "Flomaton",
      "types": [ "locality", "political" ]
    }, {
      "long_name": "Escambia",
      "short_name": "Escambia",
      "types": [ "administrative_area_level_2", "political" ]
    }, {
      "long_name": "Alabama",
      "short_name": "AL",
      "types": [ "administrative_area_level_1", "political" ]
    }, {
      "long_name": "United States",
      "short_name": "US",
      "types": [ "country", "political" ]
    } ],
    "geometry": {
      "location": {
        "lat": 31.0001820,
        "lng": -87.2608070
      },
      "location_type": "APPROXIMATE",
      "viewport": {
        "southwest": {
          "lat": 30.9810516,
          "lng": -87.2928218
        },
        "northeast": {
          "lat": 31.0193086,
          "lng": -87.2287922
        }
      },
      "bounds": {
        "southwest": {
          "lat": 30.9964470,
          "lng": -87.2846770
        },
        "northeast": {
          "lat": 31.0357930,
          "lng": -87.2270379
        }
      }
    }
  } ]
}
