{
  "status": "OK",
  "results": [ {
    "types": [ "locality", "political" ],
    "formatted_address": "Florence, AL, USA",
    "address_components": [ {
      "long_name": "Florence",
      "short_name": "Florence",
      "types": [ "locality", "political" ]
    }, {
      "long_name": "Lauderdale",
      "short_name": "Lauderdale",
      "types": [ "administrative_area_level_2", "political" ]
    }, {
      "long_name": "Alabama",
      "short_name": "AL",
      "types": [ "administrative_area_level_1", "political" ]
    }, {
      "long_name": "United States",
      "short_name": "US",
      "types": [ "country", "political" ]
    } ],
    "geometry": {
      "location": {
        "lat": 34.7998100,
        "lng": -87.6772510
      },
      "location_type": "APPROXIMATE",
      "viewport": {
        "southwest": {
          "lat": 34.7264783,
          "lng": -87.8053104
        },
        "northeast": {
          "lat": 34.8730766,
          "lng": -87.5491916
        }
      },
      "bounds": {
        "southwest": {
          "lat": 34.7789620,
          "lng": -87.7225189
        },
        "northeast": {
          "lat": 34.8876190,
          "lng": -87.5758180
        }
      }
    }
  } ]
}
