{
  "status": "OK",
  "results": [ {
    "types": [ "locality", "political" ],
    "formatted_address": "Fultondale, AL, USA",
    "address_components": [ {
      "long_name": "Fultondale",
      "short_name": "Fultondale",
      "types": [ "locality", "political" ]
    }, {
      "long_name": "Jefferson",
      "short_name": "Jefferson",
      "types": [ "administrative_area_level_2", "political" ]
    }, {
      "long_name": "Alabama",
      "short_name": "AL",
      "types": [ "administrative_area_level_1", "political" ]
    }, {
      "long_name": "United States",
      "short_name": "US",
      "types": [ "country", "political" ]
    } ],
    "geometry": {
      "location": {
        "lat": 33.6048260,
        "lng": -86.7938800
      },
      "location_type": "APPROXIMATE",
      "viewport": {
        "southwest": {
          "lat": 33.5676452,
          "lng": -86.8579097
        },
        "northeast": {
          "lat": 33.6419908,
          "lng": -86.7298503
        }
      },
      "bounds": {
        "southwest": {
          "lat": 33.5788000,
          "lng": -86.8484960
        },
        "northeast": {
          "lat": 33.6805820,
          "lng": -86.7394460
        }
      }
    }
  } ]
}
