{
  "status": "OK",
  "results": [ {
    "types": [ "locality", "political" ],
    "formatted_address": "Fyffe, AL, USA",
    "address_components": [ {
      "long_name": "Fyffe",
      "short_name": "Fyffe",
      "types": [ "locality", "political" ]
    }, {
      "long_name": "DeKalb",
      "short_name": "DeKalb",
      "types": [ "administrative_area_level_2", "political" ]
    }, {
      "long_name": "Alabama",
      "short_name": "AL",
      "types": [ "administrative_area_level_1", "political" ]
    }, {
      "long_name": "United States",
      "short_name": "US",
      "types": [ "country", "political" ]
    } ],
    "geometry": {
      "location": {
        "lat": 34.4467550,
        "lng": -85.9041395
      },
      "location_type": "APPROXIMATE",
      "viewport": {
        "southwest": {
          "lat": 34.4283501,
          "lng": -85.9361543
        },
        "northeast": {
          "lat": 34.4651559,
          "lng": -85.8721247
        }
      },
      "bounds": {
        "southwest": {
          "lat": 34.4264140,
          "lng": -85.9347909
        },
        "northeast": {
          "lat": 34.4736760,
          "lng": -85.8717850
        }
      }
    }
  } ]
}
