{
  "status": "OK",
  "results": [ {
    "types": [ "locality", "political" ],
    "formatted_address": "Grant, AL, USA",
    "address_components": [ {
      "long_name": "Grant",
      "short_name": "Grant",
      "types": [ "locality", "political" ]
    }, {
      "long_name": "Marshall",
      "short_name": "Marshall",
      "types": [ "administrative_area_level_2", "political" ]
    }, {
      "long_name": "Alabama",
      "short_name": "AL",
      "types": [ "administrative_area_level_1", "political" ]
    }, {
      "long_name": "United States",
      "short_name": "US",
      "types": [ "country", "political" ]
    } ],
    "geometry": {
      "location": {
        "lat": 34.5286985,
        "lng": -86.2533163
      },
      "location_type": "APPROXIMATE",
      "viewport": {
        "southwest": {
          "lat": 34.4919207,
          "lng": -86.3173460
        },
        "northeast": {
          "lat": 34.5654601,
          "lng": -86.1892866
        }
      },
      "bounds": {
        "southwest": {
          "lat": 34.4569630,
          "lng": -86.2828930
        },
        "northeast": {
          "lat": 34.5376180,
          "lng": -86.1925140
        }
      }
    }
  } ]
}
