{
  "status": "OK",
  "results": [ {
    "types": [ "locality", "political" ],
    "formatted_address": "Greenville, AL, USA",
    "address_components": [ {
      "long_name": "Greenville",
      "short_name": "Greenville",
      "types": [ "locality", "political" ]
    }, {
      "long_name": "Butler",
      "short_name": "Butler",
      "types": [ "administrative_area_level_2", "political" ]
    }, {
      "long_name": "Alabama",
      "short_name": "AL",
      "types": [ "administrative_area_level_1", "political" ]
    }, {
      "long_name": "United States",
      "short_name": "US",
      "types": [ "country", "political" ]
    } ],
    "geometry": {
      "location": {
        "lat": 31.8295972,
        "lng": -86.6177517
      },
      "location_type": "APPROXIMATE",
      "viewport": {
        "southwest": {
          "lat": 31.7537256,
          "lng": -86.7458111
        },
        "northeast": {
          "lat": 31.9054065,
          "lng": -86.4896923
        }
      },
      "bounds": {
        "southwest": {
          "lat": 31.8019150,
          "lng": -86.7024299
        },
        "northeast": {
          "lat": 31.9121610,
          "lng": -86.5736210
        }
      }
    }
  } ]
}
