{
  "status": "OK",
  "results": [ {
    "types": [ "locality", "political" ],
    "formatted_address": "Hamilton, AL, USA",
    "address_components": [ {
      "long_name": "Hamilton",
      "short_name": "Hamilton",
      "types": [ "locality", "political" ]
    }, {
      "long_name": "Marion",
      "short_name": "Marion",
      "types": [ "administrative_area_level_2", "political" ]
    }, {
      "long_name": "Alabama",
      "short_name": "AL",
      "types": [ "administrative_area_level_1", "political" ]
    }, {
      "long_name": "United States",
      "short_name": "US",
      "types": [ "country", "political" ]
    } ],
    "geometry": {
      "location": {
        "lat": 34.1423235,
        "lng": -87.9886438
      },
      "location_type": "APPROXIMATE",
      "viewport": {
        "southwest": {
          "lat": 34.0684123,
          "lng": -88.1167032
        },
        "northeast": {
          "lat": 34.2161701,
          "lng": -87.8605844
        }
      },
      "bounds": {
        "southwest": {
          "lat": 34.0411200,
          "lng": -88.0659570
        },
        "northeast": {
          "lat": 34.1909170,
          "lng": -87.8878309
        }
      }
    }
  } ]
}
