{
  "status": "OK",
  "results": [ {
    "types": [ "locality", "political" ],
    "formatted_address": "Hayneville, AL, USA",
    "address_components": [ {
      "long_name": "Hayneville",
      "short_name": "Hayneville",
      "types": [ "locality", "political" ]
    }, {
      "long_name": "Lowndes",
      "short_name": "Lowndes",
      "types": [ "administrative_area_level_2", "political" ]
    }, {
      "long_name": "Alabama",
      "short_name": "AL",
      "types": [ "administrative_area_level_1", "political" ]
    }, {
      "long_name": "United States",
      "short_name": "US",
      "types": [ "country", "political" ]
    } ],
    "geometry": {
      "location": {
        "lat": 32.1840315,
        "lng": -86.5802533
      },
      "location_type": "APPROXIMATE",
      "viewport": {
        "southwest": {
          "lat": 32.1745875,
          "lng": -86.5962607
        },
        "northeast": {
          "lat": 32.1934745,
          "lng": -86.5642459
        }
      },
      "bounds": {
        "southwest": {
          "lat": 32.1727810,
          "lng": -86.5917669
        },
        "northeast": {
          "lat": 32.1914760,
          "lng": -86.5660460
        }
      }
    }
  } ]
}
