{
  "status": "OK",
  "results": [ {
    "types": [ "locality", "political" ],
    "formatted_address": "Heflin, AL, USA",
    "address_components": [ {
      "long_name": "Heflin",
      "short_name": "Heflin",
      "types": [ "locality", "political" ]
    }, {
      "long_name": "Cleburne",
      "short_name": "Cleburne",
      "types": [ "administrative_area_level_2", "political" ]
    }, {
      "long_name": "Alabama",
      "short_name": "AL",
      "types": [ "administrative_area_level_1", "political" ]
    }, {
      "long_name": "United States",
      "short_name": "US",
      "types": [ "country", "political" ]
    } ],
    "geometry": {
      "location": {
        "lat": 33.6489947,
        "lng": -85.5874584
      },
      "location_type": "APPROXIMATE",
      "viewport": {
        "southwest": {
          "lat": 33.6118329,
          "lng": -85.6514881
        },
        "northeast": {
          "lat": 33.6861405,
          "lng": -85.5234287
        }
      },
      "bounds": {
        "southwest": {
          "lat": 33.6096320,
          "lng": -85.6162799
        },
        "northeast": {
          "lat": 33.6830710,
          "lng": -85.4958620
        }
      }
    }
  } ]
}
