{
  "status": "OK",
  "results": [ {
    "types": [ "locality", "political" ],
    "formatted_address": "Hobson City, AL, USA",
    "address_components": [ {
      "long_name": "Hobson City",
      "short_name": "Hobson City",
      "types": [ "locality", "political" ]
    }, {
      "long_name": "Calhoun",
      "short_name": "Calhoun",
      "types": [ "administrative_area_level_2", "political" ]
    }, {
      "long_name": "Alabama",
      "short_name": "AL",
      "types": [ "administrative_area_level_1", "political" ]
    }, {
      "long_name": "United States",
      "short_name": "US",
      "types": [ "country", "political" ]
    } ],
    "geometry": {
      "location": {
        "lat": 33.6214934,
        "lng": -85.8441318
      },
      "location_type": "APPROXIMATE",
      "viewport": {
        "southwest": {
          "lat": 33.6029086,
          "lng": -85.8761466
        },
        "northeast": {
          "lat": 33.6400742,
          "lng": -85.8121170
        }
      },
      "bounds": {
        "southwest": {
          "lat": 33.5968660,
          "lng": -85.8820650
        },
        "northeast": {
          "lat": 33.6258500,
          "lng": -85.8335209
        }
      }
    }
  } ]
}
