{
  "status": "OK",
  "results": [ {
    "types": [ "locality", "political" ],
    "formatted_address": "Huntsville, AL, USA",
    "address_components": [ {
      "long_name": "Huntsville",
      "short_name": "Huntsville",
      "types": [ "locality", "political" ]
    }, {
      "long_name": "Madison",
      "short_name": "Madison",
      "types": [ "administrative_area_level_2", "political" ]
    }, {
      "long_name": "Alabama",
      "short_name": "AL",
      "types": [ "administrative_area_level_1", "political" ]
    }, {
      "long_name": "United States",
      "short_name": "US",
      "types": [ "country", "political" ]
    } ],
    "geometry": {
      "location": {
        "lat": 34.7303688,
        "lng": -86.5861037
      },
      "location_type": "APPROXIMATE",
      "viewport": {
        "southwest": {
          "lat": 34.5835170,
          "lng": -86.8422225
        },
        "northeast": {
          "lat": 34.8769602,
          "lng": -86.3299849
        }
      },
      "bounds": {
        "southwest": {
          "lat": 34.5376509,
          "lng": -86.9057040
        },
        "northeast": {
          "lat": 34.8652060,
          "lng": -86.4137949
        }
      }
    }
  } ]
}
