{
  "status": "OK",
  "results": [ {
    "types": [ "locality", "political" ],
    "formatted_address": "Jemison, AL, USA",
    "address_components": [ {
      "long_name": "Jemison",
      "short_name": "Jemison",
      "types": [ "locality", "political" ]
    }, {
      "long_name": "Chilton",
      "short_name": "Chilton",
      "types": [ "administrative_area_level_2", "political" ]
    }, {
      "long_name": "Alabama",
      "short_name": "AL",
      "types": [ "administrative_area_level_1", "political" ]
    }, {
      "long_name": "United States",
      "short_name": "US",
      "types": [ "country", "political" ]
    } ],
    "geometry": {
      "location": {
        "lat": 32.9598451,
        "lng": -86.7466522
      },
      "location_type": "APPROXIMATE",
      "viewport": {
        "southwest": {
          "lat": 32.9223886,
          "lng": -86.8106819
        },
        "northeast": {
          "lat": 32.9972857,
          "lng": -86.6826225
        }
      },
      "bounds": {
        "southwest": {
          "lat": 32.9281880,
          "lng": -86.7628699
        },
        "northeast": {
          "lat": 33.0044950,
          "lng": -86.7173610
        }
      }
    }
  } ]
}
