{
  "status": "OK",
  "results": [ {
    "types": [ "locality", "political" ],
    "formatted_address": "Lafayette, AL, USA",
    "address_components": [ {
      "long_name": "Lafayette",
      "short_name": "Lafayette",
      "types": [ "locality", "political" ]
    }, {
      "long_name": "Chambers",
      "short_name": "Chambers",
      "types": [ "administrative_area_level_2", "political" ]
    }, {
      "long_name": "Alabama",
      "short_name": "AL",
      "types": [ "administrative_area_level_1", "political" ]
    }, {
      "long_name": "United States",
      "short_name": "US",
      "types": [ "country", "political" ]
    } ],
    "geometry": {
      "location": {
        "lat": 32.8998485,
        "lng": -85.4010593
      },
      "location_type": "APPROXIMATE",
      "viewport": {
        "southwest": {
          "lat": 32.8811095,
          "lng": -85.4330741
        },
        "northeast": {
          "lat": 32.9185835,
          "lng": -85.3690445
        }
      },
      "bounds": {
        "southwest": {
          "lat": 32.8766800,
          "lng": -85.4265449
        },
        "northeast": {
          "lat": 32.9218890,
          "lng": -85.3743970
        }
      }
    }
  } ]
}
