{
  "status": "OK",
  "results": [ {
    "types": [ "locality", "political" ],
    "formatted_address": "Lanett, AL, USA",
    "address_components": [ {
      "long_name": "Lanett",
      "short_name": "Lanett",
      "types": [ "locality", "political" ]
    }, {
      "long_name": "Chambers",
      "short_name": "Chambers",
      "types": [ "administrative_area_level_2", "political" ]
    }, {
      "long_name": "Alabama",
      "short_name": "AL",
      "types": [ "administrative_area_level_1", "political" ]
    }, {
      "long_name": "United States",
      "short_name": "US",
      "types": [ "country", "political" ]
    } ],
    "geometry": {
      "location": {
        "lat": 32.8687391,
        "lng": -85.1904971
      },
      "location_type": "APPROXIMATE",
      "viewport": {
        "southwest": {
          "lat": 32.8312441,
          "lng": -85.2545268
        },
        "northeast": {
          "lat": 32.9062183,
          "lng": -85.1264674
        }
      },
      "bounds": {
        "southwest": {
          "lat": 32.8072049,
          "lng": -85.2402159
        },
        "northeast": {
          "lat": 32.8937540,
          "lng": -85.1788450
        }
      }
    }
  } ]
}
