{
  "status": "OK",
  "results": [ {
    "types": [ "locality", "political" ],
    "formatted_address": "Livingston, AL, USA",
    "address_components": [ {
      "long_name": "Livingston",
      "short_name": "Livingston",
      "types": [ "locality", "political" ]
    }, {
      "long_name": "Sumter",
      "short_name": "Sumter",
      "types": [ "administrative_area_level_2", "political" ]
    }, {
      "long_name": "Alabama",
      "short_name": "AL",
      "types": [ "administrative_area_level_1", "political" ]
    }, {
      "long_name": "United States",
      "short_name": "US",
      "types": [ "country", "political" ]
    } ],
    "geometry": {
      "location": {
        "lat": 32.5843025,
        "lng": -88.1872475
      },
      "location_type": "APPROXIMATE",
      "viewport": {
        "southwest": {
          "lat": 32.5466877,
          "lng": -88.2512772
        },
        "northeast": {
          "lat": 32.6219015,
          "lng": -88.1232178
        }
      },
      "bounds": {
        "southwest": {
          "lat": 32.5601190,
          "lng": -88.2174520
        },
        "northeast": {
          "lat": 32.6367009,
          "lng": -88.1651569
        }
      }
    }
  } ]
}
