{
  "status": "OK",
  "results": [ {
    "types": [ "locality", "political" ],
    "formatted_address": "Luverne, AL, USA",
    "address_components": [ {
      "long_name": "Luverne",
      "short_name": "Luverne",
      "types": [ "locality", "political" ]
    }, {
      "long_name": "Crenshaw",
      "short_name": "Crenshaw",
      "types": [ "administrative_area_level_2", "political" ]
    }, {
      "long_name": "Alabama",
      "short_name": "AL",
      "types": [ "administrative_area_level_1", "political" ]
    }, {
      "long_name": "United States",
      "short_name": "US",
      "types": [ "country", "political" ]
    } ],
    "geometry": {
      "location": {
        "lat": 31.7165455,
        "lng": -86.2638492
      },
      "location_type": "APPROXIMATE",
      "viewport": {
        "southwest": {
          "lat": 31.6785711,
          "lng": -86.3278789
        },
        "northeast": {
          "lat": 31.7545043,
          "lng": -86.1998195
        }
      },
      "bounds": {
        "southwest": {
          "lat": 31.6741630,
          "lng": -86.3009570
        },
        "northeast": {
          "lat": 31.7676220,
          "lng": -86.2369870
        }
      }
    }
  } ]
}
