{
  "status": "OK",
  "results": [ {
    "types": [ "locality", "political" ],
    "formatted_address": "Millbrook, AL, USA",
    "address_components": [ {
      "long_name": "Millbrook",
      "short_name": "Millbrook",
      "types": [ "locality", "political" ]
    }, {
      "long_name": "Elmore",
      "short_name": "Elmore",
      "types": [ "administrative_area_level_2", "political" ]
    }, {
      "long_name": "Alabama",
      "short_name": "AL",
      "types": [ "administrative_area_level_1", "political" ]
    }, {
      "long_name": "United States",
      "short_name": "US",
      "types": [ "country", "political" ]
    } ],
    "geometry": {
      "location": {
        "lat": 32.4798575,
        "lng": -86.3619163
      },
      "location_type": "APPROXIMATE",
      "viewport": {
        "southwest": {
          "lat": 32.4421990,
          "lng": -86.4259460
        },
        "northeast": {
          "lat": 32.5175003,
          "lng": -86.2978866
        }
      },
      "bounds": {
        "southwest": {
          "lat": 32.4468759,
          "lng": -86.4194490
        },
        "northeast": {
          "lat": 32.5704480,
          "lng": -86.3334510
        }
      }
    }
  } ]
}
