{
  "status": "OK",
  "results": [ {
    "types": [ "locality", "political" ],
    "formatted_address": "Monroeville, AL, USA",
    "address_components": [ {
      "long_name": "Monroeville",
      "short_name": "Monroeville",
      "types": [ "locality", "political" ]
    }, {
      "long_name": "Monroe",
      "short_name": "Monroe",
      "types": [ "administrative_area_level_2", "political" ]
    }, {
      "long_name": "Alabama",
      "short_name": "AL",
      "types": [ "administrative_area_level_1", "political" ]
    }, {
      "long_name": "United States",
      "short_name": "US",
      "types": [ "country", "political" ]
    } ],
    "geometry": {
      "location": {
        "lat": 31.5279399,
        "lng": -87.3247077
      },
      "location_type": "APPROXIMATE",
      "viewport": {
        "southwest": {
          "lat": 31.4898885,
          "lng": -87.3887374
        },
        "northeast": {
          "lat": 31.5659758,
          "lng": -87.2606780
        }
      },
      "bounds": {
        "southwest": {
          "lat": 31.4733700,
          "lng": -87.3660450
        },
        "northeast": {
          "lat": 31.5492420,
          "lng": -87.3016700
        }
      }
    }
  } ]
}
