{
  "status": "OK",
  "results": [ {
    "types": [ "locality", "political" ],
    "formatted_address": "Ohatchee, AL, USA",
    "address_components": [ {
      "long_name": "Ohatchee",
      "short_name": "Ohatchee",
      "types": [ "locality", "political" ]
    }, {
      "long_name": "Calhoun",
      "short_name": "Calhoun",
      "types": [ "administrative_area_level_2", "political" ]
    }, {
      "long_name": "Alabama",
      "short_name": "AL",
      "types": [ "administrative_area_level_1", "political" ]
    }, {
      "long_name": "United States",
      "short_name": "US",
      "types": [ "country", "political" ]
    } ],
    "geometry": {
      "location": {
        "lat": 33.7834324,
        "lng": -86.0024703
      },
      "location_type": "APPROXIMATE",
      "viewport": {
        "southwest": {
          "lat": 33.7463287,
          "lng": -86.0665000
        },
        "northeast": {
          "lat": 33.8205200,
          "lng": -85.9384406
        }
      },
      "bounds": {
        "southwest": {
          "lat": 33.7602190,
          "lng": -86.0619190
        },
        "northeast": {
          "lat": 33.8416090,
          "lng": -85.9996640
        }
      }
    }
  } ]
}
