{
  "status": "OK",
  "results": [ {
    "types": [ "locality", "political" ],
    "formatted_address": "Orange Beach, AL, USA",
    "address_components": [ {
      "long_name": "Orange Beach",
      "short_name": "Orange Beach",
      "types": [ "locality", "political" ]
    }, {
      "long_name": "Baldwin",
      "short_name": "Baldwin",
      "types": [ "administrative_area_level_2", "political" ]
    }, {
      "long_name": "Alabama",
      "short_name": "AL",
      "types": [ "administrative_area_level_1", "political" ]
    }, {
      "long_name": "United States",
      "short_name": "US",
      "types": [ "country", "political" ]
    } ],
    "geometry": {
      "location": {
        "lat": 30.2943681,
        "lng": -87.5735935
      },
      "location_type": "APPROXIMATE",
      "viewport": {
        "southwest": {
          "lat": 30.2558233,
          "lng": -87.6376232
        },
        "northeast": {
          "lat": 30.3328978,
          "lng": -87.5095638
        }
      },
      "bounds": {
        "southwest": {
          "lat": 30.2545410,
          "lng": -87.6499080
        },
        "northeast": {
          "lat": 30.3400400,
          "lng": -87.5140909
        }
      }
    }
  } ]
}
