{
  "status": "OK",
  "results": [ {
    "types": [ "locality", "political" ],
    "formatted_address": "Pelham, AL, USA",
    "address_components": [ {
      "long_name": "Pelham",
      "short_name": "Pelham",
      "types": [ "locality", "political" ]
    }, {
      "long_name": "Shelby",
      "short_name": "Shelby",
      "types": [ "administrative_area_level_2", "political" ]
    }, {
      "long_name": "Alabama",
      "short_name": "AL",
      "types": [ "administrative_area_level_1", "political" ]
    }, {
      "long_name": "United States",
      "short_name": "US",
      "types": [ "country", "political" ]
    } ],
    "geometry": {
      "location": {
        "lat": 33.2856687,
        "lng": -86.8099885
      },
      "location_type": "APPROXIMATE",
      "viewport": {
        "southwest": {
          "lat": 33.2110171,
          "lng": -86.9380479
        },
        "northeast": {
          "lat": 33.3602565,
          "lng": -86.6819291
        }
      },
      "bounds": {
        "southwest": {
          "lat": 33.2424040,
          "lng": -86.8361740
        },
        "northeast": {
          "lat": 33.3903229,
          "lng": -86.6661290
        }
      }
    }
  } ]
}
