{
  "status": "OK",
  "results": [ {
    "types": [ "locality", "political" ],
    "formatted_address": "Pennington, AL, USA",
    "address_components": [ {
      "long_name": "Pennington",
      "short_name": "Pennington",
      "types": [ "locality", "political" ]
    }, {
      "long_name": "Choctaw",
      "short_name": "Choctaw",
      "types": [ "administrative_area_level_2", "political" ]
    }, {
      "long_name": "Alabama",
      "short_name": "AL",
      "types": [ "administrative_area_level_1", "political" ]
    }, {
      "long_name": "United States",
      "short_name": "US",
      "types": [ "country", "political" ]
    } ],
    "geometry": {
      "location": {
        "lat": 32.2070888,
        "lng": -88.0561287
      },
      "location_type": "APPROXIMATE",
      "viewport": {
        "southwest": {
          "lat": 32.1882047,
          "lng": -88.0881435
        },
        "northeast": {
          "lat": 32.2259690,
          "lng": -88.0241139
        }
      },
      "bounds": {
        "southwest": {
          "lat": 32.1819550,
          "lng": -88.0635130
        },
        "northeast": {
          "lat": 32.2152940,
          "lng": -88.0325670
        }
      }
    }
  } ]
}
