{
  "status": "OK",
  "results": [ {
    "types": [ "locality", "political" ],
    "formatted_address": "Prichard, AL, USA",
    "address_components": [ {
      "long_name": "Prichard",
      "short_name": "Prichard",
      "types": [ "locality", "political" ]
    }, {
      "long_name": "Mobile",
      "short_name": "Mobile",
      "types": [ "administrative_area_level_2", "political" ]
    }, {
      "long_name": "Alabama",
      "short_name": "AL",
      "types": [ "administrative_area_level_1", "political" ]
    }, {
      "long_name": "United States",
      "short_name": "US",
      "types": [ "country", "political" ]
    } ],
    "geometry": {
      "location": {
        "lat": 30.7387998,
        "lng": -88.0788889
      },
      "location_type": "APPROXIMATE",
      "viewport": {
        "southwest": {
          "lat": 30.6620464,
          "lng": -88.2069483
        },
        "northeast": {
          "lat": 30.8154921,
          "lng": -87.9508295
        }
      },
      "bounds": {
        "southwest": {
          "lat": 30.7189760,
          "lng": -88.1807480
        },
        "northeast": {
          "lat": 30.8225710,
          "lng": -88.0618779
        }
      }
    }
  } ]
}
