{
  "status": "OK",
  "results": [ {
    "types": [ "locality", "political" ],
    "formatted_address": "Robertsdale, AL, USA",
    "address_components": [ {
      "long_name": "Robertsdale",
      "short_name": "Robertsdale",
      "types": [ "locality", "political" ]
    }, {
      "long_name": "Baldwin",
      "short_name": "Baldwin",
      "types": [ "administrative_area_level_2", "political" ]
    }, {
      "long_name": "Alabama",
      "short_name": "AL",
      "types": [ "administrative_area_level_1", "political" ]
    }, {
      "long_name": "United States",
      "short_name": "US",
      "types": [ "country", "political" ]
    } ],
    "geometry": {
      "location": {
        "lat": 30.5538048,
        "lng": -87.7119324
      },
      "location_type": "APPROXIMATE",
      "viewport": {
        "southwest": {
          "lat": 30.5345854,
          "lng": -87.7439472
        },
        "northeast": {
          "lat": 30.5730204,
          "lng": -87.6799176
        }
      },
      "bounds": {
        "southwest": {
          "lat": 30.5309960,
          "lng": -87.7343329
        },
        "northeast": {
          "lat": 30.5708110,
          "lng": -87.6754759
        }
      }
    }
  } ]
}
