{
  "status": "OK",
  "results": [ {
    "types": [ "locality", "political" ],
    "formatted_address": "Saraland, AL, USA",
    "address_components": [ {
      "long_name": "Saraland",
      "short_name": "Saraland",
      "types": [ "locality", "political" ]
    }, {
      "long_name": "Mobile",
      "short_name": "Mobile",
      "types": [ "administrative_area_level_2", "political" ]
    }, {
      "long_name": "Alabama",
      "short_name": "AL",
      "types": [ "administrative_area_level_1", "political" ]
    }, {
      "long_name": "United States",
      "short_name": "US",
      "types": [ "country", "political" ]
    } ],
    "geometry": {
      "location": {
        "lat": 30.8207420,
        "lng": -88.0705556
      },
      "location_type": "APPROXIMATE",
      "viewport": {
        "southwest": {
          "lat": 30.7440538,
          "lng": -88.1986150
        },
        "northeast": {
          "lat": 30.8973690,
          "lng": -87.9424962
        }
      },
      "bounds": {
        "southwest": {
          "lat": 30.7776910,
          "lng": -88.1572860
        },
        "northeast": {
          "lat": 30.9083570,
          "lng": -88.0297439
        }
      }
    }
  } ]
}
