{
  "status": "OK",
  "results": [ {
    "types": [ "locality", "political" ],
    "formatted_address": "Sardis City, AL, USA",
    "address_components": [ {
      "long_name": "Sardis City",
      "short_name": "Sardis City",
      "types": [ "locality", "political" ]
    }, {
      "long_name": "Etowah",
      "short_name": "Etowah",
      "types": [ "administrative_area_level_2", "political" ]
    }, {
      "long_name": "Alabama",
      "short_name": "AL",
      "types": [ "administrative_area_level_1", "political" ]
    }, {
      "long_name": "United States",
      "short_name": "US",
      "types": [ "country", "political" ]
    } ],
    "geometry": {
      "location": {
        "lat": 34.1742616,
        "lng": -86.1227533
      },
      "location_type": "APPROXIMATE",
      "viewport": {
        "southwest": {
          "lat": 34.1557968,
          "lng": -86.1547681
        },
        "northeast": {
          "lat": 34.1927223,
          "lng": -86.0907385
        }
      },
      "bounds": {
        "southwest": {
          "lat": 34.1523980,
          "lng": -86.1479009
        },
        "northeast": {
          "lat": 34.2007560,
          "lng": -86.0834859
        }
      }
    }
  } ]
}
