{
  "status": "OK",
  "results": [ {
    "types": [ "locality", "political" ],
    "formatted_address": "Selma, AL, USA",
    "address_components": [ {
      "long_name": "Selma",
      "short_name": "Selma",
      "types": [ "locality", "political" ]
    }, {
      "long_name": "Dallas",
      "short_name": "Dallas",
      "types": [ "administrative_area_level_2", "political" ]
    }, {
      "long_name": "Alabama",
      "short_name": "AL",
      "types": [ "administrative_area_level_1", "political" ]
    }, {
      "long_name": "United States",
      "short_name": "US",
      "types": [ "country", "political" ]
    } ],
    "geometry": {
      "location": {
        "lat": 32.4073589,
        "lng": -87.0211007
      },
      "location_type": "APPROXIMATE",
      "viewport": {
        "southwest": {
          "lat": 32.3696701,
          "lng": -87.0851304
        },
        "northeast": {
          "lat": 32.4450320,
          "lng": -86.9570710
        }
      },
      "bounds": {
        "southwest": {
          "lat": 32.3841630,
          "lng": -87.0910880
        },
        "northeast": {
          "lat": 32.4515090,
          "lng": -86.9710400
        }
      }
    }
  } ]
}
