{
  "status": "OK",
  "results": [ {
    "types": [ "locality", "political" ],
    "formatted_address": "Slocomb, AL, USA",
    "address_components": [ {
      "long_name": "Slocomb",
      "short_name": "Slocomb",
      "types": [ "locality", "political" ]
    }, {
      "long_name": "Geneva",
      "short_name": "Geneva",
      "types": [ "administrative_area_level_2", "political" ]
    }, {
      "long_name": "Alabama",
      "short_name": "AL",
      "types": [ "administrative_area_level_1", "political" ]
    }, {
      "long_name": "United States",
      "short_name": "US",
      "types": [ "country", "political" ]
    } ],
    "geometry": {
      "location": {
        "lat": 31.1082335,
        "lng": -85.5943780
      },
      "location_type": "APPROXIMATE",
      "viewport": {
        "southwest": {
          "lat": 31.0891248,
          "lng": -85.6263928
        },
        "northeast": {
          "lat": 31.1273384,
          "lng": -85.5623632
        }
      },
      "bounds": {
        "southwest": {
          "lat": 31.0876110,
          "lng": -85.6214480
        },
        "northeast": {
          "lat": 31.1329130,
          "lng": -85.5680579
        }
      }
    }
  } ]
}
