{
  "status": "OK",
  "results": [ {
    "types": [ "locality", "political" ],
    "formatted_address": "Spanish Fort, AL, USA",
    "address_components": [ {
      "long_name": "Spanish Fort",
      "short_name": "Spanish Fort",
      "types": [ "locality", "political" ]
    }, {
      "long_name": "Baldwin",
      "short_name": "Baldwin",
      "types": [ "administrative_area_level_2", "political" ]
    }, {
      "long_name": "Alabama",
      "short_name": "AL",
      "types": [ "administrative_area_level_1", "political" ]
    }, {
      "long_name": "United States",
      "short_name": "US",
      "types": [ "country", "political" ]
    } ],
    "geometry": {
      "location": {
        "lat": 30.6687230,
        "lng": -87.9221790
      },
      "location_type": "APPROXIMATE",
      "viewport": {
        "southwest": {
          "lat": 30.6303261,
          "lng": -87.9862087
        },
        "northeast": {
          "lat": 30.7071047,
          "lng": -87.8581493
        }
      },
      "bounds": {
        "southwest": {
          "lat": 30.6568850,
          "lng": -88.0058409
        },
        "northeast": {
          "lat": 30.7061110,
          "lng": -87.8264839
        }
      }
    }
  } ]
}
