{
  "status": "OK",
  "results": [ {
    "types": [ "locality", "political" ],
    "formatted_address": "Sylvania, AL, USA",
    "address_components": [ {
      "long_name": "Sylvania",
      "short_name": "Sylvania",
      "types": [ "locality", "political" ]
    }, {
      "long_name": "DeKalb",
      "short_name": "DeKalb",
      "types": [ "administrative_area_level_2", "political" ]
    }, {
      "long_name": "Alabama",
      "short_name": "AL",
      "types": [ "administrative_area_level_1", "political" ]
    }, {
      "long_name": "United States",
      "short_name": "US",
      "types": [ "country", "political" ]
    } ],
    "geometry": {
      "location": {
        "lat": 34.5623077,
        "lng": -85.8124715
      },
      "location_type": "APPROXIMATE",
      "viewport": {
        "southwest": {
          "lat": 34.5255447,
          "lng": -85.8765012
        },
        "northeast": {
          "lat": 34.5990544,
          "lng": -85.7484418
        }
      },
      "bounds": {
        "southwest": {
          "lat": 34.5327709,
          "lng": -85.8568389
        },
        "northeast": {
          "lat": 34.5910910,
          "lng": -85.7546710
        }
      }
    }
  } ]
}
