{
  "status": "OK",
  "results": [ {
    "types": [ "locality", "political" ],
    "formatted_address": "Tallassee, AL, USA",
    "address_components": [ {
      "long_name": "Tallassee",
      "short_name": "Tallassee",
      "types": [ "locality", "political" ]
    }, {
      "long_name": "Elmore",
      "short_name": "Elmore",
      "types": [ "administrative_area_level_2", "political" ]
    }, {
      "long_name": "Alabama",
      "short_name": "AL",
      "types": [ "administrative_area_level_1", "political" ]
    }, {
      "long_name": "United States",
      "short_name": "US",
      "types": [ "country", "political" ]
    } ],
    "geometry": {
      "location": {
        "lat": 32.5359683,
        "lng": -85.8932923
      },
      "location_type": "APPROXIMATE",
      "viewport": {
        "southwest": {
          "lat": 32.4983333,
          "lng": -85.9573220
        },
        "northeast": {
          "lat": 32.5735876,
          "lng": -85.8292626
        }
      },
      "bounds": {
        "southwest": {
          "lat": 32.4752280,
          "lng": -85.9404540
        },
        "northeast": {
          "lat": 32.5765830,
          "lng": -85.8410119
        }
      }
    }
  } ]
}
