{
  "status": "OK",
  "results": [ {
    "types": [ "locality", "political" ],
    "formatted_address": "Thomasville, AL, USA",
    "address_components": [ {
      "long_name": "Thomasville",
      "short_name": "Thomasville",
      "types": [ "locality", "political" ]
    }, {
      "long_name": "Clarke",
      "short_name": "Clarke",
      "types": [ "administrative_area_level_2", "political" ]
    }, {
      "long_name": "Alabama",
      "short_name": "AL",
      "types": [ "administrative_area_level_1", "political" ]
    }, {
      "long_name": "United States",
      "short_name": "US",
      "types": [ "country", "political" ]
    } ],
    "geometry": {
      "location": {
        "lat": 31.9134859,
        "lng": -87.7358366
      },
      "location_type": "APPROXIMATE",
      "viewport": {
        "southwest": {
          "lat": 31.8755924,
          "lng": -87.7998663
        },
        "northeast": {
          "lat": 31.9513638,
          "lng": -87.6718069
        }
      },
      "bounds": {
        "southwest": {
          "lat": 31.8623860,
          "lng": -87.7678739
        },
        "northeast": {
          "lat": 31.9473700,
          "lng": -87.7172509
        }
      }
    }
  } ]
}
