{
  "status": "OK",
  "results": [ {
    "types": [ "locality", "political" ],
    "formatted_address": "Thorsby, AL, USA",
    "address_components": [ {
      "long_name": "Thorsby",
      "short_name": "Thorsby",
      "types": [ "locality", "political" ]
    }, {
      "long_name": "Chilton",
      "short_name": "Chilton",
      "types": [ "administrative_area_level_2", "political" ]
    }, {
      "long_name": "Alabama",
      "short_name": "AL",
      "types": [ "administrative_area_level_1", "political" ]
    }, {
      "long_name": "United States",
      "short_name": "US",
      "types": [ "country", "political" ]
    } ],
    "geometry": {
      "location": {
        "lat": 32.9156796,
        "lng": -86.7158178
      },
      "location_type": "APPROXIMATE",
      "viewport": {
        "southwest": {
          "lat": 32.8969440,
          "lng": -86.7478326
        },
        "northeast": {
          "lat": 32.9344112,
          "lng": -86.6838030
        }
      },
      "bounds": {
        "southwest": {
          "lat": 32.8970140,
          "lng": -86.7542019
        },
        "northeast": {
          "lat": 32.9334130,
          "lng": -86.6933409
        }
      }
    }
  } ]
}
