{
  "status": "OK",
  "results": [ {
    "types": [ "locality", "political" ],
    "formatted_address": "Wedowee, AL, USA",
    "address_components": [ {
      "long_name": "Wedowee",
      "short_name": "Wedowee",
      "types": [ "locality", "political" ]
    }, {
      "long_name": "Randolph",
      "short_name": "Randolph",
      "types": [ "administrative_area_level_2", "political" ]
    }, {
      "long_name": "Alabama",
      "short_name": "AL",
      "types": [ "administrative_area_level_1", "political" ]
    }, {
      "long_name": "United States",
      "short_name": "US",
      "types": [ "country", "political" ]
    } ],
    "geometry": {
      "location": {
        "lat": 33.3090047,
        "lng": -85.4846750
      },
      "location_type": "APPROXIMATE",
      "viewport": {
        "southwest": {
          "lat": 33.2903528,
          "lng": -85.5166898
        },
        "northeast": {
          "lat": 33.3276526,
          "lng": -85.4526602
        }
      },
      "bounds": {
        "southwest": {
          "lat": 33.2820970,
          "lng": -85.5111450
        },
        "northeast": {
          "lat": 33.3291819,
          "lng": -85.4641760
        }
      }
    }
  } ]
}
