{
  "status": "OK",
  "results": [ {
    "types": [ "locality", "political" ],
    "formatted_address": "Evansville, WY, USA",
    "address_components": [ {
      "long_name": "Evansville",
      "short_name": "Evansville",
      "types": [ "locality", "political" ]
    }, {
      "long_name": "Natrona",
      "short_name": "Natrona",
      "types": [ "administrative_area_level_2", "political" ]
    }, {
      "long_name": "Wyoming",
      "short_name": "WY",
      "types": [ "administrative_area_level_1", "political" ]
    }, {
      "long_name": "United States",
      "short_name": "US",
      "types": [ "country", "political" ]
    } ],
    "geometry": {
      "location": {
        "lat": 42.8599653,
        "lng": -106.2683566
      },
      "location_type": "APPROXIMATE",
      "viewport": {
        "southwest": {
          "lat": 42.8272406,
          "lng": -106.3323863
        },
        "northeast": {
          "lat": 42.8926727,
          "lng": -106.2043269
        }
      },
      "bounds": {
        "southwest": {
          "lat": 42.8459460,
          "lng": -106.2793790
        },
        "northeast": {
          "lat": 42.8928930,
          "lng": -106.2140370
        }
      }
    }
  } ]
}
