{
  "status": "OK",
  "results": [ {
    "types": [ "locality", "political" ],
    "formatted_address": "Moorcroft, WY, USA",
    "address_components": [ {
      "long_name": "Moorcroft",
      "short_name": "Moorcroft",
      "types": [ "locality", "political" ]
    }, {
      "long_name": "Crook",
      "short_name": "Crook",
      "types": [ "administrative_area_level_2", "political" ]
    }, {
      "long_name": "Wyoming",
      "short_name": "WY",
      "types": [ "administrative_area_level_1", "political" ]
    }, {
      "long_name": "United States",
      "short_name": "US",
      "types": [ "country", "political" ]
    } ],
    "geometry": {
      "location": {
        "lat": 44.2633149,
        "lng": -104.9502538
      },
      "location_type": "APPROXIMATE",
      "viewport": {
        "southwest": {
          "lat": 44.2313435,
          "lng": -105.0142835
        },
        "northeast": {
          "lat": 44.2952689,
          "lng": -104.8862241
        }
      },
      "bounds": {
        "southwest": {
          "lat": 44.2570009,
          "lng": -104.9735540
        },
        "northeast": {
          "lat": 44.2838930,
          "lng": -104.8384490
        }
      }
    }
  } ]
}
