{
  "status": "OK",
  "results": [ {
    "types": [ "locality", "political" ],
    "formatted_address": "Saratoga, WY, USA",
    "address_components": [ {
      "long_name": "Saratoga",
      "short_name": "Saratoga",
      "types": [ "locality", "political" ]
    }, {
      "long_name": "Carbon",
      "short_name": "Carbon",
      "types": [ "administrative_area_level_2", "political" ]
    }, {
      "long_name": "Wyoming",
      "short_name": "WY",
      "types": [ "administrative_area_level_1", "political" ]
    }, {
      "long_name": "United States",
      "short_name": "US",
      "types": [ "country", "political" ]
    } ],
    "geometry": {
      "location": {
        "lat": 41.4549621,
        "lng": -106.8064263
      },
      "location_type": "APPROXIMATE",
      "viewport": {
        "southwest": {
          "lat": 41.4382346,
          "lng": -106.8384411
        },
        "northeast": {
          "lat": 41.4716852,
          "lng": -106.7744115
        }
      },
      "bounds": {
        "southwest": {
          "lat": 41.4370330,
          "lng": -106.8426440
        },
        "northeast": {
          "lat": 41.4707000,
          "lng": -106.7762790
        }
      }
    }
  } ]
}
