{
  "status": "OK",
  "results": [ {
    "types": [ "locality", "political" ],
    "formatted_address": "Wheatland, WY, USA",
    "address_components": [ {
      "long_name": "Wheatland",
      "short_name": "Wheatland",
      "types": [ "locality", "political" ]
    }, {
      "long_name": "Platte",
      "short_name": "Platte",
      "types": [ "administrative_area_level_2", "political" ]
    }, {
      "long_name": "Wyoming",
      "short_name": "WY",
      "types": [ "administrative_area_level_1", "political" ]
    }, {
      "long_name": "United States",
      "short_name": "US",
      "types": [ "country", "political" ]
    } ],
    "geometry": {
      "location": {
        "lat": 42.0544141,
        "lng": -104.9527501
      },
      "location_type": "APPROXIMATE",
      "viewport": {
        "southwest": {
          "lat": 42.0378421,
          "lng": -104.9847649
        },
        "northeast": {
          "lat": 42.0709818,
          "lng": -104.9207353
        }
      },
      "bounds": {
        "southwest": {
          "lat": 42.0311109,
          "lng": -104.9825070
        },
        "northeast": {
          "lat": 42.0760200,
          "lng": -104.9146950
        }
      }
    }
  } ]
}
