{
  "status": "OK",
  "results": [ {
    "types": [ "locality", "political" ],
    "formatted_address": "Allen, OK 74825, USA",
    "address_components": [ {
      "long_name": "Allen",
      "short_name": "Allen",
      "types": [ "locality", "political" ]
    }, {
      "long_name": "Northeast Pontotoc",
      "short_name": "Northeast Pontotoc",
      "types": [ "administrative_area_level_3", "political" ]
    }, {
      "long_name": "Pontotoc",
      "short_name": "Pontotoc",
      "types": [ "administrative_area_level_2", "political" ]
    }, {
      "long_name": "Oklahoma",
      "short_name": "OK",
      "types": [ "administrative_area_level_1", "political" ]
    }, {
      "long_name": "United States",
      "short_name": "US",
      "types": [ "country", "political" ]
    }, {
      "long_name": "74825",
      "short_name": "74825",
      "types": [ "postal_code" ]
    } ],
    "geometry": {
      "location": {
        "lat": 34.8789766,
        "lng": -96.4125075
      },
      "location_type": "APPROXIMATE",
      "viewport": {
        "southwest": {
          "lat": 34.8698225,
          "lng": -96.4285149
        },
        "northeast": {
          "lat": 34.8881297,
          "lng": -96.3965001
        }
      },
      "bounds": {
        "southwest": {
          "lat": 34.8690900,
          "lng": -96.4240470
        },
        "northeast": {
          "lat": 34.8879760,
          "lng": -96.4013169
        }
      }
    }
  } ]
}
