{
  "status": "OK",
  "results": [ {
    "types": [ "locality", "political" ],
    "formatted_address": "Blackwell, OK, USA",
    "address_components": [ {
      "long_name": "Blackwell",
      "short_name": "Blackwell",
      "types": [ "locality", "political" ]
    }, {
      "long_name": "Kay",
      "short_name": "Kay",
      "types": [ "administrative_area_level_2", "political" ]
    }, {
      "long_name": "Oklahoma",
      "short_name": "OK",
      "types": [ "administrative_area_level_1", "political" ]
    }, {
      "long_name": "United States",
      "short_name": "US",
      "types": [ "country", "political" ]
    } ],
    "geometry": {
      "location": {
        "lat": 36.8044767,
        "lng": -97.2828207
      },
      "location_type": "APPROXIMATE",
      "viewport": {
        "southwest": {
          "lat": 36.7687322,
          "lng": -97.3468504
        },
        "northeast": {
          "lat": 36.8402045,
          "lng": -97.2187910
        }
      },
      "bounds": {
        "southwest": {
          "lat": 36.7814730,
          "lng": -97.3484249
        },
        "northeast": {
          "lat": 36.8187310,
          "lng": -97.2694700
        }
      }
    }
  } ]
}
