{
  "status": "OK",
  "results": [ {
    "types": [ "locality", "political" ],
    "formatted_address": "Cherokee, OK, USA",
    "address_components": [ {
      "long_name": "Cherokee",
      "short_name": "Cherokee",
      "types": [ "locality", "political" ]
    }, {
      "long_name": "Alfalfa",
      "short_name": "Alfalfa",
      "types": [ "administrative_area_level_2", "political" ]
    }, {
      "long_name": "Oklahoma",
      "short_name": "OK",
      "types": [ "administrative_area_level_1", "political" ]
    }, {
      "long_name": "United States",
      "short_name": "US",
      "types": [ "country", "political" ]
    } ],
    "geometry": {
      "location": {
        "lat": 36.7544746,
        "lng": -98.3567403
      },
      "location_type": "APPROXIMATE",
      "viewport": {
        "southwest": {
          "lat": 36.7455342,
          "lng": -98.3727477
        },
        "northeast": {
          "lat": 36.7634139,
          "lng": -98.3407329
        }
      },
      "bounds": {
        "southwest": {
          "lat": 36.7391510,
          "lng": -98.3669180
        },
        "northeast": {
          "lat": 36.7682239,
          "lng": -98.3421949
        }
      }
    }
  } ]
}
