{
  "status": "OK",
  "results": [ {
    "types": [ "locality", "political" ],
    "formatted_address": "Chickasha, OK, USA",
    "address_components": [ {
      "long_name": "Chickasha",
      "short_name": "Chickasha",
      "types": [ "locality", "political" ]
    }, {
      "long_name": "Grady",
      "short_name": "Grady",
      "types": [ "administrative_area_level_2", "political" ]
    }, {
      "long_name": "Oklahoma",
      "short_name": "OK",
      "types": [ "administrative_area_level_1", "political" ]
    }, {
      "long_name": "United States",
      "short_name": "US",
      "types": [ "country", "political" ]
    } ],
    "geometry": {
      "location": {
        "lat": 35.0525650,
        "lng": -97.9364326
      },
      "location_type": "APPROXIMATE",
      "viewport": {
        "southwest": {
          "lat": 34.9794586,
          "lng": -98.0644920
        },
        "northeast": {
          "lat": 35.1256060,
          "lng": -97.8083732
        }
      },
      "bounds": {
        "southwest": {
          "lat": 34.9712929,
          "lng": -98.0053049
        },
        "northeast": {
          "lat": 35.1094019,
          "lng": -97.8552869
        }
      }
    }
  } ]
}
