{
  "status": "OK",
  "results": [ {
    "types": [ "locality", "political" ],
    "formatted_address": "Choctaw, OK, USA",
    "address_components": [ {
      "long_name": "Choctaw",
      "short_name": "Choctaw",
      "types": [ "locality", "political" ]
    }, {
      "long_name": "Oklahoma City",
      "short_name": "Oklahoma City",
      "types": [ "administrative_area_level_3", "political" ]
    }, {
      "long_name": "Oklahoma",
      "short_name": "Oklahoma",
      "types": [ "administrative_area_level_2", "political" ]
    }, {
      "long_name": "Oklahoma",
      "short_name": "OK",
      "types": [ "administrative_area_level_1", "political" ]
    }, {
      "long_name": "United States",
      "short_name": "US",
      "types": [ "country", "political" ]
    } ],
    "geometry": {
      "location": {
        "lat": 35.4975625,
        "lng": -97.2689212
      },
      "location_type": "APPROXIMATE",
      "viewport": {
        "southwest": {
          "lat": 35.4612176,
          "lng": -97.3329509
        },
        "northeast": {
          "lat": 35.5338910,
          "lng": -97.2048915
        }
      },
      "bounds": {
        "southwest": {
          "lat": 35.4212799,
          "lng": -97.3356110
        },
        "northeast": {
          "lat": 35.5366609,
          "lng": -97.2209149
        }
      }
    }
  } ]
}
