{
  "status": "OK",
  "results": [ {
    "types": [ "locality", "political" ],
    "formatted_address": "Cleveland, OK, USA",
    "address_components": [ {
      "long_name": "Cleveland",
      "short_name": "Cleveland",
      "types": [ "locality", "political" ]
    }, {
      "long_name": "Pawnee",
      "short_name": "Pawnee",
      "types": [ "administrative_area_level_2", "political" ]
    }, {
      "long_name": "Oklahoma",
      "short_name": "OK",
      "types": [ "administrative_area_level_1", "political" ]
    }, {
      "long_name": "United States",
      "short_name": "US",
      "types": [ "country", "political" ]
    } ],
    "geometry": {
      "location": {
        "lat": 36.3100688,
        "lng": -96.4641886
      },
      "location_type": "APPROXIMATE",
      "viewport": {
        "southwest": {
          "lat": 36.2920840,
          "lng": -96.4962034
        },
        "northeast": {
          "lat": 36.3280495,
          "lng": -96.4321738
        }
      },
      "bounds": {
        "southwest": {
          "lat": 36.2675149,
          "lng": -96.4857349
        },
        "northeast": {
          "lat": 36.3257760,
          "lng": -96.4294900
        }
      }
    }
  } ]
}
