{
  "status": "OK",
  "results": [ {
    "types": [ "locality", "political" ],
    "formatted_address": "Clinton, OK, USA",
    "address_components": [ {
      "long_name": "Clinton",
      "short_name": "Clinton",
      "types": [ "locality", "political" ]
    }, {
      "long_name": "Custer",
      "short_name": "Custer",
      "types": [ "administrative_area_level_2", "political" ]
    }, {
      "long_name": "Oklahoma",
      "short_name": "OK",
      "types": [ "administrative_area_level_1", "political" ]
    }, {
      "long_name": "United States",
      "short_name": "US",
      "types": [ "country", "political" ]
    } ],
    "geometry": {
      "location": {
        "lat": 35.5156056,
        "lng": -98.9673069
      },
      "location_type": "APPROXIMATE",
      "viewport": {
        "southwest": {
          "lat": 35.4792689,
          "lng": -99.0313366
        },
        "northeast": {
          "lat": 35.5519259,
          "lng": -98.9032772
        }
      },
      "bounds": {
        "southwest": {
          "lat": 35.4576889,
          "lng": -99.0462139
        },
        "northeast": {
          "lat": 35.5448160,
          "lng": -98.8640420
        }
      }
    }
  } ]
}
