{
  "status": "OK",
  "results": [ {
    "types": [ "locality", "political" ],
    "formatted_address": "Coweta, OK, USA",
    "address_components": [ {
      "long_name": "Coweta",
      "short_name": "Coweta",
      "types": [ "locality", "political" ]
    }, {
      "long_name": "Wagoner",
      "short_name": "Wagoner",
      "types": [ "administrative_area_level_2", "political" ]
    }, {
      "long_name": "Oklahoma",
      "short_name": "OK",
      "types": [ "administrative_area_level_1", "political" ]
    }, {
      "long_name": "United States",
      "short_name": "US",
      "types": [ "country", "political" ]
    } ],
    "geometry": {
      "location": {
        "lat": 35.9517674,
        "lng": -95.6508140
      },
      "location_type": "APPROXIMATE",
      "viewport": {
        "southwest": {
          "lat": 35.8794742,
          "lng": -95.7788734
        },
        "northeast": {
          "lat": 36.0239945,
          "lng": -95.5227546
        }
      },
      "bounds": {
        "southwest": {
          "lat": 35.9157760,
          "lng": -95.7609640
        },
        "northeast": {
          "lat": 36.0313630,
          "lng": -95.5786870
        }
      }
    }
  } ]
}
