{
  "status": "OK",
  "results": [ {
    "types": [ "locality", "political" ],
    "formatted_address": "Davenport, OK, USA",
    "address_components": [ {
      "long_name": "Davenport",
      "short_name": "Davenport",
      "types": [ "locality", "political" ]
    }, {
      "long_name": "Chandler",
      "short_name": "Chandler",
      "types": [ "administrative_area_level_3", "political" ]
    }, {
      "long_name": "Lincoln",
      "short_name": "Lincoln",
      "types": [ "administrative_area_level_2", "political" ]
    }, {
      "long_name": "Oklahoma",
      "short_name": "OK",
      "types": [ "administrative_area_level_1", "political" ]
    }, {
      "long_name": "United States",
      "short_name": "US",
      "types": [ "country", "political" ]
    } ],
    "geometry": {
      "location": {
        "lat": 35.7047891,
        "lng": -96.7652994
      },
      "location_type": "APPROXIMATE",
      "viewport": {
        "southwest": {
          "lat": 35.6322708,
          "lng": -96.8933588
        },
        "northeast": {
          "lat": 35.7772415,
          "lng": -96.6372400
        }
      },
      "bounds": {
        "southwest": {
          "lat": 35.6521349,
          "lng": -96.9152111
        },
        "northeast": {
          "lat": 35.7529930,
          "lng": -96.6974920
        }
      }
    }
  } ]
}
