{
  "status": "OK",
  "results": [ {
    "types": [ "locality", "political" ],
    "formatted_address": "Drumright, OK, USA",
    "address_components": [ {
      "long_name": "Drumright",
      "short_name": "Drumright",
      "types": [ "locality", "political" ]
    }, {
      "long_name": "Creek",
      "short_name": "Creek",
      "types": [ "administrative_area_level_2", "political" ]
    }, {
      "long_name": "Oklahoma",
      "short_name": "OK",
      "types": [ "administrative_area_level_1", "political" ]
    }, {
      "long_name": "United States",
      "short_name": "US",
      "types": [ "country", "political" ]
    } ],
    "geometry": {
      "location": {
        "lat": 35.9884013,
        "lng": -96.6011294
      },
      "location_type": "APPROXIMATE",
      "viewport": {
        "southwest": {
          "lat": 35.9522797,
          "lng": -96.6651591
        },
        "northeast": {
          "lat": 36.0245064,
          "lng": -96.5370997
        }
      },
      "bounds": {
        "southwest": {
          "lat": 35.9625990,
          "lng": -96.6373019
        },
        "northeast": {
          "lat": 36.0209569,
          "lng": -96.5480719
        }
      }
    }
  } ]
}
