{
  "status": "OK",
  "results": [ {
    "types": [ "locality", "political" ],
    "formatted_address": "Fairview, OK, USA",
    "address_components": [ {
      "long_name": "Fairview",
      "short_name": "Fairview",
      "types": [ "locality", "political" ]
    }, {
      "long_name": "Major",
      "short_name": "Major",
      "types": [ "administrative_area_level_2", "political" ]
    }, {
      "long_name": "Oklahoma",
      "short_name": "OK",
      "types": [ "administrative_area_level_1", "political" ]
    }, {
      "long_name": "United States",
      "short_name": "US",
      "types": [ "country", "political" ]
    } ],
    "geometry": {
      "location": {
        "lat": 36.2689248,
        "lng": -98.4798009
      },
      "location_type": "APPROXIMATE",
      "viewport": {
        "southwest": {
          "lat": 36.1248543,
          "lng": -98.7359197
        },
        "northeast": {
          "lat": 36.4127300,
          "lng": -98.2236821
        }
      },
      "bounds": {
        "southwest": {
          "lat": 36.1649270,
          "lng": -98.8980120
        },
        "northeast": {
          "lat": 36.4093540,
          "lng": -98.3189029
        }
      }
    }
  } ]
}
