{
  "status": "OK",
  "results": [ {
    "types": [ "locality", "political" ],
    "formatted_address": "Henryetta, OK, USA",
    "address_components": [ {
      "long_name": "Henryetta",
      "short_name": "Henryetta",
      "types": [ "locality", "political" ]
    }, {
      "long_name": "Okmulgee",
      "short_name": "Okmulgee",
      "types": [ "administrative_area_level_2", "political" ]
    }, {
      "long_name": "Oklahoma",
      "short_name": "OK",
      "types": [ "administrative_area_level_1", "political" ]
    }, {
      "long_name": "United States",
      "short_name": "US",
      "types": [ "country", "political" ]
    } ],
    "geometry": {
      "location": {
        "lat": 35.4398261,
        "lng": -95.9819429
      },
      "location_type": "APPROXIMATE",
      "viewport": {
        "southwest": {
          "lat": 35.4034551,
          "lng": -96.0459726
        },
        "northeast": {
          "lat": 35.4761807,
          "lng": -95.9179132
        }
      },
      "bounds": {
        "southwest": {
          "lat": 35.3960520,
          "lng": -96.0523300
        },
        "northeast": {
          "lat": 35.4964740,
          "lng": -95.9461530
        }
      }
    }
  } ]
}
