{
  "status": "OK",
  "results": [ {
    "types": [ "locality", "political" ],
    "formatted_address": "Holdenville, OK, USA",
    "address_components": [ {
      "long_name": "Holdenville",
      "short_name": "Holdenville",
      "types": [ "locality", "political" ]
    }, {
      "long_name": "Hughes",
      "short_name": "Hughes",
      "types": [ "administrative_area_level_2", "political" ]
    }, {
      "long_name": "Oklahoma",
      "short_name": "OK",
      "types": [ "administrative_area_level_1", "political" ]
    }, {
      "long_name": "United States",
      "short_name": "US",
      "types": [ "country", "political" ]
    } ],
    "geometry": {
      "location": {
        "lat": 35.0803617,
        "lng": -96.3991765
      },
      "location_type": "APPROXIMATE",
      "viewport": {
        "southwest": {
          "lat": 35.0620974,
          "lng": -96.4311913
        },
        "northeast": {
          "lat": 35.0986219,
          "lng": -96.3671617
        }
      },
      "bounds": {
        "southwest": {
          "lat": 35.0636400,
          "lng": -96.4461390
        },
        "northeast": {
          "lat": 35.0995659,
          "lng": -96.3689210
        }
      }
    }
  } ]
}
