{
  "status": "OK",
  "results": [ {
    "types": [ "locality", "political" ],
    "formatted_address": "Hooker, OK, USA",
    "address_components": [ {
      "long_name": "Hooker",
      "short_name": "Hooker",
      "types": [ "locality", "political" ]
    }, {
      "long_name": "Texas",
      "short_name": "Texas",
      "types": [ "administrative_area_level_2", "political" ]
    }, {
      "long_name": "Oklahoma",
      "short_name": "OK",
      "types": [ "administrative_area_level_1", "political" ]
    }, {
      "long_name": "United States",
      "short_name": "US",
      "types": [ "country", "political" ]
    } ],
    "geometry": {
      "location": {
        "lat": 36.8600261,
        "lng": -101.2134954
      },
      "location_type": "APPROXIMATE",
      "viewport": {
        "southwest": {
          "lat": 36.8510980,
          "lng": -101.2295028
        },
        "northeast": {
          "lat": 36.8689531,
          "lng": -101.1974880
        }
      },
      "bounds": {
        "southwest": {
          "lat": 36.8550220,
          "lng": -101.2253850
        },
        "northeast": {
          "lat": 36.8690360,
          "lng": -101.2011200
        }
      }
    }
  } ]
}
