{
  "status": "OK",
  "results": [ {
    "types": [ "locality", "political" ],
    "formatted_address": "Hugo, OK, USA",
    "address_components": [ {
      "long_name": "Hugo",
      "short_name": "Hugo",
      "types": [ "locality", "political" ]
    }, {
      "long_name": "Choctaw",
      "short_name": "Choctaw",
      "types": [ "administrative_area_level_2", "political" ]
    }, {
      "long_name": "Oklahoma",
      "short_name": "OK",
      "types": [ "administrative_area_level_1", "political" ]
    }, {
      "long_name": "United States",
      "short_name": "US",
      "types": [ "country", "political" ]
    } ],
    "geometry": {
      "location": {
        "lat": 34.0106600,
        "lng": -95.5096821
      },
      "location_type": "APPROXIMATE",
      "viewport": {
        "southwest": {
          "lat": 33.9921595,
          "lng": -95.5416969
        },
        "northeast": {
          "lat": 34.0291564,
          "lng": -95.4776673
        }
      },
      "bounds": {
        "southwest": {
          "lat": 33.9949870,
          "lng": -95.5475620
        },
        "northeast": {
          "lat": 34.0407910,
          "lng": -95.4692769
        }
      }
    }
  } ]
}
