{
  "status": "OK",
  "results": [ {
    "types": [ "locality", "political" ],
    "formatted_address": "Hulbert, OK, USA",
    "address_components": [ {
      "long_name": "Hulbert",
      "short_name": "Hulbert",
      "types": [ "locality", "political" ]
    }, {
      "long_name": "Cherokee",
      "short_name": "Cherokee",
      "types": [ "administrative_area_level_2", "political" ]
    }, {
      "long_name": "Oklahoma",
      "short_name": "OK",
      "types": [ "administrative_area_level_1", "political" ]
    }, {
      "long_name": "United States",
      "short_name": "US",
      "types": [ "country", "political" ]
    } ],
    "geometry": {
      "location": {
        "lat": 35.9325964,
        "lng": -95.1413479
      },
      "location_type": "APPROXIMATE",
      "viewport": {
        "southwest": {
          "lat": 35.9235612,
          "lng": -95.1573553
        },
        "northeast": {
          "lat": 35.9416306,
          "lng": -95.1253405
        }
      },
      "bounds": {
        "southwest": {
          "lat": 35.9235080,
          "lng": -95.1639019
        },
        "northeast": {
          "lat": 35.9377370,
          "lng": -95.1238060
        }
      }
    }
  } ]
}
