{
  "status": "OK",
  "results": [ {
    "types": [ "locality", "political" ],
    "formatted_address": "Jones, OK, USA",
    "address_components": [ {
      "long_name": "Jones",
      "short_name": "Jones",
      "types": [ "locality", "political" ]
    }, {
      "long_name": "Oklahoma City",
      "short_name": "Oklahoma City",
      "types": [ "administrative_area_level_3", "political" ]
    }, {
      "long_name": "Oklahoma",
      "short_name": "Oklahoma",
      "types": [ "administrative_area_level_2", "political" ]
    }, {
      "long_name": "Oklahoma",
      "short_name": "OK",
      "types": [ "administrative_area_level_1", "political" ]
    }, {
      "long_name": "United States",
      "short_name": "US",
      "types": [ "country", "political" ]
    } ],
    "geometry": {
      "location": {
        "lat": 35.5658936,
        "lng": -97.2869781
      },
      "location_type": "APPROXIMATE",
      "viewport": {
        "southwest": {
          "lat": 35.5295796,
          "lng": -97.3510078
        },
        "northeast": {
          "lat": 35.6021911,
          "lng": -97.2229484
        }
      },
      "bounds": {
        "southwest": {
          "lat": 35.5220610,
          "lng": -97.3271390
        },
        "northeast": {
          "lat": 35.5944579,
          "lng": -97.2471899
        }
      }
    }
  } ]
}
