{
  "status": "OK",
  "results": [ {
    "types": [ "locality", "political" ],
    "formatted_address": "Kiowa, OK, USA",
    "address_components": [ {
      "long_name": "Kiowa",
      "short_name": "Kiowa",
      "types": [ "locality", "political" ]
    }, {
      "long_name": "Pittsburg",
      "short_name": "Pittsburg",
      "types": [ "administrative_area_level_2", "political" ]
    }, {
      "long_name": "Oklahoma",
      "short_name": "OK",
      "types": [ "administrative_area_level_1", "political" ]
    }, {
      "long_name": "United States",
      "short_name": "US",
      "types": [ "country", "political" ]
    } ],
    "geometry": {
      "location": {
        "lat": 34.7206515,
        "lng": -95.8991586
      },
      "location_type": "APPROXIMATE",
      "viewport": {
        "southwest": {
          "lat": 34.7114798,
          "lng": -95.9151660
        },
        "northeast": {
          "lat": 34.7298222,
          "lng": -95.8831512
        }
      },
      "bounds": {
        "southwest": {
          "lat": 34.7131100,
          "lng": -95.9148960
        },
        "northeast": {
          "lat": 34.7334610,
          "lng": -95.8868360
        }
      }
    }
  } ]
}
