{
  "status": "OK",
  "results": [ {
    "types": [ "locality", "political" ],
    "formatted_address": "Locust Grove, OK, USA",
    "address_components": [ {
      "long_name": "Locust Grove",
      "short_name": "Locust Grove",
      "types": [ "locality", "political" ]
    }, {
      "long_name": "Mayes",
      "short_name": "Mayes",
      "types": [ "administrative_area_level_2", "political" ]
    }, {
      "long_name": "Oklahoma",
      "short_name": "OK",
      "types": [ "administrative_area_level_1", "political" ]
    }, {
      "long_name": "United States",
      "short_name": "US",
      "types": [ "country", "political" ]
    } ],
    "geometry": {
      "location": {
        "lat": 36.2000936,
        "lng": -95.1677401
      },
      "location_type": "APPROXIMATE",
      "viewport": {
        "southwest": {
          "lat": 36.0558964,
          "lng": -95.4238589
        },
        "northeast": {
          "lat": 36.3440257,
          "lng": -94.9116213
        }
      },
      "bounds": {
        "southwest": {
          "lat": 35.9878630,
          "lng": -95.3329021
        },
        "northeast": {
          "lat": 36.2650751,
          "lng": -95.0026790
        }
      }
    }
  } ]
}
