{
  "status": "OK",
  "results": [ {
    "types": [ "locality", "political" ],
    "formatted_address": "Madill, OK, USA",
    "address_components": [ {
      "long_name": "Madill",
      "short_name": "Madill",
      "types": [ "locality", "political" ]
    }, {
      "long_name": "North Marshall",
      "short_name": "North Marshall",
      "types": [ "administrative_area_level_3", "political" ]
    }, {
      "long_name": "Marshall",
      "short_name": "Marshall",
      "types": [ "administrative_area_level_2", "political" ]
    }, {
      "long_name": "Oklahoma",
      "short_name": "OK",
      "types": [ "administrative_area_level_1", "political" ]
    }, {
      "long_name": "United States",
      "short_name": "US",
      "types": [ "country", "political" ]
    } ],
    "geometry": {
      "location": {
        "lat": 34.0903751,
        "lng": -96.7716691
      },
      "location_type": "APPROXIMATE",
      "viewport": {
        "southwest": {
          "lat": 34.0534049,
          "lng": -96.8356988
        },
        "northeast": {
          "lat": 34.1273292,
          "lng": -96.7076394
        }
      },
      "bounds": {
        "southwest": {
          "lat": 34.0256089,
          "lng": -96.7984879
        },
        "northeast": {
          "lat": 34.1328050,
          "lng": -96.7262470
        }
      }
    }
  } ]
}
