{
  "status": "OK",
  "results": [ {
    "types": [ "locality", "political" ],
    "formatted_address": "Midwest City, OK, USA",
    "address_components": [ {
      "long_name": "Midwest City",
      "short_name": "Midwest City",
      "types": [ "locality", "political" ]
    }, {
      "long_name": "Oklahoma City",
      "short_name": "Oklahoma City",
      "types": [ "administrative_area_level_3", "political" ]
    }, {
      "long_name": "Oklahoma",
      "short_name": "Oklahoma",
      "types": [ "administrative_area_level_2", "political" ]
    }, {
      "long_name": "Oklahoma",
      "short_name": "OK",
      "types": [ "administrative_area_level_1", "political" ]
    }, {
      "long_name": "United States",
      "short_name": "US",
      "types": [ "country", "political" ]
    } ],
    "geometry": {
      "location": {
        "lat": 35.4495065,
        "lng": -97.3967019
      },
      "location_type": "APPROXIMATE",
      "viewport": {
        "southwest": {
          "lat": 35.3767569,
          "lng": -97.5247613
        },
        "northeast": {
          "lat": 35.5221904,
          "lng": -97.2686425
        }
      },
      "bounds": {
        "southwest": {
          "lat": 35.4325040,
          "lng": -97.4241699
        },
        "northeast": {
          "lat": 35.5151600,
          "lng": -97.2912370
        }
      }
    }
  } ]
}
