{
  "status": "OK",
  "results": [ {
    "types": [ "locality", "political" ],
    "formatted_address": "Minco, OK, USA",
    "address_components": [ {
      "long_name": "Minco",
      "short_name": "Minco",
      "types": [ "locality", "political" ]
    }, {
      "long_name": "Grady",
      "short_name": "Grady",
      "types": [ "administrative_area_level_2", "political" ]
    }, {
      "long_name": "Oklahoma",
      "short_name": "OK",
      "types": [ "administrative_area_level_1", "political" ]
    }, {
      "long_name": "United States",
      "short_name": "US",
      "types": [ "country", "political" ]
    } ],
    "geometry": {
      "location": {
        "lat": 35.3128371,
        "lng": -97.9444913
      },
      "location_type": "APPROXIMATE",
      "viewport": {
        "southwest": {
          "lat": 35.2764089,
          "lng": -98.0085210
        },
        "northeast": {
          "lat": 35.3492489,
          "lng": -97.8804616
        }
      },
      "bounds": {
        "southwest": {
          "lat": 35.2905559,
          "lng": -98.0002009
        },
        "northeast": {
          "lat": 35.3757580,
          "lng": -97.9006400
        }
      }
    }
  } ]
}
