{
  "status": "OK",
  "results": [ {
    "types": [ "locality", "political" ],
    "formatted_address": "Mountain View, OK, USA",
    "address_components": [ {
      "long_name": "Mountain View",
      "short_name": "Mountain View",
      "types": [ "locality", "political" ]
    }, {
      "long_name": "Kiowa",
      "short_name": "Kiowa",
      "types": [ "administrative_area_level_2", "political" ]
    }, {
      "long_name": "Oklahoma",
      "short_name": "OK",
      "types": [ "administrative_area_level_1", "political" ]
    }, {
      "long_name": "United States",
      "short_name": "US",
      "types": [ "country", "political" ]
    } ],
    "geometry": {
      "location": {
        "lat": 35.0975577,
        "lng": -98.7464552
      },
      "location_type": "APPROXIMATE",
      "viewport": {
        "southwest": {
          "lat": 35.0884280,
          "lng": -98.7624626
        },
        "northeast": {
          "lat": 35.1066864,
          "lng": -98.7304478
        }
      },
      "bounds": {
        "southwest": {
          "lat": 35.0923600,
          "lng": -98.7606699
        },
        "northeast": {
          "lat": 35.1044209,
          "lng": -98.7418050
        }
      }
    }
  } ]
}
