{
  "status": "OK",
  "results": [ {
    "types": [ "locality", "political" ],
    "formatted_address": "Mustang, OK, USA",
    "address_components": [ {
      "long_name": "Mustang",
      "short_name": "Mustang",
      "types": [ "locality", "political" ]
    }, {
      "long_name": "East Canadian",
      "short_name": "East Canadian",
      "types": [ "administrative_area_level_3", "political" ]
    }, {
      "long_name": "Canadian",
      "short_name": "Canadian",
      "types": [ "administrative_area_level_2", "political" ]
    }, {
      "long_name": "Oklahoma",
      "short_name": "OK",
      "types": [ "administrative_area_level_1", "political" ]
    }, {
      "long_name": "United States",
      "short_name": "US",
      "types": [ "country", "political" ]
    } ],
    "geometry": {
      "location": {
        "lat": 35.3842260,
        "lng": -97.7244867
      },
      "location_type": "APPROXIMATE",
      "viewport": {
        "southwest": {
          "lat": 35.3660300,
          "lng": -97.7565015
        },
        "northeast": {
          "lat": 35.4024179,
          "lng": -97.6924719
        }
      },
      "bounds": {
        "southwest": {
          "lat": 35.3771170,
          "lng": -97.7778259
        },
        "northeast": {
          "lat": 35.4063740,
          "lng": -97.6713450
        }
      }
    }
  } ]
}
