{
  "status": "OK",
  "results": [ {
    "types": [ "locality", "political" ],
    "formatted_address": "Nichols Hills, OK, USA",
    "address_components": [ {
      "long_name": "Nichols Hills",
      "short_name": "Nichols Hills",
      "types": [ "locality", "political" ]
    }, {
      "long_name": "Oklahoma City",
      "short_name": "Oklahoma City",
      "types": [ "administrative_area_level_3", "political" ]
    }, {
      "long_name": "Oklahoma",
      "short_name": "Oklahoma",
      "types": [ "administrative_area_level_2", "political" ]
    }, {
      "long_name": "Oklahoma",
      "short_name": "OK",
      "types": [ "administrative_area_level_1", "political" ]
    }, {
      "long_name": "United States",
      "short_name": "US",
      "types": [ "country", "political" ]
    } ],
    "geometry": {
      "location": {
        "lat": 35.5508903,
        "lng": -97.5489293
      },
      "location_type": "APPROXIMATE",
      "viewport": {
        "southwest": {
          "lat": 35.5418117,
          "lng": -97.5649367
        },
        "northeast": {
          "lat": 35.5599679,
          "lng": -97.5329219
        }
      },
      "bounds": {
        "southwest": {
          "lat": 35.5361989,
          "lng": -97.5590550
        },
        "northeast": {
          "lat": 35.5590560,
          "lng": -97.5284200
        }
      }
    }
  } ]
}
