{
  "status": "OK",
  "results": [ {
    "types": [ "locality", "political" ],
    "formatted_address": "Oilton, OK, USA",
    "address_components": [ {
      "long_name": "Oilton",
      "short_name": "Oilton",
      "types": [ "locality", "political" ]
    }, {
      "long_name": "Keystone Lake",
      "short_name": "Keystone Lake",
      "types": [ "administrative_area_level_3", "political" ]
    }, {
      "long_name": "Creek",
      "short_name": "Creek",
      "types": [ "administrative_area_level_2", "political" ]
    }, {
      "long_name": "Oklahoma",
      "short_name": "OK",
      "types": [ "administrative_area_level_1", "political" ]
    }, {
      "long_name": "United States",
      "short_name": "US",
      "types": [ "country", "political" ]
    } ],
    "geometry": {
      "location": {
        "lat": 36.0845119,
        "lng": -96.5836317
      },
      "location_type": "APPROXIMATE",
      "viewport": {
        "southwest": {
          "lat": 36.0754941,
          "lng": -96.5996391
        },
        "northeast": {
          "lat": 36.0935287,
          "lng": -96.5676243
        }
      },
      "bounds": {
        "southwest": {
          "lat": 36.0742940,
          "lng": -96.5967850
        },
        "northeast": {
          "lat": 36.0909140,
          "lng": -96.5649009
        }
      }
    }
  } ]
}
