{
  "status": "OK",
  "results": [ {
    "types": [ "locality", "political" ],
    "formatted_address": "Rush Springs, OK, USA",
    "address_components": [ {
      "long_name": "Rush Springs",
      "short_name": "Rush Springs",
      "types": [ "locality", "political" ]
    }, {
      "long_name": "Grady",
      "short_name": "Grady",
      "types": [ "administrative_area_level_2", "political" ]
    }, {
      "long_name": "Oklahoma",
      "short_name": "OK",
      "types": [ "administrative_area_level_1", "political" ]
    }, {
      "long_name": "United States",
      "short_name": "US",
      "types": [ "country", "political" ]
    } ],
    "geometry": {
      "location": {
        "lat": 34.7825721,
        "lng": -97.9569845
      },
      "location_type": "APPROXIMATE",
      "viewport": {
        "southwest": {
          "lat": 34.7734073,
          "lng": -97.9729919
        },
        "northeast": {
          "lat": 34.7917359,
          "lng": -97.9409771
        }
      },
      "bounds": {
        "southwest": {
          "lat": 34.7627660,
          "lng": -97.9679350
        },
        "northeast": {
          "lat": 34.7877630,
          "lng": -97.9434090
        }
      }
    }
  } ]
}
