{
  "status": "OK",
  "results": [ {
    "types": [ "locality", "political" ],
    "formatted_address": "Seminole, OK, USA",
    "address_components": [ {
      "long_name": "Seminole",
      "short_name": "Seminole",
      "types": [ "locality", "political" ]
    }, {
      "long_name": "Seminole North",
      "short_name": "Seminole North",
      "types": [ "administrative_area_level_3", "political" ]
    }, {
      "long_name": "Seminole",
      "short_name": "Seminole",
      "types": [ "administrative_area_level_2", "political" ]
    }, {
      "long_name": "Oklahoma",
      "short_name": "OK",
      "types": [ "administrative_area_level_1", "political" ]
    }, {
      "long_name": "United States",
      "short_name": "US",
      "types": [ "country", "political" ]
    } ],
    "geometry": {
      "location": {
        "lat": 35.2245201,
        "lng": -96.6705730
      },
      "location_type": "APPROXIMATE",
      "viewport": {
        "southwest": {
          "lat": 35.1515678,
          "lng": -96.7986324
        },
        "northeast": {
          "lat": 35.2974069,
          "lng": -96.5425136
        }
      },
      "bounds": {
        "southwest": {
          "lat": 35.1884329,
          "lng": -96.7151339
        },
        "northeast": {
          "lat": 35.2836180,
          "lng": -96.5375799
        }
      }
    }
  } ]
}
