{
  "status": "OK",
  "results": [ {
    "types": [ "locality", "political" ],
    "formatted_address": "Sulphur, OK, USA",
    "address_components": [ {
      "long_name": "Sulphur",
      "short_name": "Sulphur",
      "types": [ "locality", "political" ]
    }, {
      "long_name": "East Murray",
      "short_name": "East Murray",
      "types": [ "administrative_area_level_3", "political" ]
    }, {
      "long_name": "Murray",
      "short_name": "Murray",
      "types": [ "administrative_area_level_2", "political" ]
    }, {
      "long_name": "Oklahoma",
      "short_name": "OK",
      "types": [ "administrative_area_level_1", "political" ]
    }, {
      "long_name": "United States",
      "short_name": "US",
      "types": [ "country", "political" ]
    } ],
    "geometry": {
      "location": {
        "lat": 34.5078669,
        "lng": -96.9683498
      },
      "location_type": "APPROXIMATE",
      "viewport": {
        "southwest": {
          "lat": 34.4710799,
          "lng": -97.0323795
        },
        "northeast": {
          "lat": 34.5446377,
          "lng": -96.9043201
        }
      },
      "bounds": {
        "southwest": {
          "lat": 34.4608909,
          "lng": -97.0297980
        },
        "northeast": {
          "lat": 34.5304770,
          "lng": -96.9496260
        }
      }
    }
  } ]
}
