{
  "status": "OK",
  "results": [ {
    "types": [ "locality", "political" ],
    "formatted_address": "Tecumseh, OK, USA",
    "address_components": [ {
      "long_name": "Tecumseh",
      "short_name": "Tecumseh",
      "types": [ "locality", "political" ]
    }, {
      "long_name": "Shawnee",
      "short_name": "Shawnee",
      "types": [ "administrative_area_level_3", "political" ]
    }, {
      "long_name": "Pottawatomie",
      "short_name": "Pottawatomie",
      "types": [ "administrative_area_level_2", "political" ]
    }, {
      "long_name": "Oklahoma",
      "short_name": "OK",
      "types": [ "administrative_area_level_1", "political" ]
    }, {
      "long_name": "United States",
      "short_name": "US",
      "types": [ "country", "political" ]
    } ],
    "geometry": {
      "location": {
        "lat": 35.2578498,
        "lng": -96.9366888
      },
      "location_type": "APPROXIMATE",
      "viewport": {
        "southwest": {
          "lat": 35.2213968,
          "lng": -97.0007185
        },
        "northeast": {
          "lat": 35.2942864,
          "lng": -96.8726591
        }
      },
      "bounds": {
        "southwest": {
          "lat": 35.2317070,
          "lng": -96.9658049
        },
        "northeast": {
          "lat": 35.3006380,
          "lng": -96.8950699
        }
      }
    }
  } ]
}
