{
  "status": "OK",
  "results": [ {
    "types": [ "locality", "political" ],
    "formatted_address": "Walters, OK, USA",
    "address_components": [ {
      "long_name": "Walters",
      "short_name": "Walters",
      "types": [ "locality", "political" ]
    }, {
      "long_name": "Cotton",
      "short_name": "Cotton",
      "types": [ "administrative_area_level_2", "political" ]
    }, {
      "long_name": "Oklahoma",
      "short_name": "OK",
      "types": [ "administrative_area_level_1", "political" ]
    }, {
      "long_name": "United States",
      "short_name": "US",
      "types": [ "country", "political" ]
    } ],
    "geometry": {
      "location": {
        "lat": 34.3598075,
        "lng": -98.3078258
      },
      "location_type": "APPROXIMATE",
      "viewport": {
        "southwest": {
          "lat": 34.3229553,
          "lng": -98.3718555
        },
        "northeast": {
          "lat": 34.3966435,
          "lng": -98.2437961
        }
      },
      "bounds": {
        "southwest": {
          "lat": 34.3396760,
          "lng": -98.4176559
        },
        "northeast": {
          "lat": 34.3796940,
          "lng": -98.2961299
        }
      }
    }
  } ]
}
