{
  "status": "OK",
  "results": [ {
    "types": [ "locality", "political" ],
    "formatted_address": "Warr Acres, OK, USA",
    "address_components": [ {
      "long_name": "Warr Acres",
      "short_name": "Warr Acres",
      "types": [ "locality", "political" ]
    }, {
      "long_name": "Oklahoma City",
      "short_name": "Oklahoma City",
      "types": [ "administrative_area_level_3", "political" ]
    }, {
      "long_name": "Oklahoma",
      "short_name": "Oklahoma",
      "types": [ "administrative_area_level_2", "political" ]
    }, {
      "long_name": "Oklahoma",
      "short_name": "OK",
      "types": [ "administrative_area_level_1", "political" ]
    }, {
      "long_name": "United States",
      "short_name": "US",
      "types": [ "country", "political" ]
    } ],
    "geometry": {
      "location": {
        "lat": 35.5225567,
        "lng": -97.6189304
      },
      "location_type": "APPROXIMATE",
      "viewport": {
        "southwest": {
          "lat": 35.5043920,
          "lng": -97.6509452
        },
        "northeast": {
          "lat": 35.5407173,
          "lng": -97.5869156
        }
      },
      "bounds": {
        "southwest": {
          "lat": 35.5049570,
          "lng": -97.6323190
        },
        "northeast": {
          "lat": 35.5511590,
          "lng": -97.6010180
        }
      }
    }
  } ]
}
