{
  "status": "OK",
  "results": [ {
    "types": [ "locality", "political" ],
    "formatted_address": "Waurika, OK, USA",
    "address_components": [ {
      "long_name": "Waurika",
      "short_name": "Waurika",
      "types": [ "locality", "political" ]
    }, {
      "long_name": "Jefferson",
      "short_name": "Jefferson",
      "types": [ "administrative_area_level_2", "political" ]
    }, {
      "long_name": "Oklahoma",
      "short_name": "OK",
      "types": [ "administrative_area_level_1", "political" ]
    }, {
      "long_name": "United States",
      "short_name": "US",
      "types": [ "country", "political" ]
    } ],
    "geometry": {
      "location": {
        "lat": 34.1670371,
        "lng": -97.9975360
      },
      "location_type": "APPROXIMATE",
      "viewport": {
        "southwest": {
          "lat": 34.1301004,
          "lng": -98.0615657
        },
        "northeast": {
          "lat": 34.2039577,
          "lng": -97.9335063
        }
      },
      "bounds": {
        "southwest": {
          "lat": 34.1541379,
          "lng": -98.0519269
        },
        "northeast": {
          "lat": 34.2245969,
          "lng": -97.9773890
        }
      }
    }
  } ]
}
