{
  "status": "OK",
  "results": [ {
    "types": [ "locality", "political" ],
    "formatted_address": "Weleetka, OK, USA",
    "address_components": [ {
      "long_name": "Weleetka",
      "short_name": "Weleetka",
      "types": [ "locality", "political" ]
    }, {
      "long_name": "Okfuskee",
      "short_name": "Okfuskee",
      "types": [ "administrative_area_level_2", "political" ]
    }, {
      "long_name": "Oklahoma",
      "short_name": "OK",
      "types": [ "administrative_area_level_1", "political" ]
    }, {
      "long_name": "United States",
      "short_name": "US",
      "types": [ "country", "political" ]
    } ],
    "geometry": {
      "location": {
        "lat": 35.3356496,
        "lng": -96.1363921
      },
      "location_type": "APPROXIMATE",
      "viewport": {
        "southwest": {
          "lat": 35.2627973,
          "lng": -96.2644515
        },
        "northeast": {
          "lat": 35.4084363,
          "lng": -96.0083327
        }
      },
      "bounds": {
        "southwest": {
          "lat": 35.3333790,
          "lng": -96.1450490
        },
        "northeast": {
          "lat": 35.4338650,
          "lng": -96.1198790
        }
      }
    }
  } ]
}
