{
  "status": "OK",
  "results": [ {
    "types": [ "locality", "political" ],
    "formatted_address": "Wilburton, OK, USA",
    "address_components": [ {
      "long_name": "Wilburton",
      "short_name": "Wilburton",
      "types": [ "locality", "political" ]
    }, {
      "long_name": "Latimer",
      "short_name": "Latimer",
      "types": [ "administrative_area_level_2", "political" ]
    }, {
      "long_name": "Oklahoma",
      "short_name": "OK",
      "types": [ "administrative_area_level_1", "political" ]
    }, {
      "long_name": "United States",
      "short_name": "US",
      "types": [ "country", "political" ]
    } ],
    "geometry": {
      "location": {
        "lat": 34.9187100,
        "lng": -95.3091383
      },
      "location_type": "APPROXIMATE",
      "viewport": {
        "southwest": {
          "lat": 34.9004096,
          "lng": -95.3411531
        },
        "northeast": {
          "lat": 34.9370063,
          "lng": -95.2771235
        }
      },
      "bounds": {
        "southwest": {
          "lat": 34.9020359,
          "lng": -95.3351710
        },
        "northeast": {
          "lat": 34.9276870,
          "lng": -95.2615230
        }
      }
    }
  } ]
}
