{
  "status": "OK",
  "results": [ {
    "types": [ "locality", "political" ],
    "formatted_address": "Yale, OK, USA",
    "address_components": [ {
      "long_name": "Yale",
      "short_name": "Yale",
      "types": [ "locality", "political" ]
    }, {
      "long_name": "Payne",
      "short_name": "Payne",
      "types": [ "administrative_area_level_2", "political" ]
    }, {
      "long_name": "Oklahoma",
      "short_name": "OK",
      "types": [ "administrative_area_level_1", "political" ]
    }, {
      "long_name": "United States",
      "short_name": "US",
      "types": [ "country", "political" ]
    } ],
    "geometry": {
      "location": {
        "lat": 36.1142305,
        "lng": -96.6991933
      },
      "location_type": "APPROXIMATE",
      "viewport": {
        "southwest": {
          "lat": 36.1052161,
          "lng": -96.7152007
        },
        "northeast": {
          "lat": 36.1232439,
          "lng": -96.6831859
        }
      },
      "bounds": {
        "southwest": {
          "lat": 36.1077040,
          "lng": -96.7138660
        },
        "northeast": {
          "lat": 36.1237900,
          "lng": -96.6828800
        }
      }
    }
  } ]
}
