{
  "status": "OK",
  "results": [ {
    "types": [ "locality", "political" ],
    "formatted_address": "Albia, IA, USA",
    "address_components": [ {
      "long_name": "Albia",
      "short_name": "Albia",
      "types": [ "locality", "political" ]
    }, {
      "long_name": "Monroe",
      "short_name": "Monroe",
      "types": [ "administrative_area_level_2", "political" ]
    }, {
      "long_name": "Iowa",
      "short_name": "IA",
      "types": [ "administrative_area_level_1", "political" ]
    }, {
      "long_name": "United States",
      "short_name": "US",
      "types": [ "country", "political" ]
    } ],
    "geometry": {
      "location": {
        "lat": 41.0266000,
        "lng": -92.8052620
      },
      "location_type": "APPROXIMATE",
      "viewport": {
        "southwest": {
          "lat": 41.0097626,
          "lng": -92.8372768
        },
        "northeast": {
          "lat": 41.0434331,
          "lng": -92.7732472
        }
      },
      "bounds": {
        "southwest": {
          "lat": 41.0044730,
          "lng": -92.8235840
        },
        "northeast": {
          "lat": 41.0448580,
          "lng": -92.7836020
        }
      }
    }
  } ]
}
