{
  "status": "OK",
  "results": [ {
    "types": [ "locality", "political" ],
    "formatted_address": "Altoona, IA, USA",
    "address_components": [ {
      "long_name": "Altoona",
      "short_name": "Altoona",
      "types": [ "locality", "political" ]
    }, {
      "long_name": "Polk",
      "short_name": "Polk",
      "types": [ "administrative_area_level_2", "political" ]
    }, {
      "long_name": "Iowa",
      "short_name": "IA",
      "types": [ "administrative_area_level_1", "political" ]
    }, {
      "long_name": "United States",
      "short_name": "US",
      "types": [ "country", "political" ]
    } ],
    "geometry": {
      "location": {
        "lat": 41.6500890,
        "lng": -93.4725460
      },
      "location_type": "APPROXIMATE",
      "viewport": {
        "southwest": {
          "lat": 41.6167306,
          "lng": -93.5365757
        },
        "northeast": {
          "lat": 41.6834301,
          "lng": -93.4085163
        }
      },
      "bounds": {
        "southwest": {
          "lat": 41.6075899,
          "lng": -93.5192369
        },
        "northeast": {
          "lat": 41.6729069,
          "lng": -93.4356670
        }
      }
    }
  } ]
}
