{
  "status": "OK",
  "results": [ {
    "types": [ "locality", "political" ],
    "formatted_address": "Anamosa, IA, USA",
    "address_components": [ {
      "long_name": "Anamosa",
      "short_name": "Anamosa",
      "types": [ "locality", "political" ]
    }, {
      "long_name": "Jones",
      "short_name": "Jones",
      "types": [ "administrative_area_level_2", "political" ]
    }, {
      "long_name": "Iowa",
      "short_name": "IA",
      "types": [ "administrative_area_level_1", "political" ]
    }, {
      "long_name": "United States",
      "short_name": "US",
      "types": [ "country", "political" ]
    } ],
    "geometry": {
      "location": {
        "lat": 42.1083371,
        "lng": -91.2851594
      },
      "location_type": "APPROXIMATE",
      "viewport": {
        "southwest": {
          "lat": 42.0917792,
          "lng": -91.3171742
        },
        "northeast": {
          "lat": 42.1248907,
          "lng": -91.2531446
        }
      },
      "bounds": {
        "southwest": {
          "lat": 42.0915369,
          "lng": -91.3004869
        },
        "northeast": {
          "lat": 42.1261310,
          "lng": -91.2484789
        }
      }
    }
  } ]
}
