{
  "status": "OK",
  "results": [ {
    "types": [ "locality", "political" ],
    "formatted_address": "Ankeny, IA, USA",
    "address_components": [ {
      "long_name": "Ankeny",
      "short_name": "Ankeny",
      "types": [ "locality", "political" ]
    }, {
      "long_name": "Polk",
      "short_name": "Polk",
      "types": [ "administrative_area_level_2", "political" ]
    }, {
      "long_name": "Iowa",
      "short_name": "IA",
      "types": [ "administrative_area_level_1", "political" ]
    }, {
      "long_name": "United States",
      "short_name": "US",
      "types": [ "country", "political" ]
    } ],
    "geometry": {
      "location": {
        "lat": 41.7267880,
        "lng": -93.6042830
      },
      "location_type": "APPROXIMATE",
      "viewport": {
        "southwest": {
          "lat": 41.6934693,
          "lng": -93.6683127
        },
        "northeast": {
          "lat": 41.7600894,
          "lng": -93.5402533
        }
      },
      "bounds": {
        "southwest": {
          "lat": 41.6520820,
          "lng": -93.6712970
        },
        "northeast": {
          "lat": 41.7768180,
          "lng": -93.5414390
        }
      }
    }
  } ]
}
