{
  "status": "OK",
  "results": [ {
    "types": [ "locality", "political" ],
    "formatted_address": "Audubon, IA 50025, USA",
    "address_components": [ {
      "long_name": "Audubon",
      "short_name": "Audubon",
      "types": [ "locality", "political" ]
    }, {
      "long_name": "Leroy",
      "short_name": "Leroy",
      "types": [ "administrative_area_level_3", "political" ]
    }, {
      "long_name": "Audubon",
      "short_name": "Audubon",
      "types": [ "administrative_area_level_2", "political" ]
    }, {
      "long_name": "Iowa",
      "short_name": "IA",
      "types": [ "administrative_area_level_1", "political" ]
    }, {
      "long_name": "United States",
      "short_name": "US",
      "types": [ "country", "political" ]
    }, {
      "long_name": "50025",
      "short_name": "50025",
      "types": [ "postal_code" ]
    } ],
    "geometry": {
      "location": {
        "lat": 41.7180421,
        "lng": -94.9324868
      },
      "location_type": "APPROXIMATE",
      "viewport": {
        "southwest": {
          "lat": 41.7097129,
          "lng": -94.9484942
        },
        "northeast": {
          "lat": 41.7263702,
          "lng": -94.9164794
        }
      },
      "bounds": {
        "southwest": {
          "lat": 41.7029939,
          "lng": -94.9421040
        },
        "northeast": {
          "lat": 41.7303170,
          "lng": -94.9135809
        }
      }
    }
  } ]
}
