{
  "status": "OK",
  "results": [ {
    "types": [ "locality", "political" ],
    "formatted_address": "Burlington, IA, USA",
    "address_components": [ {
      "long_name": "Burlington",
      "short_name": "Burlington",
      "types": [ "locality", "political" ]
    }, {
      "long_name": "Des Moines",
      "short_name": "Des Moines",
      "types": [ "administrative_area_level_2", "political" ]
    }, {
      "long_name": "Iowa",
      "short_name": "IA",
      "types": [ "administrative_area_level_1", "political" ]
    }, {
      "long_name": "United States",
      "short_name": "US",
      "types": [ "country", "political" ]
    } ],
    "geometry": {
      "location": {
        "lat": 40.8080556,
        "lng": -91.1158333
      },
      "location_type": "APPROXIMATE",
      "viewport": {
        "southwest": {
          "lat": 40.7742649,
          "lng": -91.1798630
        },
        "northeast": {
          "lat": 40.8418291,
          "lng": -91.0518036
        }
      },
      "bounds": {
        "southwest": {
          "lat": 40.7614899,
          "lng": -91.1802130
        },
        "northeast": {
          "lat": 40.8475899,
          "lng": -91.0782849
        }
      }
    }
  } ]
}
