{
  "status": "OK",
  "results": [ {
    "types": [ "locality", "political" ],
    "formatted_address": "Creston, IA, USA",
    "address_components": [ {
      "long_name": "Creston",
      "short_name": "Creston",
      "types": [ "locality", "political" ]
    }, {
      "long_name": "Union",
      "short_name": "Union",
      "types": [ "administrative_area_level_2", "political" ]
    }, {
      "long_name": "Iowa",
      "short_name": "IA",
      "types": [ "administrative_area_level_1", "political" ]
    }, {
      "long_name": "United States",
      "short_name": "US",
      "types": [ "country", "political" ]
    } ],
    "geometry": {
      "location": {
        "lat": 41.0591667,
        "lng": -94.3644444
      },
      "location_type": "APPROXIMATE",
      "viewport": {
        "southwest": {
          "lat": 41.0423376,
          "lng": -94.3964592
        },
        "northeast": {
          "lat": 41.0759915,
          "lng": -94.3324296
        }
      },
      "bounds": {
        "southwest": {
          "lat": 41.0426980,
          "lng": -94.3947810
        },
        "northeast": {
          "lat": 41.0783780,
          "lng": -94.3371810
        }
      }
    }
  } ]
}
