{
  "status": "OK",
  "results": [ {
    "types": [ "locality", "political" ],
    "formatted_address": "Grundy Center, IA, USA",
    "address_components": [ {
      "long_name": "Grundy Center",
      "short_name": "Grundy Center",
      "types": [ "locality", "political" ]
    }, {
      "long_name": "Grundy",
      "short_name": "Grundy",
      "types": [ "administrative_area_level_2", "political" ]
    }, {
      "long_name": "Iowa",
      "short_name": "IA",
      "types": [ "administrative_area_level_1", "political" ]
    }, {
      "long_name": "United States",
      "short_name": "US",
      "types": [ "country", "political" ]
    } ],
    "geometry": {
      "location": {
        "lat": 42.3616501,
        "lng": -92.7685327
      },
      "location_type": "APPROXIMATE",
      "viewport": {
        "southwest": {
          "lat": 42.3534048,
          "lng": -92.7845401
        },
        "northeast": {
          "lat": 42.3698943,
          "lng": -92.7525253
        }
      },
      "bounds": {
        "southwest": {
          "lat": 42.3534940,
          "lng": -92.7976499
        },
        "northeast": {
          "lat": 42.3760760,
          "lng": -92.7535820
        }
      }
    }
  } ]
}
