{
  "status": "OK",
  "results": [ {
    "types": [ "locality", "political" ],
    "formatted_address": "Hampton, IA, USA",
    "address_components": [ {
      "long_name": "Hampton",
      "short_name": "Hampton",
      "types": [ "locality", "political" ]
    }, {
      "long_name": "Franklin",
      "short_name": "Franklin",
      "types": [ "administrative_area_level_2", "political" ]
    }, {
      "long_name": "Iowa",
      "short_name": "IA",
      "types": [ "administrative_area_level_1", "political" ]
    }, {
      "long_name": "United States",
      "short_name": "US",
      "types": [ "country", "political" ]
    } ],
    "geometry": {
      "location": {
        "lat": 42.7419176,
        "lng": -93.2024233
      },
      "location_type": "APPROXIMATE",
      "viewport": {
        "southwest": {
          "lat": 42.7255262,
          "lng": -93.2344381
        },
        "northeast": {
          "lat": 42.7583047,
          "lng": -93.1704085
        }
      },
      "bounds": {
        "southwest": {
          "lat": 42.7160680,
          "lng": -93.2320500
        },
        "northeast": {
          "lat": 42.7600069,
          "lng": -93.1825770
        }
      }
    }
  } ]
}
