{
  "status": "OK",
  "results": [ {
    "types": [ "locality", "political" ],
    "formatted_address": "Independence, IA, USA",
    "address_components": [ {
      "long_name": "Independence",
      "short_name": "Independence",
      "types": [ "locality", "political" ]
    }, {
      "long_name": "Buchanan",
      "short_name": "Buchanan",
      "types": [ "administrative_area_level_2", "political" ]
    }, {
      "long_name": "Iowa",
      "short_name": "IA",
      "types": [ "administrative_area_level_1", "political" ]
    }, {
      "long_name": "United States",
      "short_name": "US",
      "types": [ "country", "political" ]
    } ],
    "geometry": {
      "location": {
        "lat": 42.4685978,
        "lng": -91.8893386
      },
      "location_type": "APPROXIMATE",
      "viewport": {
        "southwest": {
          "lat": 42.4356665,
          "lng": -91.9533683
        },
        "northeast": {
          "lat": 42.5015118,
          "lng": -91.8253089
        }
      },
      "bounds": {
        "southwest": {
          "lat": 42.4432980,
          "lng": -91.9533929
        },
        "northeast": {
          "lat": 42.4912379,
          "lng": -91.8668369
        }
      }
    }
  } ]
}
