{
  "status": "OK",
  "results": [ {
    "types": [ "locality", "political" ],
    "formatted_address": "Iowa Falls, IA, USA",
    "address_components": [ {
      "long_name": "Iowa Falls",
      "short_name": "Iowa Falls",
      "types": [ "locality", "political" ]
    }, {
      "long_name": "Hardin",
      "short_name": "Hardin",
      "types": [ "administrative_area_level_2", "political" ]
    }, {
      "long_name": "Iowa",
      "short_name": "IA",
      "types": [ "administrative_area_level_1", "political" ]
    }, {
      "long_name": "United States",
      "short_name": "US",
      "types": [ "country", "political" ]
    } ],
    "geometry": {
      "location": {
        "lat": 42.5221360,
        "lng": -93.2672890
      },
      "location_type": "APPROXIMATE",
      "viewport": {
        "southwest": {
          "lat": 42.5056866,
          "lng": -93.2993038
        },
        "northeast": {
          "lat": 42.5385811,
          "lng": -93.2352742
        }
      },
      "bounds": {
        "southwest": {
          "lat": 42.4909910,
          "lng": -93.2997220
        },
        "northeast": {
          "lat": 42.5371780,
          "lng": -93.2418479
        }
      }
    }
  } ]
}
