{
  "status": "OK",
  "results": [ {
    "types": [ "locality", "political" ],
    "formatted_address": "Johnston, IA, USA",
    "address_components": [ {
      "long_name": "Johnston",
      "short_name": "Johnston",
      "types": [ "locality", "political" ]
    }, {
      "long_name": "Polk",
      "short_name": "Polk",
      "types": [ "administrative_area_level_2", "political" ]
    }, {
      "long_name": "Iowa",
      "short_name": "IA",
      "types": [ "administrative_area_level_1", "political" ]
    }, {
      "long_name": "United States",
      "short_name": "US",
      "types": [ "country", "political" ]
    } ],
    "geometry": {
      "location": {
        "lat": 41.6713370,
        "lng": -93.7058000
      },
      "location_type": "APPROXIMATE",
      "viewport": {
        "southwest": {
          "lat": 41.6379896,
          "lng": -93.7698297
        },
        "northeast": {
          "lat": 41.7046671,
          "lng": -93.6417703
        }
      },
      "bounds": {
        "southwest": {
          "lat": 41.6520620,
          "lng": -93.7655510
        },
        "northeast": {
          "lat": 41.7319570,
          "lng": -93.6656189
        }
      }
    }
  } ]
}
