{
  "status": "OK",
  "results": [ {
    "types": [ "locality", "political" ],
    "formatted_address": "Leon, IA, USA",
    "address_components": [ {
      "long_name": "Leon",
      "short_name": "Leon",
      "types": [ "locality", "political" ]
    }, {
      "long_name": "Decatur",
      "short_name": "Decatur",
      "types": [ "administrative_area_level_2", "political" ]
    }, {
      "long_name": "Iowa",
      "short_name": "IA",
      "types": [ "administrative_area_level_1", "political" ]
    }, {
      "long_name": "United States",
      "short_name": "US",
      "types": [ "country", "political" ]
    } ],
    "geometry": {
      "location": {
        "lat": 40.7397240,
        "lng": -93.7477217
      },
      "location_type": "APPROXIMATE",
      "viewport": {
        "southwest": {
          "lat": 40.7228134,
          "lng": -93.7797365
        },
        "northeast": {
          "lat": 40.7566303,
          "lng": -93.7157069
        }
      },
      "bounds": {
        "southwest": {
          "lat": 40.7247099,
          "lng": -93.7736039
        },
        "northeast": {
          "lat": 40.7541450,
          "lng": -93.7365069
        }
      }
    }
  } ]
}
