{
  "status": "OK",
  "results": [ {
    "types": [ "locality", "political" ],
    "formatted_address": "Mount Vernon, IA, USA",
    "address_components": [ {
      "long_name": "Mount Vernon",
      "short_name": "Mount Vernon",
      "types": [ "locality", "political" ]
    }, {
      "long_name": "Linn",
      "short_name": "Linn",
      "types": [ "administrative_area_level_2", "political" ]
    }, {
      "long_name": "Iowa",
      "short_name": "IA",
      "types": [ "administrative_area_level_1", "political" ]
    }, {
      "long_name": "United States",
      "short_name": "US",
      "types": [ "country", "political" ]
    } ],
    "geometry": {
      "location": {
        "lat": 41.9219522,
        "lng": -91.4168371
      },
      "location_type": "APPROXIMATE",
      "viewport": {
        "southwest": {
          "lat": 41.9053457,
          "lng": -91.4488519
        },
        "northeast": {
          "lat": 41.9385544,
          "lng": -91.3848223
        }
      },
      "bounds": {
        "southwest": {
          "lat": 41.9101320,
          "lng": -91.4437580
        },
        "northeast": {
          "lat": 41.9359059,
          "lng": -91.4048849
        }
      }
    }
  } ]
}
