{
  "status": "OK",
  "results": [ {
    "types": [ "locality", "political" ],
    "formatted_address": "Ogden, IA, USA",
    "address_components": [ {
      "long_name": "Ogden",
      "short_name": "Ogden",
      "types": [ "locality", "political" ]
    }, {
      "long_name": "Boone",
      "short_name": "Boone",
      "types": [ "administrative_area_level_2", "political" ]
    }, {
      "long_name": "Iowa",
      "short_name": "IA",
      "types": [ "administrative_area_level_1", "political" ]
    }, {
      "long_name": "United States",
      "short_name": "US",
      "types": [ "country", "political" ]
    } ],
    "geometry": {
      "location": {
        "lat": 42.0391482,
        "lng": -94.0277328
      },
      "location_type": "APPROXIMATE",
      "viewport": {
        "southwest": {
          "lat": 42.0308608,
          "lng": -94.0437402
        },
        "northeast": {
          "lat": 42.0474346,
          "lng": -94.0117254
        }
      },
      "bounds": {
        "southwest": {
          "lat": 42.0297790,
          "lng": -94.0412590
        },
        "northeast": {
          "lat": 42.0492370,
          "lng": -94.0183570
        }
      }
    }
  } ]
}
