{
  "status": "OK",
  "results": [ {
    "types": [ "locality", "political" ],
    "formatted_address": "Orange City, IA, USA",
    "address_components": [ {
      "long_name": "Orange City",
      "short_name": "Orange City",
      "types": [ "locality", "political" ]
    }, {
      "long_name": "Sioux",
      "short_name": "Sioux",
      "types": [ "administrative_area_level_2", "political" ]
    }, {
      "long_name": "Iowa",
      "short_name": "IA",
      "types": [ "administrative_area_level_1", "political" ]
    }, {
      "long_name": "United States",
      "short_name": "US",
      "types": [ "country", "political" ]
    } ],
    "geometry": {
      "location": {
        "lat": 43.0072087,
        "lng": -96.0583523
      },
      "location_type": "APPROXIMATE",
      "viewport": {
        "southwest": {
          "lat": 42.9908876,
          "lng": -96.0903671
        },
        "northeast": {
          "lat": 43.0235255,
          "lng": -96.0263375
        }
      },
      "bounds": {
        "southwest": {
          "lat": 42.9820980,
          "lng": -96.0812249
        },
        "northeast": {
          "lat": 43.0265939,
          "lng": -96.0262899
        }
      }
    }
  } ]
}
