{
  "status": "OK",
  "results": [ {
    "types": [ "locality", "political" ],
    "formatted_address": "Polk City, IA, USA",
    "address_components": [ {
      "long_name": "Polk City",
      "short_name": "Polk City",
      "types": [ "locality", "political" ]
    }, {
      "long_name": "Polk",
      "short_name": "Polk",
      "types": [ "administrative_area_level_2", "political" ]
    }, {
      "long_name": "Iowa",
      "short_name": "IA",
      "types": [ "administrative_area_level_1", "political" ]
    }, {
      "long_name": "United States",
      "short_name": "US",
      "types": [ "country", "political" ]
    } ],
    "geometry": {
      "location": {
        "lat": 41.7713764,
        "lng": -93.7129997
      },
      "location_type": "APPROXIMATE",
      "viewport": {
        "southwest": {
          "lat": 41.7547308,
          "lng": -93.7450145
        },
        "northeast": {
          "lat": 41.7880177,
          "lng": -93.6809849
        }
      },
      "bounds": {
        "southwest": {
          "lat": 41.7538769,
          "lng": -93.7375019
        },
        "northeast": {
          "lat": 41.7953450,
          "lng": -93.6872889
        }
      }
    }
  } ]
}
