{
  "status": "OK",
  "results": [ {
    "types": [ "locality", "political" ],
    "formatted_address": "Prairie City, IA, USA",
    "address_components": [ {
      "long_name": "Prairie City",
      "short_name": "Prairie City",
      "types": [ "locality", "political" ]
    }, {
      "long_name": "Jasper",
      "short_name": "Jasper",
      "types": [ "administrative_area_level_2", "political" ]
    }, {
      "long_name": "Iowa",
      "short_name": "IA",
      "types": [ "administrative_area_level_1", "political" ]
    }, {
      "long_name": "United States",
      "short_name": "US",
      "types": [ "country", "political" ]
    } ],
    "geometry": {
      "location": {
        "lat": 41.5972117,
        "lng": -93.2404832
      },
      "location_type": "APPROXIMATE",
      "viewport": {
        "southwest": {
          "lat": 41.5888669,
          "lng": -93.2564906
        },
        "northeast": {
          "lat": 41.6055554,
          "lng": -93.2244758
        }
      },
      "bounds": {
        "southwest": {
          "lat": 41.5877560,
          "lng": -93.2533960
        },
        "northeast": {
          "lat": 41.6046720,
          "lng": -93.2270250
        }
      }
    }
  } ]
}
