{
  "status": "OK",
  "results": [ {
    "types": [ "locality", "political" ],
    "formatted_address": "Sergeant Bluff, IA, USA",
    "address_components": [ {
      "long_name": "Sergeant Bluff",
      "short_name": "Sergeant Bluff",
      "types": [ "locality", "political" ]
    }, {
      "long_name": "Woodbury",
      "short_name": "Woodbury",
      "types": [ "administrative_area_level_2", "political" ]
    }, {
      "long_name": "Iowa",
      "short_name": "IA",
      "types": [ "administrative_area_level_1", "political" ]
    }, {
      "long_name": "United States",
      "short_name": "US",
      "types": [ "country", "political" ]
    } ],
    "geometry": {
      "location": {
        "lat": 42.4006510,
        "lng": -96.3555920
      },
      "location_type": "APPROXIMATE",
      "viewport": {
        "southwest": {
          "lat": 42.3841697,
          "lng": -96.3876068
        },
        "northeast": {
          "lat": 42.4171280,
          "lng": -96.3235772
        }
      },
      "bounds": {
        "southwest": {
          "lat": 42.3817529,
          "lng": -96.3701179
        },
        "northeast": {
          "lat": 42.4148930,
          "lng": -96.3407809
        }
      }
    }
  } ]
}
