{
  "status": "OK",
  "results": [ {
    "types": [ "locality", "political" ],
    "formatted_address": "Webster City, IA, USA",
    "address_components": [ {
      "long_name": "Webster City",
      "short_name": "Webster City",
      "types": [ "locality", "political" ]
    }, {
      "long_name": "Hamilton",
      "short_name": "Hamilton",
      "types": [ "administrative_area_level_2", "political" ]
    }, {
      "long_name": "Iowa",
      "short_name": "IA",
      "types": [ "administrative_area_level_1", "political" ]
    }, {
      "long_name": "United States",
      "short_name": "US",
      "types": [ "country", "political" ]
    } ],
    "geometry": {
      "location": {
        "lat": 42.4663000,
        "lng": -93.8205820
      },
      "location_type": "APPROXIMATE",
      "viewport": {
        "southwest": {
          "lat": 42.4333675,
          "lng": -93.8846117
        },
        "northeast": {
          "lat": 42.4992152,
          "lng": -93.7565523
        }
      },
      "bounds": {
        "southwest": {
          "lat": 42.4268209,
          "lng": -93.8581229
        },
        "northeast": {
          "lat": 42.4860390,
          "lng": -93.7737820
        }
      }
    }
  } ]
}
