{
  "status": "OK",
  "results": [ {
    "types": [ "locality", "political" ],
    "formatted_address": "Chestertown, MD, USA",
    "address_components": [ {
      "long_name": "Chestertown",
      "short_name": "Chestertown",
      "types": [ "locality", "political" ]
    }, {
      "long_name": "Kent",
      "short_name": "Kent",
      "types": [ "administrative_area_level_2", "political" ]
    }, {
      "long_name": "Maryland",
      "short_name": "MD",
      "types": [ "administrative_area_level_1", "political" ]
    }, {
      "long_name": "United States",
      "short_name": "US",
      "types": [ "country", "political" ]
    } ],
    "geometry": {
      "location": {
        "lat": 39.2089986,
        "lng": -76.0666126
      },
      "location_type": "APPROXIMATE",
      "viewport": {
        "southwest": {
          "lat": 39.1917050,
          "lng": -76.0986274
        },
        "northeast": {
          "lat": 39.2262879,
          "lng": -76.0345978
        }
      },
      "bounds": {
        "southwest": {
          "lat": 39.1974219,
          "lng": -76.0948020
        },
        "northeast": {
          "lat": 39.2365340,
          "lng": -76.0489800
        }
      }
    }
  } ]
}
