{
  "status": "OK",
  "results": [ {
    "types": [ "locality", "political" ],
    "formatted_address": "Colmar Manor, MD, USA",
    "address_components": [ {
      "long_name": "Colmar Manor",
      "short_name": "Colmar Manor",
      "types": [ "locality", "political" ]
    }, {
      "long_name": "Prince George's",
      "short_name": "Prince George's",
      "types": [ "administrative_area_level_2", "political" ]
    }, {
      "long_name": "Maryland",
      "short_name": "MD",
      "types": [ "administrative_area_level_1", "political" ]
    }, {
      "long_name": "United States",
      "short_name": "US",
      "types": [ "country", "political" ]
    } ],
    "geometry": {
      "location": {
        "lat": 38.9331669,
        "lng": -76.9458078
      },
      "location_type": "APPROXIMATE",
      "viewport": {
        "southwest": {
          "lat": 38.9244868,
          "lng": -76.9618152
        },
        "northeast": {
          "lat": 38.9418459,
          "lng": -76.9298004
        }
      },
      "bounds": {
        "southwest": {
          "lat": 38.9185839,
          "lng": -76.9530379
        },
        "northeast": {
          "lat": 38.9382460,
          "lng": -76.9382919
        }
      }
    }
  } ]
}
