{
  "status": "OK",
  "results": [ {
    "types": [ "locality", "political" ],
    "formatted_address": "Denton, MD, USA",
    "address_components": [ {
      "long_name": "Denton",
      "short_name": "Denton",
      "types": [ "locality", "political" ]
    }, {
      "long_name": "Caroline",
      "short_name": "Caroline",
      "types": [ "administrative_area_level_2", "political" ]
    }, {
      "long_name": "Maryland",
      "short_name": "MD",
      "types": [ "administrative_area_level_1", "political" ]
    }, {
      "long_name": "United States",
      "short_name": "US",
      "types": [ "country", "political" ]
    } ],
    "geometry": {
      "location": {
        "lat": 38.8845582,
        "lng": -75.8271563
      },
      "location_type": "APPROXIMATE",
      "viewport": {
        "southwest": {
          "lat": 38.8671850,
          "lng": -75.8591711
        },
        "northeast": {
          "lat": 38.9019271,
          "lng": -75.7951415
        }
      },
      "bounds": {
        "southwest": {
          "lat": 38.8579299,
          "lng": -75.8657939
        },
        "northeast": {
          "lat": 38.8970220,
          "lng": -75.7968669
        }
      }
    }
  } ]
}
