{
  "status": "OK",
  "results": [ {
    "types": [ "locality", "political" ],
    "formatted_address": "Glenarden, MD, USA",
    "address_components": [ {
      "long_name": "Glenarden",
      "short_name": "Glenarden",
      "types": [ "locality", "political" ]
    }, {
      "long_name": "Prince George's",
      "short_name": "Prince George's",
      "types": [ "administrative_area_level_2", "political" ]
    }, {
      "long_name": "Maryland",
      "short_name": "MD",
      "types": [ "administrative_area_level_1", "political" ]
    }, {
      "long_name": "United States",
      "short_name": "US",
      "types": [ "country", "political" ]
    } ],
    "geometry": {
      "location": {
        "lat": 38.9292782,
        "lng": -76.8616387
      },
      "location_type": "APPROXIMATE",
      "viewport": {
        "southwest": {
          "lat": 38.9205976,
          "lng": -76.8776461
        },
        "northeast": {
          "lat": 38.9379577,
          "lng": -76.8456313
        }
      },
      "bounds": {
        "southwest": {
          "lat": 38.9165810,
          "lng": -76.8764690
        },
        "northeast": {
          "lat": 38.9402849,
          "lng": -76.8374530
        }
      }
    }
  } ]
}
