{
  "status": "OK",
  "results": [ {
    "types": [ "locality", "political" ],
    "formatted_address": "Hagerstown, MD, USA",
    "address_components": [ {
      "long_name": "Hagerstown",
      "short_name": "Hagerstown",
      "types": [ "locality", "political" ]
    }, {
      "long_name": "Washington",
      "short_name": "Washington",
      "types": [ "administrative_area_level_2", "political" ]
    }, {
      "long_name": "Maryland",
      "short_name": "MD",
      "types": [ "administrative_area_level_1", "political" ]
    }, {
      "long_name": "United States",
      "short_name": "US",
      "types": [ "country", "political" ]
    } ],
    "geometry": {
      "location": {
        "lat": 39.6417629,
        "lng": -77.7199932
      },
      "location_type": "APPROXIMATE",
      "viewport": {
        "southwest": {
          "lat": 39.6073856,
          "lng": -77.7840229
        },
        "northeast": {
          "lat": 39.6761231,
          "lng": -77.6559635
        }
      },
      "bounds": {
        "southwest": {
          "lat": 39.5999039,
          "lng": -77.7731359
        },
        "northeast": {
          "lat": 39.6736210,
          "lng": -77.6722710
        }
      }
    }
  } ]
}
