{
  "status": "OK",
  "results": [ {
    "types": [ "locality", "political" ],
    "formatted_address": "Luke, MD, USA",
    "address_components": [ {
      "long_name": "Luke",
      "short_name": "Luke",
      "types": [ "locality", "political" ]
    }, {
      "long_name": "Allegany",
      "short_name": "Allegany",
      "types": [ "administrative_area_level_2", "political" ]
    }, {
      "long_name": "Maryland",
      "short_name": "MD",
      "types": [ "administrative_area_level_1", "political" ]
    }, {
      "long_name": "United States",
      "short_name": "US",
      "types": [ "country", "political" ]
    } ],
    "geometry": {
      "location": {
        "lat": 39.4750931,
        "lng": -79.0569742
      },
      "location_type": "APPROXIMATE",
      "viewport": {
        "southwest": {
          "lat": 39.4664797,
          "lng": -79.0729816
        },
        "northeast": {
          "lat": 39.4837054,
          "lng": -79.0409668
        }
      },
      "bounds": {
        "southwest": {
          "lat": 39.4706229,
          "lng": -79.0669700
        },
        "northeast": {
          "lat": 39.4815360,
          "lng": -79.0533820
        }
      }
    }
  } ]
}
