{
  "status": "OK",
  "results": [ {
    "types": [ "locality", "political" ],
    "formatted_address": "Morningside, MD, USA",
    "address_components": [ {
      "long_name": "Morningside",
      "short_name": "Morningside",
      "types": [ "locality", "political" ]
    }, {
      "long_name": "Prince George's",
      "short_name": "Prince George's",
      "types": [ "administrative_area_level_2", "political" ]
    }, {
      "long_name": "Maryland",
      "short_name": "MD",
      "types": [ "administrative_area_level_1", "political" ]
    }, {
      "long_name": "United States",
      "short_name": "US",
      "types": [ "country", "political" ]
    } ],
    "geometry": {
      "location": {
        "lat": 38.8301133,
        "lng": -76.8913615
      },
      "location_type": "APPROXIMATE",
      "viewport": {
        "southwest": {
          "lat": 38.8127268,
          "lng": -76.9233763
        },
        "northeast": {
          "lat": 38.8474955,
          "lng": -76.8593467
        }
      },
      "bounds": {
        "southwest": {
          "lat": 38.8118489,
          "lng": -76.9025310
        },
        "northeast": {
          "lat": 38.8352719,
          "lng": -76.8644760
        }
      }
    }
  } ]
}
