{
  "status": "OK",
  "results": [ {
    "types": [ "locality", "political" ],
    "formatted_address": "North East, MD, USA",
    "address_components": [ {
      "long_name": "North East",
      "short_name": "North East",
      "types": [ "locality", "political" ]
    }, {
      "long_name": "Cecil",
      "short_name": "Cecil",
      "types": [ "administrative_area_level_2", "political" ]
    }, {
      "long_name": "Maryland",
      "short_name": "MD",
      "types": [ "administrative_area_level_1", "political" ]
    }, {
      "long_name": "United States",
      "short_name": "US",
      "types": [ "country", "political" ]
    } ],
    "geometry": {
      "location": {
        "lat": 39.6001132,
        "lng": -75.9413327
      },
      "location_type": "APPROXIMATE",
      "viewport": {
        "southwest": {
          "lat": 39.5829163,
          "lng": -75.9733475
        },
        "northeast": {
          "lat": 39.6173058,
          "lng": -75.9093179
        }
      },
      "bounds": {
        "southwest": {
          "lat": 39.5902460,
          "lng": -75.9562370
        },
        "northeast": {
          "lat": 39.6368639,
          "lng": -75.9236320
        }
      }
    }
  } ]
}
