{
  "status": "OK",
  "results": [ {
    "types": [ "locality", "political" ],
    "formatted_address": "Oakland, MD, USA",
    "address_components": [ {
      "long_name": "Oakland",
      "short_name": "Oakland",
      "types": [ "locality", "political" ]
    }, {
      "long_name": "Garrett",
      "short_name": "Garrett",
      "types": [ "administrative_area_level_2", "political" ]
    }, {
      "long_name": "Maryland",
      "short_name": "MD",
      "types": [ "administrative_area_level_1", "political" ]
    }, {
      "long_name": "United States",
      "short_name": "US",
      "types": [ "country", "political" ]
    } ],
    "geometry": {
      "location": {
        "lat": 39.4078747,
        "lng": -79.4067116
      },
      "location_type": "APPROXIMATE",
      "viewport": {
        "southwest": {
          "lat": 39.3906302,
          "lng": -79.4387264
        },
        "northeast": {
          "lat": 39.4251149,
          "lng": -79.3746968
        }
      },
      "bounds": {
        "southwest": {
          "lat": 39.3998920,
          "lng": -79.4244640
        },
        "northeast": {
          "lat": 39.4370330,
          "lng": -79.3887620
        }
      }
    }
  } ]
}
