{
  "status": "OK",
  "results": [ {
    "types": [ "locality", "political" ],
    "formatted_address": "St. Michaels, MD, USA",
    "address_components": [ {
      "long_name": "St. Michaels",
      "short_name": "St. Michaels",
      "types": [ "locality", "political" ]
    }, {
      "long_name": "Talbot",
      "short_name": "Talbot",
      "types": [ "administrative_area_level_2", "political" ]
    }, {
      "long_name": "Maryland",
      "short_name": "MD",
      "types": [ "administrative_area_level_1", "political" ]
    }, {
      "long_name": "United States",
      "short_name": "US",
      "types": [ "country", "political" ]
    } ],
    "geometry": {
      "location": {
        "lat": 38.7884050,
        "lng": -76.2222270
      },
      "location_type": "APPROXIMATE",
      "viewport": {
        "southwest": {
          "lat": 38.7710084,
          "lng": -76.2542418
        },
        "northeast": {
          "lat": 38.8057974,
          "lng": -76.1902122
        }
      },
      "bounds": {
        "southwest": {
          "lat": 38.7722520,
          "lng": -76.2430160
        },
        "northeast": {
          "lat": 38.8076189,
          "lng": -76.2092610
        }
      }
    }
  } ]
}
