{
  "status": "OK",
  "results": [ {
    "types": [ "locality", "political" ],
    "formatted_address": "Westernport, MD, USA",
    "address_components": [ {
      "long_name": "Westernport",
      "short_name": "Westernport",
      "types": [ "locality", "political" ]
    }, {
      "long_name": "Allegany",
      "short_name": "Allegany",
      "types": [ "administrative_area_level_2", "political" ]
    }, {
      "long_name": "Maryland",
      "short_name": "MD",
      "types": [ "administrative_area_level_1", "political" ]
    }, {
      "long_name": "United States",
      "short_name": "US",
      "types": [ "country", "political" ]
    } ],
    "geometry": {
      "location": {
        "lat": 39.4853703,
        "lng": -79.0447516
      },
      "location_type": "APPROXIMATE",
      "viewport": {
        "southwest": {
          "lat": 39.4767582,
          "lng": -79.0607590
        },
        "northeast": {
          "lat": 39.4939814,
          "lng": -79.0287442
        }
      },
      "bounds": {
        "southwest": {
          "lat": 39.4774740,
          "lng": -79.0550070
        },
        "northeast": {
          "lat": 39.4968069,
          "lng": -79.0333100
        }
      }
    }
  } ]
}
