{
  "status": "OK",
  "results": [ {
    "types": [ "locality", "political" ],
    "formatted_address": "Armour, SD, USA",
    "address_components": [ {
      "long_name": "Armour",
      "short_name": "Armour",
      "types": [ "locality", "political" ]
    }, {
      "long_name": "Douglas",
      "short_name": "Douglas",
      "types": [ "administrative_area_level_2", "political" ]
    }, {
      "long_name": "South Dakota",
      "short_name": "SD",
      "types": [ "administrative_area_level_1", "political" ]
    }, {
      "long_name": "United States",
      "short_name": "US",
      "types": [ "country", "political" ]
    } ],
    "geometry": {
      "location": {
        "lat": 43.3186012,
        "lng": -98.3467455
      },
      "location_type": "APPROXIMATE",
      "viewport": {
        "southwest": {
          "lat": 43.3104827,
          "lng": -98.3627529
        },
        "northeast": {
          "lat": 43.3267187,
          "lng": -98.3307381
        }
      },
      "bounds": {
        "southwest": {
          "lat": 43.3116990,
          "lng": -98.3544440
        },
        "northeast": {
          "lat": 43.3263490,
          "lng": -98.3352910
        }
      }
    }
  } ]
}
