{
  "status": "OK",
  "results": [ {
    "types": [ "locality", "political" ],
    "formatted_address": "Canton, SD, USA",
    "address_components": [ {
      "long_name": "Canton",
      "short_name": "Canton",
      "types": [ "locality", "political" ]
    }, {
      "long_name": "Lincoln",
      "short_name": "Lincoln",
      "types": [ "administrative_area_level_2", "political" ]
    }, {
      "long_name": "South Dakota",
      "short_name": "SD",
      "types": [ "administrative_area_level_1", "political" ]
    }, {
      "long_name": "United States",
      "short_name": "US",
      "types": [ "country", "political" ]
    } ],
    "geometry": {
      "location": {
        "lat": 43.3008146,
        "lng": -96.5928198
      },
      "location_type": "APPROXIMATE",
      "viewport": {
        "southwest": {
          "lat": 43.2845717,
          "lng": -96.6248346
        },
        "northeast": {
          "lat": 43.3170532,
          "lng": -96.5608050
        }
      },
      "bounds": {
        "southwest": {
          "lat": 43.2928600,
          "lng": -96.6268010
        },
        "northeast": {
          "lat": 43.3154350,
          "lng": -96.5494109
        }
      }
    }
  } ]
}
