{
  "status": "OK",
  "results": [ {
    "types": [ "locality", "political" ],
    "formatted_address": "Corsica, SD, USA",
    "address_components": [ {
      "long_name": "Corsica",
      "short_name": "Corsica",
      "types": [ "locality", "political" ]
    }, {
      "long_name": "Douglas",
      "short_name": "Douglas",
      "types": [ "administrative_area_level_2", "political" ]
    }, {
      "long_name": "South Dakota",
      "short_name": "SD",
      "types": [ "administrative_area_level_1", "political" ]
    }, {
      "long_name": "United States",
      "short_name": "US",
      "types": [ "country", "political" ]
    } ],
    "geometry": {
      "location": {
        "lat": 43.4252676,
        "lng": -98.4073023
      },
      "location_type": "APPROXIMATE",
      "viewport": {
        "southwest": {
          "lat": 43.4171633,
          "lng": -98.4233097
        },
        "northeast": {
          "lat": 43.4333708,
          "lng": -98.3912949
        }
      },
      "bounds": {
        "southwest": {
          "lat": 43.4169410,
          "lng": -98.4157269
        },
        "northeast": {
          "lat": 43.4379990,
          "lng": -98.3968560
        }
      }
    }
  } ]
}
