{
  "status": "OK",
  "results": [ {
    "types": [ "locality", "political" ],
    "formatted_address": "Flandreau, SD 57028, USA",
    "address_components": [ {
      "long_name": "Flandreau",
      "short_name": "Flandreau",
      "types": [ "locality", "political" ]
    }, {
      "long_name": "Moody",
      "short_name": "Moody",
      "types": [ "administrative_area_level_2", "political" ]
    }, {
      "long_name": "South Dakota",
      "short_name": "SD",
      "types": [ "administrative_area_level_1", "political" ]
    }, {
      "long_name": "United States",
      "short_name": "US",
      "types": [ "country", "political" ]
    }, {
      "long_name": "57028",
      "short_name": "57028",
      "types": [ "postal_code" ]
    } ],
    "geometry": {
      "location": {
        "lat": 44.0494154,
        "lng": -96.5953240
      },
      "location_type": "APPROXIMATE",
      "viewport": {
        "southwest": {
          "lat": 44.0413952,
          "lng": -96.6113314
        },
        "northeast": {
          "lat": 44.0574346,
          "lng": -96.5793166
        }
      },
      "bounds": {
        "southwest": {
          "lat": 44.0325400,
          "lng": -96.6172790
        },
        "northeast": {
          "lat": 44.0588870,
          "lng": -96.5788250
        }
      }
    }
  } ]
}
