{
  "status": "OK",
  "results": [ {
    "types": [ "locality", "political" ],
    "formatted_address": "Irene, SD, USA",
    "address_components": [ {
      "long_name": "Irene",
      "short_name": "Irene",
      "types": [ "locality", "political" ]
    }, {
      "long_name": "Turner",
      "short_name": "Turner",
      "types": [ "administrative_area_level_2", "political" ]
    }, {
      "long_name": "South Dakota",
      "short_name": "SD",
      "types": [ "administrative_area_level_1", "political" ]
    }, {
      "long_name": "United States",
      "short_name": "US",
      "types": [ "country", "political" ]
    } ],
    "geometry": {
      "location": {
        "lat": 43.0830474,
        "lng": -97.1606081
      },
      "location_type": "APPROXIMATE",
      "viewport": {
        "southwest": {
          "lat": 43.0748975,
          "lng": -97.1766155
        },
        "northeast": {
          "lat": 43.0911963,
          "lng": -97.1446007
        }
      },
      "bounds": {
        "southwest": {
          "lat": 43.0794990,
          "lng": -97.1638890
        },
        "northeast": {
          "lat": 43.0899180,
          "lng": -97.1518720
        }
      }
    }
  } ]
}
