{
  "status": "OK",
  "results": [ {
    "types": [ "locality", "political" ],
    "formatted_address": "Madison, SD, USA",
    "address_components": [ {
      "long_name": "Madison",
      "short_name": "Madison",
      "types": [ "locality", "political" ]
    }, {
      "long_name": "Lake",
      "short_name": "Lake",
      "types": [ "administrative_area_level_2", "political" ]
    }, {
      "long_name": "South Dakota",
      "short_name": "SD",
      "types": [ "administrative_area_level_1", "political" ]
    }, {
      "long_name": "United States",
      "short_name": "US",
      "types": [ "country", "political" ]
    } ],
    "geometry": {
      "location": {
        "lat": 44.0060847,
        "lng": -97.1139496
      },
      "location_type": "APPROXIMATE",
      "viewport": {
        "southwest": {
          "lat": 43.9900314,
          "lng": -97.1459644
        },
        "northeast": {
          "lat": 44.0221337,
          "lng": -97.0819348
        }
      },
      "bounds": {
        "southwest": {
          "lat": 43.9858840,
          "lng": -97.1420720
        },
        "northeast": {
          "lat": 44.0222360,
          "lng": -97.0799550
        }
      }
    }
  } ]
}
