{
  "status": "OK",
  "results": [ {
    "types": [ "locality", "political" ],
    "formatted_address": "Martin, SD, USA",
    "address_components": [ {
      "long_name": "Martin",
      "short_name": "Martin",
      "types": [ "locality", "political" ]
    }, {
      "long_name": "Bennett",
      "short_name": "Bennett",
      "types": [ "administrative_area_level_2", "political" ]
    }, {
      "long_name": "South Dakota",
      "short_name": "SD",
      "types": [ "administrative_area_level_1", "political" ]
    }, {
      "long_name": "United States",
      "short_name": "US",
      "types": [ "country", "political" ]
    } ],
    "geometry": {
      "location": {
        "lat": 43.1724984,
        "lng": -101.7326485
      },
      "location_type": "APPROXIMATE",
      "viewport": {
        "southwest": {
          "lat": 43.1643604,
          "lng": -101.7486559
        },
        "northeast": {
          "lat": 43.1806353,
          "lng": -101.7166411
        }
      },
      "bounds": {
        "southwest": {
          "lat": 43.1673280,
          "lng": -101.7417360
        },
        "northeast": {
          "lat": 43.1796420,
          "lng": -101.7207330
        }
      }
    }
  } ]
}
