{
  "status": "OK",
  "results": [ {
    "types": [ "locality", "political" ],
    "formatted_address": "Parkston, SD, USA",
    "address_components": [ {
      "long_name": "Parkston",
      "short_name": "Parkston",
      "types": [ "locality", "political" ]
    }, {
      "long_name": "Hutchinson",
      "short_name": "Hutchinson",
      "types": [ "administrative_area_level_2", "political" ]
    }, {
      "long_name": "South Dakota",
      "short_name": "SD",
      "types": [ "administrative_area_level_1", "political" ]
    }, {
      "long_name": "United States",
      "short_name": "US",
      "types": [ "country", "political" ]
    } ],
    "geometry": {
      "location": {
        "lat": 43.3988755,
        "lng": -97.9836830
      },
      "location_type": "APPROXIMATE",
      "viewport": {
        "southwest": {
          "lat": 43.3907677,
          "lng": -97.9996904
        },
        "northeast": {
          "lat": 43.4069822,
          "lng": -97.9676756
        }
      },
      "bounds": {
        "southwest": {
          "lat": 43.3843610,
          "lng": -97.9977210
        },
        "northeast": {
          "lat": 43.4012640,
          "lng": -97.9713309
        }
      }
    }
  } ]
}
