{
  "status": "OK",
  "results": [ {
    "types": [ "locality", "political" ],
    "formatted_address": "Pierre, SD, USA",
    "address_components": [ {
      "long_name": "Pierre",
      "short_name": "Pierre",
      "types": [ "locality", "political" ]
    }, {
      "long_name": "Hughes",
      "short_name": "Hughes",
      "types": [ "administrative_area_level_2", "political" ]
    }, {
      "long_name": "South Dakota",
      "short_name": "SD",
      "types": [ "administrative_area_level_1", "political" ]
    }, {
      "long_name": "United States",
      "short_name": "US",
      "types": [ "country", "political" ]
    } ],
    "geometry": {
      "location": {
        "lat": 44.3683156,
        "lng": -100.3509665
      },
      "location_type": "APPROXIMATE",
      "viewport": {
        "southwest": {
          "lat": 44.3364013,
          "lng": -100.4149962
        },
        "northeast": {
          "lat": 44.4002125,
          "lng": -100.2869368
        }
      },
      "bounds": {
        "southwest": {
          "lat": 44.3412170,
          "lng": -100.3718660
        },
        "northeast": {
          "lat": 44.4003189,
          "lng": -100.2692110
        }
      }
    }
  } ]
}
