{
  "status": "OK",
  "results": [ {
    "types": [ "locality", "political" ],
    "formatted_address": "Viborg, SD, USA",
    "address_components": [ {
      "long_name": "Viborg",
      "short_name": "Viborg",
      "types": [ "locality", "political" ]
    }, {
      "long_name": "Turner",
      "short_name": "Turner",
      "types": [ "administrative_area_level_2", "political" ]
    }, {
      "long_name": "South Dakota",
      "short_name": "SD",
      "types": [ "administrative_area_level_1", "political" ]
    }, {
      "long_name": "United States",
      "short_name": "US",
      "types": [ "country", "political" ]
    } ],
    "geometry": {
      "location": {
        "lat": 43.1702657,
        "lng": -97.0814405
      },
      "location_type": "APPROXIMATE",
      "viewport": {
        "southwest": {
          "lat": 43.1621274,
          "lng": -97.0974479
        },
        "northeast": {
          "lat": 43.1784029,
          "lng": -97.0654331
        }
      },
      "bounds": {
        "southwest": {
          "lat": 43.1660229,
          "lng": -97.0879109
        },
        "northeast": {
          "lat": 43.1761310,
          "lng": -97.0670950
        }
      }
    }
  } ]
}
