{
  "status": "OK",
  "results": [ {
    "types": [ "locality", "political" ],
    "formatted_address": "Algonac, MI, USA",
    "address_components": [ {
      "long_name": "Algonac",
      "short_name": "Algonac",
      "types": [ "locality", "political" ]
    }, {
      "long_name": "St. Clair",
      "short_name": "St. Clair",
      "types": [ "administrative_area_level_2", "political" ]
    }, {
      "long_name": "Michigan",
      "short_name": "MI",
      "types": [ "administrative_area_level_1", "political" ]
    }, {
      "long_name": "United States",
      "short_name": "US",
      "types": [ "country", "political" ]
    } ],
    "geometry": {
      "location": {
        "lat": 42.6183675,
        "lng": -82.5310180
      },
      "location_type": "APPROXIMATE",
      "viewport": {
        "southwest": {
          "lat": 42.6101560,
          "lng": -82.5470254
        },
        "northeast": {
          "lat": 42.6265779,
          "lng": -82.5150106
        }
      },
      "bounds": {
        "southwest": {
          "lat": 42.6075800,
          "lng": -82.5514750
        },
        "northeast": {
          "lat": 42.6328260,
          "lng": -82.5157790
        }
      }
    }
  } ]
}
