{
  "status": "OK",
  "results": [ {
    "types": [ "locality", "political" ],
    "formatted_address": "Beaverton, MI, USA",
    "address_components": [ {
      "long_name": "Beaverton",
      "short_name": "Beaverton",
      "types": [ "locality", "political" ]
    }, {
      "long_name": "Gladwin",
      "short_name": "Gladwin",
      "types": [ "administrative_area_level_2", "political" ]
    }, {
      "long_name": "Michigan",
      "short_name": "MI",
      "types": [ "administrative_area_level_1", "political" ]
    }, {
      "long_name": "United States",
      "short_name": "US",
      "types": [ "country", "political" ]
    } ],
    "geometry": {
      "location": {
        "lat": 43.8822464,
        "lng": -84.4847316
      },
      "location_type": "APPROXIMATE",
      "viewport": {
        "southwest": {
          "lat": 43.8742036,
          "lng": -84.5007390
        },
        "northeast": {
          "lat": 43.8902882,
          "lng": -84.4687242
        }
      },
      "bounds": {
        "southwest": {
          "lat": 43.8723920,
          "lng": -84.5052429
        },
        "northeast": {
          "lat": 43.8903720,
          "lng": -84.4722439
        }
      }
    }
  } ]
}
