{
  "status": "OK",
  "results": [ {
    "types": [ "locality", "political" ],
    "formatted_address": "Blissfield, MI, USA",
    "address_components": [ {
      "long_name": "Blissfield",
      "short_name": "Blissfield",
      "types": [ "locality", "political" ]
    }, {
      "long_name": "Lenawee",
      "short_name": "Lenawee",
      "types": [ "administrative_area_level_2", "political" ]
    }, {
      "long_name": "Michigan",
      "short_name": "MI",
      "types": [ "administrative_area_level_1", "political" ]
    }, {
      "long_name": "United States",
      "short_name": "US",
      "types": [ "country", "political" ]
    } ],
    "geometry": {
      "location": {
        "lat": 41.8325486,
        "lng": -83.8624411
      },
      "location_type": "APPROXIMATE",
      "viewport": {
        "southwest": {
          "lat": 41.8159189,
          "lng": -83.8944559
        },
        "northeast": {
          "lat": 41.8491740,
          "lng": -83.8304263
        }
      },
      "bounds": {
        "southwest": {
          "lat": 41.8182490,
          "lng": -83.8855590
        },
        "northeast": {
          "lat": 41.8502180,
          "lng": -83.8334189
        }
      }
    }
  } ]
}
