{
  "status": "OK",
  "results": [ {
    "types": [ "locality", "political" ],
    "formatted_address": "Bloomfield, MI, USA",
    "address_components": [ {
      "long_name": "Bloomfield",
      "short_name": "Bloomfield",
      "types": [ "locality", "political" ]
    }, {
      "long_name": "Oakland",
      "short_name": "Oakland",
      "types": [ "administrative_area_level_2", "political" ]
    }, {
      "long_name": "Michigan",
      "short_name": "MI",
      "types": [ "administrative_area_level_1", "political" ]
    }, {
      "long_name": "United States",
      "short_name": "US",
      "types": [ "country", "political" ]
    } ],
    "geometry": {
      "location": {
        "lat": 42.5378124,
        "lng": -83.2329862
      },
      "location_type": "APPROXIMATE",
      "viewport": {
        "southwest": {
          "lat": 42.4720053,
          "lng": -83.3610456
        },
        "northeast": {
          "lat": 42.6035502,
          "lng": -83.1049268
        }
      },
      "bounds": {
        "southwest": {
          "lat": 42.5273340,
          "lng": -83.3605881
        },
        "northeast": {
          "lat": 42.6209950,
          "lng": -83.1967243
        }
      }
    }
  } ]
}
