{
  "status": "OK",
  "results": [ {
    "types": [ "locality", "political" ],
    "formatted_address": "Bridgeport, MI, USA",
    "address_components": [ {
      "long_name": "Bridgeport",
      "short_name": "Bridgeport",
      "types": [ "locality", "political" ]
    }, {
      "long_name": "Saginaw",
      "short_name": "Saginaw",
      "types": [ "administrative_area_level_2", "political" ]
    }, {
      "long_name": "Michigan",
      "short_name": "MI",
      "types": [ "administrative_area_level_1", "political" ]
    }, {
      "long_name": "United States",
      "short_name": "US",
      "types": [ "country", "political" ]
    } ],
    "geometry": {
      "location": {
        "lat": 43.3594696,
        "lng": -83.8816364
      },
      "location_type": "APPROXIMATE",
      "viewport": {
        "southwest": {
          "lat": 43.3270108,
          "lng": -83.9456661
        },
        "northeast": {
          "lat": 43.3919111,
          "lng": -83.8176067
        }
      },
      "bounds": {
        "southwest": {
          "lat": 43.3396569,
          "lng": -83.9288299
        },
        "northeast": {
          "lat": 43.3932390,
          "lng": -83.8367600
        }
      }
    }
  } ]
}
