{
  "status": "OK",
  "results": [ {
    "types": [ "locality", "political" ],
    "formatted_address": "Burr Oak, MI, USA",
    "address_components": [ {
      "long_name": "Burr Oak",
      "short_name": "Burr Oak",
      "types": [ "locality", "political" ]
    }, {
      "long_name": "St. Joseph",
      "short_name": "St. Joseph",
      "types": [ "administrative_area_level_2", "political" ]
    }, {
      "long_name": "Michigan",
      "short_name": "MI",
      "types": [ "administrative_area_level_1", "political" ]
    }, {
      "long_name": "United States",
      "short_name": "US",
      "types": [ "country", "political" ]
    } ],
    "geometry": {
      "location": {
        "lat": 41.8472719,
        "lng": -85.3185899
      },
      "location_type": "APPROXIMATE",
      "viewport": {
        "southwest": {
          "lat": 41.8389595,
          "lng": -85.3345973
        },
        "northeast": {
          "lat": 41.8555832,
          "lng": -85.3025825
        }
      },
      "bounds": {
        "southwest": {
          "lat": 41.8398670,
          "lng": -85.3309960
        },
        "northeast": {
          "lat": 41.8544769,
          "lng": -85.3114940
        }
      }
    }
  } ]
}
