{
  "status": "OK",
  "results": [ {
    "types": [ "locality", "political" ],
    "formatted_address": "Cadillac, MI, USA",
    "address_components": [ {
      "long_name": "Cadillac",
      "short_name": "Cadillac",
      "types": [ "locality", "political" ]
    }, {
      "long_name": "Wexford",
      "short_name": "Wexford",
      "types": [ "administrative_area_level_2", "political" ]
    }, {
      "long_name": "Michigan",
      "short_name": "MI",
      "types": [ "administrative_area_level_1", "political" ]
    }, {
      "long_name": "United States",
      "short_name": "US",
      "types": [ "country", "political" ]
    } ],
    "geometry": {
      "location": {
        "lat": 44.2519526,
        "lng": -85.4011619
      },
      "location_type": "APPROXIMATE",
      "viewport": {
        "southwest": {
          "lat": 44.2199750,
          "lng": -85.4651916
        },
        "northeast": {
          "lat": 44.2839128,
          "lng": -85.3371322
        }
      },
      "bounds": {
        "southwest": {
          "lat": 44.2228939,
          "lng": -85.4568929
        },
        "northeast": {
          "lat": 44.2813299,
          "lng": -85.3763170
        }
      }
    }
  } ]
}
