{
  "status": "OK",
  "results": [ {
    "types": [ "locality", "political" ],
    "formatted_address": "Carleton, MI, USA",
    "address_components": [ {
      "long_name": "Carleton",
      "short_name": "Carleton",
      "types": [ "locality", "political" ]
    }, {
      "long_name": "Monroe",
      "short_name": "Monroe",
      "types": [ "administrative_area_level_2", "political" ]
    }, {
      "long_name": "Michigan",
      "short_name": "MI",
      "types": [ "administrative_area_level_1", "political" ]
    }, {
      "long_name": "United States",
      "short_name": "US",
      "types": [ "country", "political" ]
    } ],
    "geometry": {
      "location": {
        "lat": 42.0592101,
        "lng": -83.3907658
      },
      "location_type": "APPROXIMATE",
      "viewport": {
        "southwest": {
          "lat": 42.0509253,
          "lng": -83.4067732
        },
        "northeast": {
          "lat": 42.0674938,
          "lng": -83.3747584
        }
      },
      "bounds": {
        "southwest": {
          "lat": 42.0498640,
          "lng": -83.3997739
        },
        "northeast": {
          "lat": 42.0646769,
          "lng": -83.3800299
        }
      }
    }
  } ]
}
