{
  "status": "OK",
  "results": [ {
    "types": [ "locality", "political" ],
    "formatted_address": "Carsonville, MI, USA",
    "address_components": [ {
      "long_name": "Carsonville",
      "short_name": "Carsonville",
      "types": [ "locality", "political" ]
    }, {
      "long_name": "Sanilac",
      "short_name": "Sanilac",
      "types": [ "administrative_area_level_2", "political" ]
    }, {
      "long_name": "Michigan",
      "short_name": "MI",
      "types": [ "administrative_area_level_1", "political" ]
    }, {
      "long_name": "United States",
      "short_name": "US",
      "types": [ "country", "political" ]
    } ],
    "geometry": {
      "location": {
        "lat": 43.4269667,
        "lng": -82.6713183
      },
      "location_type": "APPROXIMATE",
      "viewport": {
        "southwest": {
          "lat": 43.4188627,
          "lng": -82.6873257
        },
        "northeast": {
          "lat": 43.4350697,
          "lng": -82.6553109
        }
      },
      "bounds": {
        "southwest": {
          "lat": 43.4155669,
          "lng": -82.6863590
        },
        "northeast": {
          "lat": 43.4344770,
          "lng": -82.6612689
        }
      }
    }
  } ]
}
