{
  "status": "OK",
  "results": [ {
    "types": [ "locality", "political" ],
    "formatted_address": "Caspian, MI, USA",
    "address_components": [ {
      "long_name": "Caspian",
      "short_name": "Caspian",
      "types": [ "locality", "political" ]
    }, {
      "long_name": "Iron",
      "short_name": "Iron",
      "types": [ "administrative_area_level_2", "political" ]
    }, {
      "long_name": "Michigan",
      "short_name": "MI",
      "types": [ "administrative_area_level_1", "political" ]
    }, {
      "long_name": "United States",
      "short_name": "US",
      "types": [ "country", "political" ]
    } ],
    "geometry": {
      "location": {
        "lat": 46.0641218,
        "lng": -88.6315207
      },
      "location_type": "APPROXIMATE",
      "viewport": {
        "southwest": {
          "lat": 46.0563793,
          "lng": -88.6475281
        },
        "northeast": {
          "lat": 46.0718633,
          "lng": -88.6155133
        }
      },
      "bounds": {
        "southwest": {
          "lat": 46.0582489,
          "lng": -88.6426180
        },
        "northeast": {
          "lat": 46.0730040,
          "lng": -88.6116670
        }
      }
    }
  } ]
}
