{
  "status": "OK",
  "results": [ {
    "types": [ "locality", "political" ],
    "formatted_address": "Chesaning, MI, USA",
    "address_components": [ {
      "long_name": "Chesaning",
      "short_name": "Chesaning",
      "types": [ "locality", "political" ]
    }, {
      "long_name": "Saginaw",
      "short_name": "Saginaw",
      "types": [ "administrative_area_level_2", "political" ]
    }, {
      "long_name": "Michigan",
      "short_name": "MI",
      "types": [ "administrative_area_level_1", "political" ]
    }, {
      "long_name": "United States",
      "short_name": "US",
      "types": [ "country", "political" ]
    } ],
    "geometry": {
      "location": {
        "lat": 43.1847483,
        "lng": -84.1149747
      },
      "location_type": "APPROXIMATE",
      "viewport": {
        "southwest": {
          "lat": 43.1684744,
          "lng": -84.1469895
        },
        "northeast": {
          "lat": 43.2010178,
          "lng": -84.0829599
        }
      },
      "bounds": {
        "southwest": {
          "lat": 43.1730449,
          "lng": -84.1484799
        },
        "northeast": {
          "lat": 43.2025460,
          "lng": -84.0999049
        }
      }
    }
  } ]
}
