{
  "status": "OK",
  "results": [ {
    "types": [ "locality", "political" ],
    "formatted_address": "Davison, MI, USA",
    "address_components": [ {
      "long_name": "Davison",
      "short_name": "Davison",
      "types": [ "locality", "political" ]
    }, {
      "long_name": "Genesee",
      "short_name": "Genesee",
      "types": [ "administrative_area_level_2", "political" ]
    }, {
      "long_name": "Michigan",
      "short_name": "MI",
      "types": [ "administrative_area_level_1", "political" ]
    }, {
      "long_name": "United States",
      "short_name": "US",
      "types": [ "country", "political" ]
    } ],
    "geometry": {
      "location": {
        "lat": 43.0347491,
        "lng": -83.5180063
      },
      "location_type": "APPROXIMATE",
      "viewport": {
        "southwest": {
          "lat": 43.0265927,
          "lng": -83.5340137
        },
        "northeast": {
          "lat": 43.0429044,
          "lng": -83.5019989
        }
      },
      "bounds": {
        "southwest": {
          "lat": 43.0180620,
          "lng": -83.5330939
        },
        "northeast": {
          "lat": 43.0456919,
          "lng": -83.5036449
        }
      }
    }
  } ]
}
