{
  "status": "OK",
  "results": [ {
    "types": [ "locality", "political" ],
    "formatted_address": "East Tawas, MI, USA",
    "address_components": [ {
      "long_name": "East Tawas",
      "short_name": "East Tawas",
      "types": [ "locality", "political" ]
    }, {
      "long_name": "Iosco",
      "short_name": "Iosco",
      "types": [ "administrative_area_level_2", "political" ]
    }, {
      "long_name": "Michigan",
      "short_name": "MI",
      "types": [ "administrative_area_level_1", "political" ]
    }, {
      "long_name": "United States",
      "short_name": "US",
      "types": [ "country", "political" ]
    } ],
    "geometry": {
      "location": {
        "lat": 44.2794611,
        "lng": -83.4902519
      },
      "location_type": "APPROXIMATE",
      "viewport": {
        "southwest": {
          "lat": 44.2634820,
          "lng": -83.5222667
        },
        "northeast": {
          "lat": 44.2954359,
          "lng": -83.4582371
        }
      },
      "bounds": {
        "southwest": {
          "lat": 44.2754909,
          "lng": -83.5089550
        },
        "northeast": {
          "lat": 44.3041720,
          "lng": -83.4572230
        }
      }
    }
  } ]
}
