{
  "status": "OK",
  "results": [ {
    "types": [ "locality", "political" ],
    "formatted_address": "Elk Rapids, MI, USA",
    "address_components": [ {
      "long_name": "Elk Rapids",
      "short_name": "Elk Rapids",
      "types": [ "locality", "political" ]
    }, {
      "long_name": "Antrim",
      "short_name": "Antrim",
      "types": [ "administrative_area_level_2", "political" ]
    }, {
      "long_name": "Michigan",
      "short_name": "MI",
      "types": [ "administrative_area_level_1", "political" ]
    }, {
      "long_name": "United States",
      "short_name": "US",
      "types": [ "country", "political" ]
    } ],
    "geometry": {
      "location": {
        "lat": 44.8955578,
        "lng": -85.4164605
      },
      "location_type": "APPROXIMATE",
      "viewport": {
        "southwest": {
          "lat": 44.8797471,
          "lng": -85.4484753
        },
        "northeast": {
          "lat": 44.9113641,
          "lng": -85.3844457
        }
      },
      "bounds": {
        "southwest": {
          "lat": 44.8840800,
          "lng": -85.4242249
        },
        "northeast": {
          "lat": 44.9087270,
          "lng": -85.3878840
        }
      }
    }
  } ]
}
