{
  "status": "OK",
  "results": [ {
    "types": [ "locality", "political" ],
    "formatted_address": "Ferndale, MI, USA",
    "address_components": [ {
      "long_name": "Ferndale",
      "short_name": "Ferndale",
      "types": [ "locality", "political" ]
    }, {
      "long_name": "Oakland",
      "short_name": "Oakland",
      "types": [ "administrative_area_level_2", "political" ]
    }, {
      "long_name": "Michigan",
      "short_name": "MI",
      "types": [ "administrative_area_level_1", "political" ]
    }, {
      "long_name": "United States",
      "short_name": "US",
      "types": [ "country", "political" ]
    } ],
    "geometry": {
      "location": {
        "lat": 42.4605917,
        "lng": -83.1346478
      },
      "location_type": "APPROXIMATE",
      "viewport": {
        "southwest": {
          "lat": 42.4441261,
          "lng": -83.1666626
        },
        "northeast": {
          "lat": 42.4770530,
          "lng": -83.1026330
        }
      },
      "bounds": {
        "southwest": {
          "lat": 42.4460119,
          "lng": -83.1574069
        },
        "northeast": {
          "lat": 42.4759430,
          "lng": -83.1096259
        }
      }
    }
  } ]
}
