{
  "status": "OK",
  "results": [ {
    "types": [ "locality", "political" ],
    "formatted_address": "Flushing, MI, USA",
    "address_components": [ {
      "long_name": "Flushing",
      "short_name": "Flushing",
      "types": [ "locality", "political" ]
    }, {
      "long_name": "Genesee",
      "short_name": "Genesee",
      "types": [ "administrative_area_level_2", "political" ]
    }, {
      "long_name": "Michigan",
      "short_name": "MI",
      "types": [ "administrative_area_level_1", "political" ]
    }, {
      "long_name": "United States",
      "short_name": "US",
      "types": [ "country", "political" ]
    } ],
    "geometry": {
      "location": {
        "lat": 43.0630833,
        "lng": -83.8510732
      },
      "location_type": "APPROXIMATE",
      "viewport": {
        "southwest": {
          "lat": 43.0467770,
          "lng": -83.8830880
        },
        "northeast": {
          "lat": 43.0793852,
          "lng": -83.8190584
        }
      },
      "bounds": {
        "southwest": {
          "lat": 43.0502150,
          "lng": -83.8676040
        },
        "northeast": {
          "lat": 43.0747719,
          "lng": -83.8130149
        }
      }
    }
  } ]
}
