{
  "status": "OK",
  "results": [ {
    "types": [ "locality", "political" ],
    "formatted_address": "Frankenmuth, MI, USA",
    "address_components": [ {
      "long_name": "Frankenmuth",
      "short_name": "Frankenmuth",
      "types": [ "locality", "political" ]
    }, {
      "long_name": "Saginaw",
      "short_name": "Saginaw",
      "types": [ "administrative_area_level_2", "political" ]
    }, {
      "long_name": "Michigan",
      "short_name": "MI",
      "types": [ "administrative_area_level_1", "political" ]
    }, {
      "long_name": "United States",
      "short_name": "US",
      "types": [ "country", "political" ]
    } ],
    "geometry": {
      "location": {
        "lat": 43.3316910,
        "lng": -83.7380194
      },
      "location_type": "APPROXIMATE",
      "viewport": {
        "southwest": {
          "lat": 43.3154563,
          "lng": -83.7700342
        },
        "northeast": {
          "lat": 43.3479213,
          "lng": -83.7060046
        }
      },
      "bounds": {
        "southwest": {
          "lat": 43.3107350,
          "lng": -83.7611110
        },
        "northeast": {
          "lat": 43.3503360,
          "lng": -83.7088090
        }
      }
    }
  } ]
}
