{
  "status": "OK",
  "results": [ {
    "types": [ "locality", "political" ],
    "formatted_address": "Gaylord, MI, USA",
    "address_components": [ {
      "long_name": "Gaylord",
      "short_name": "Gaylord",
      "types": [ "locality", "political" ]
    }, {
      "long_name": "Otsego",
      "short_name": "Otsego",
      "types": [ "administrative_area_level_2", "political" ]
    }, {
      "long_name": "Michigan",
      "short_name": "MI",
      "types": [ "administrative_area_level_1", "political" ]
    }, {
      "long_name": "United States",
      "short_name": "US",
      "types": [ "country", "political" ]
    } ],
    "geometry": {
      "location": {
        "lat": 45.0275126,
        "lng": -84.6747523
      },
      "location_type": "APPROXIMATE",
      "viewport": {
        "southwest": {
          "lat": 44.9959595,
          "lng": -84.7387820
        },
        "northeast": {
          "lat": 45.0590483,
          "lng": -84.6107226
        }
      },
      "bounds": {
        "southwest": {
          "lat": 44.9871160,
          "lng": -84.7235390
        },
        "northeast": {
          "lat": 45.0450540,
          "lng": -84.6490810
        }
      }
    }
  } ]
}
