{
  "status": "OK",
  "results": [ {
    "types": [ "locality", "political" ],
    "formatted_address": "Grand Blanc, MI, USA",
    "address_components": [ {
      "long_name": "Grand Blanc",
      "short_name": "Grand Blanc",
      "types": [ "locality", "political" ]
    }, {
      "long_name": "Genesee",
      "short_name": "Genesee",
      "types": [ "administrative_area_level_2", "political" ]
    }, {
      "long_name": "Michigan",
      "short_name": "MI",
      "types": [ "administrative_area_level_1", "political" ]
    }, {
      "long_name": "United States",
      "short_name": "US",
      "types": [ "country", "political" ]
    } ],
    "geometry": {
      "location": {
        "lat": 42.9275277,
        "lng": -83.6299518
      },
      "location_type": "APPROXIMATE",
      "viewport": {
        "southwest": {
          "lat": 42.9111854,
          "lng": -83.6619666
        },
        "northeast": {
          "lat": 42.9438656,
          "lng": -83.5979370
        }
      },
      "bounds": {
        "southwest": {
          "lat": 42.9100560,
          "lng": -83.6425129
        },
        "northeast": {
          "lat": 42.9385240,
          "lng": -83.5903759
        }
      }
    }
  } ]
}
