{
  "status": "OK",
  "results": [ {
    "types": [ "locality", "political" ],
    "formatted_address": "Grosse Pointe Shores, MI, USA",
    "address_components": [ {
      "long_name": "Grosse Pointe Shores",
      "short_name": "Grosse Pointe Shores",
      "types": [ "locality", "political" ]
    }, {
      "long_name": "Wayne",
      "short_name": "Wayne",
      "types": [ "administrative_area_level_2", "political" ]
    }, {
      "long_name": "Michigan",
      "short_name": "MI",
      "types": [ "administrative_area_level_1", "political" ]
    }, {
      "long_name": "United States",
      "short_name": "US",
      "types": [ "country", "political" ]
    } ],
    "geometry": {
      "location": {
        "lat": 42.4367034,
        "lng": -82.8768586
      },
      "location_type": "APPROXIMATE",
      "viewport": {
        "southwest": {
          "lat": 42.3707899,
          "lng": -83.0049180
        },
        "northeast": {
          "lat": 42.5025476,
          "lng": -82.7487992
        }
      },
      "bounds": {
        "southwest": {
          "lat": 42.3924120,
          "lng": -82.8900180
        },
        "northeast": {
          "lat": 42.4681840,
          "lng": -82.7499079
        }
      }
    }
  } ]
}
