{
  "status": "OK",
  "results": [ {
    "types": [ "locality", "political" ],
    "formatted_address": "Grosse Pointe Woods, MI, USA",
    "address_components": [ {
      "long_name": "Grosse Pointe Woods",
      "short_name": "Grosse Pointe Woods",
      "types": [ "locality", "political" ]
    }, {
      "long_name": "Wayne",
      "short_name": "Wayne",
      "types": [ "administrative_area_level_2", "political" ]
    }, {
      "long_name": "Michigan",
      "short_name": "MI",
      "types": [ "administrative_area_level_1", "political" ]
    }, {
      "long_name": "United States",
      "short_name": "US",
      "types": [ "country", "political" ]
    } ],
    "geometry": {
      "location": {
        "lat": 42.4436478,
        "lng": -82.9068603
      },
      "location_type": "APPROXIMATE",
      "viewport": {
        "southwest": {
          "lat": 42.4271777,
          "lng": -82.9388751
        },
        "northeast": {
          "lat": 42.4601135,
          "lng": -82.8748455
        }
      },
      "bounds": {
        "southwest": {
          "lat": 42.4182739,
          "lng": -82.9230230
        },
        "northeast": {
          "lat": 42.4515570,
          "lng": -82.8774540
        }
      }
    }
  } ]
}
