{
  "status": "OK",
  "results": [ {
    "types": [ "locality", "political" ],
    "formatted_address": "Grosse Ile, MI, USA",
    "address_components": [ {
      "long_name": "Grosse Ile",
      "short_name": "Grosse Ile",
      "types": [ "locality", "political" ]
    }, {
      "long_name": "Wayne",
      "short_name": "Wayne",
      "types": [ "administrative_area_level_2", "political" ]
    }, {
      "long_name": "Michigan",
      "short_name": "MI",
      "types": [ "administrative_area_level_1", "political" ]
    }, {
      "long_name": "United States",
      "short_name": "US",
      "types": [ "country", "political" ]
    } ],
    "geometry": {
      "location": {
        "lat": 42.1292084,
        "lng": -83.1443683
      },
      "location_type": "APPROXIMATE",
      "viewport": {
        "southwest": {
          "lat": 42.0960992,
          "lng": -83.2083980
        },
        "northeast": {
          "lat": 42.1623003,
          "lng": -83.0803386
        }
      },
      "bounds": {
        "southwest": {
          "lat": 42.0726040,
          "lng": -83.1857060
        },
        "northeast": {
          "lat": 42.2029150,
          "lng": -83.1192279
        }
      }
    }
  } ]
}
