{
  "status": "OK",
  "results": [ {
    "types": [ "locality", "political" ],
    "formatted_address": "Holland, MI, USA",
    "address_components": [ {
      "long_name": "Holland",
      "short_name": "Holland",
      "types": [ "locality", "political" ]
    }, {
      "long_name": "Allegan",
      "short_name": "Allegan",
      "types": [ "administrative_area_level_2", "political" ]
    }, {
      "long_name": "Michigan",
      "short_name": "MI",
      "types": [ "administrative_area_level_1", "political" ]
    }, {
      "long_name": "United States",
      "short_name": "US",
      "types": [ "country", "political" ]
    } ],
    "geometry": {
      "location": {
        "lat": 42.7875235,
        "lng": -86.1089301
      },
      "location_type": "APPROXIMATE",
      "viewport": {
        "southwest": {
          "lat": 42.7547604,
          "lng": -86.1729598
        },
        "northeast": {
          "lat": 42.8202692,
          "lng": -86.0449004
        }
      },
      "bounds": {
        "southwest": {
          "lat": 42.7293419,
          "lng": -86.1669869
        },
        "northeast": {
          "lat": 42.8025669,
          "lng": -86.0470249
        }
      }
    }
  } ]
}
