{
  "status": "OK",
  "results": [ {
    "types": [ "locality", "political" ],
    "formatted_address": "Iron River, MI, USA",
    "address_components": [ {
      "long_name": "Iron River",
      "short_name": "Iron River",
      "types": [ "locality", "political" ]
    }, {
      "long_name": "Iron",
      "short_name": "Iron",
      "types": [ "administrative_area_level_2", "political" ]
    }, {
      "long_name": "Michigan",
      "short_name": "MI",
      "types": [ "administrative_area_level_1", "political" ]
    }, {
      "long_name": "United States",
      "short_name": "US",
      "types": [ "country", "political" ]
    } ],
    "geometry": {
      "location": {
        "lat": 46.0927322,
        "lng": -88.6423544
      },
      "location_type": "APPROXIMATE",
      "viewport": {
        "southwest": {
          "lat": 46.0772540,
          "lng": -88.6743692
        },
        "northeast": {
          "lat": 46.1082060,
          "lng": -88.6103396
        }
      },
      "bounds": {
        "southwest": {
          "lat": 46.0685040,
          "lng": -88.6637200
        },
        "northeast": {
          "lat": 46.1237159,
          "lng": -88.6168280
        }
      }
    }
  } ]
}
