{
  "status": "OK",
  "results": [ {
    "types": [ "locality", "political" ],
    "formatted_address": "Lake Angelus, MI, USA",
    "address_components": [ {
      "long_name": "Lake Angelus",
      "short_name": "Lake Angelus",
      "types": [ "locality", "political" ]
    }, {
      "long_name": "Oakland",
      "short_name": "Oakland",
      "types": [ "administrative_area_level_2", "political" ]
    }, {
      "long_name": "Michigan",
      "short_name": "MI",
      "types": [ "administrative_area_level_1", "political" ]
    }, {
      "long_name": "United States",
      "short_name": "US",
      "types": [ "country", "political" ]
    } ],
    "geometry": {
      "location": {
        "lat": 42.6986426,
        "lng": -83.3166050
      },
      "location_type": "APPROXIMATE",
      "viewport": {
        "southwest": {
          "lat": 42.6822397,
          "lng": -83.3486198
        },
        "northeast": {
          "lat": 42.7150411,
          "lng": -83.2845902
        }
      },
      "bounds": {
        "southwest": {
          "lat": 42.6836659,
          "lng": -83.3419650
        },
        "northeast": {
          "lat": 42.7013460,
          "lng": -83.3030940
        }
      }
    }
  } ]
}
