{
  "status": "OK",
  "results": [ {
    "types": [ "locality", "political" ],
    "formatted_address": "Lake Odessa, MI, USA",
    "address_components": [ {
      "long_name": "Lake Odessa",
      "short_name": "Lake Odessa",
      "types": [ "locality", "political" ]
    }, {
      "long_name": "Ionia",
      "short_name": "Ionia",
      "types": [ "administrative_area_level_2", "political" ]
    }, {
      "long_name": "Michigan",
      "short_name": "MI",
      "types": [ "administrative_area_level_1", "political" ]
    }, {
      "long_name": "United States",
      "short_name": "US",
      "types": [ "country", "political" ]
    } ],
    "geometry": {
      "location": {
        "lat": 42.7847564,
        "lng": -85.1383367
      },
      "location_type": "APPROXIMATE",
      "viewport": {
        "southwest": {
          "lat": 42.7765669,
          "lng": -85.1543441
        },
        "northeast": {
          "lat": 42.7929448,
          "lng": -85.1223293
        }
      },
      "bounds": {
        "southwest": {
          "lat": 42.7709440,
          "lng": -85.1460039
        },
        "northeast": {
          "lat": 42.7921739,
          "lng": -85.1281620
        }
      }
    }
  } ]
}
