{
  "status": "OK",
  "results": [ {
    "types": [ "locality", "political" ],
    "formatted_address": "Laurium, MI, USA",
    "address_components": [ {
      "long_name": "Laurium",
      "short_name": "Laurium",
      "types": [ "locality", "political" ]
    }, {
      "long_name": "Houghton",
      "short_name": "Houghton",
      "types": [ "administrative_area_level_2", "political" ]
    }, {
      "long_name": "Michigan",
      "short_name": "MI",
      "types": [ "administrative_area_level_1", "political" ]
    }, {
      "long_name": "United States",
      "short_name": "US",
      "types": [ "country", "political" ]
    } ],
    "geometry": {
      "location": {
        "lat": 47.2374255,
        "lng": -88.4431725
      },
      "location_type": "APPROXIMATE",
      "viewport": {
        "southwest": {
          "lat": 47.2298491,
          "lng": -88.4591799
        },
        "northeast": {
          "lat": 47.2450008,
          "lng": -88.4271651
        }
      },
      "bounds": {
        "southwest": {
          "lat": 47.2280270,
          "lng": -88.4470130
        },
        "northeast": {
          "lat": 47.2429939,
          "lng": -88.4256750
        }
      }
    }
  } ]
}
