{
  "status": "OK",
  "results": [ {
    "types": [ "locality", "political" ],
    "formatted_address": "Mancelona, MI, USA",
    "address_components": [ {
      "long_name": "Mancelona",
      "short_name": "Mancelona",
      "types": [ "locality", "political" ]
    }, {
      "long_name": "Antrim",
      "short_name": "Antrim",
      "types": [ "administrative_area_level_2", "political" ]
    }, {
      "long_name": "Michigan",
      "short_name": "MI",
      "types": [ "administrative_area_level_1", "political" ]
    }, {
      "long_name": "United States",
      "short_name": "US",
      "types": [ "country", "political" ]
    } ],
    "geometry": {
      "location": {
        "lat": 44.9022290,
        "lng": -85.0608848
      },
      "location_type": "APPROXIMATE",
      "viewport": {
        "southwest": {
          "lat": 44.8943251,
          "lng": -85.0768922
        },
        "northeast": {
          "lat": 44.9101318,
          "lng": -85.0448774
        }
      },
      "bounds": {
        "southwest": {
          "lat": 44.8950750,
          "lng": -85.0715580
        },
        "northeast": {
          "lat": 44.9096890,
          "lng": -85.0509350
        }
      }
    }
  } ]
}
