{
  "status": "OK",
  "results": [ {
    "types": [ "locality", "political" ],
    "formatted_address": "Melvindale, MI, USA",
    "address_components": [ {
      "long_name": "Melvindale",
      "short_name": "Melvindale",
      "types": [ "locality", "political" ]
    }, {
      "long_name": "Wayne",
      "short_name": "Wayne",
      "types": [ "administrative_area_level_2", "political" ]
    }, {
      "long_name": "Michigan",
      "short_name": "MI",
      "types": [ "administrative_area_level_1", "political" ]
    }, {
      "long_name": "United States",
      "short_name": "US",
      "types": [ "country", "political" ]
    } ],
    "geometry": {
      "location": {
        "lat": 42.2825383,
        "lng": -83.1752030
      },
      "location_type": "APPROXIMATE",
      "viewport": {
        "southwest": {
          "lat": 42.2660260,
          "lng": -83.2072178
        },
        "northeast": {
          "lat": 42.2990463,
          "lng": -83.1431882
        }
      },
      "bounds": {
        "southwest": {
          "lat": 42.2645769,
          "lng": -83.2012599
        },
        "northeast": {
          "lat": 42.2974789,
          "lng": -83.1582399
        }
      }
    }
  } ]
}
