{
  "status": "OK",
  "results": [ {
    "types": [ "locality", "political" ],
    "formatted_address": "Muskegon Heights, MI, USA",
    "address_components": [ {
      "long_name": "Muskegon Heights",
      "short_name": "Muskegon Heights",
      "types": [ "locality", "political" ]
    }, {
      "long_name": "Muskegon",
      "short_name": "Muskegon",
      "types": [ "administrative_area_level_2", "political" ]
    }, {
      "long_name": "Michigan",
      "short_name": "MI",
      "types": [ "administrative_area_level_1", "political" ]
    }, {
      "long_name": "United States",
      "short_name": "US",
      "types": [ "country", "political" ]
    } ],
    "geometry": {
      "location": {
        "lat": 43.2011264,
        "lng": -86.2389464
      },
      "location_type": "APPROXIMATE",
      "viewport": {
        "southwest": {
          "lat": 43.1848569,
          "lng": -86.2709612
        },
        "northeast": {
          "lat": 43.2173916,
          "lng": -86.2069316
        }
      },
      "bounds": {
        "southwest": {
          "lat": 43.1851920,
          "lng": -86.2603700
        },
        "northeast": {
          "lat": 43.2161160,
          "lng": -86.2244520
        }
      }
    }
  } ]
}
