{
  "status": "OK",
  "results": [ {
    "types": [ "locality", "political" ],
    "formatted_address": "Napoleon, MI, USA",
    "address_components": [ {
      "long_name": "Napoleon",
      "short_name": "Napoleon",
      "types": [ "locality", "political" ]
    }, {
      "long_name": "Jackson",
      "short_name": "Jackson",
      "types": [ "administrative_area_level_2", "political" ]
    }, {
      "long_name": "Michigan",
      "short_name": "MI",
      "types": [ "administrative_area_level_1", "political" ]
    }, {
      "long_name": "United States",
      "short_name": "US",
      "types": [ "country", "political" ]
    } ],
    "geometry": {
      "location": {
        "lat": 42.1605944,
        "lng": -84.2460616
      },
      "location_type": "APPROXIMATE",
      "viewport": {
        "southwest": {
          "lat": 42.1523228,
          "lng": -84.2620690
        },
        "northeast": {
          "lat": 42.1688649,
          "lng": -84.2300542
        }
      },
      "bounds": {
        "southwest": {
          "lat": 42.1546910,
          "lng": -84.2632900
        },
        "northeast": {
          "lat": 42.1753680,
          "lng": -84.2205159
        }
      }
    }
  } ]
}
