{
  "status": "OK",
  "results": [ {
    "types": [ "sublocality", "political" ],
    "formatted_address": "Orchard Lake, Michigan, USA",
    "address_components": [ {
      "long_name": "Orchard Lake",
      "short_name": "Orchard Lake",
      "types": [ "sublocality", "political" ]
    }, {
      "long_name": "Oakland",
      "short_name": "Oakland",
      "types": [ "administrative_area_level_2", "political" ]
    }, {
      "long_name": "Michigan",
      "short_name": "MI",
      "types": [ "administrative_area_level_1", "political" ]
    }, {
      "long_name": "United States",
      "short_name": "US",
      "types": [ "country", "political" ]
    } ],
    "geometry": {
      "location": {
        "lat": 42.5830887,
        "lng": -83.3593798
      },
      "location_type": "APPROXIMATE",
      "viewport": {
        "southwest": {
          "lat": 42.5502177,
          "lng": -83.4234095
        },
        "northeast": {
          "lat": 42.6159424,
          "lng": -83.2953501
        }
      },
      "bounds": {
        "southwest": {
          "lat": 42.5443439,
          "lng": -83.4467380
        },
        "northeast": {
          "lat": 42.6239320,
          "lng": -83.3175350
        }
      }
    }
  } ]
}
