{
  "status": "OK",
  "results": [ {
    "types": [ "locality", "political" ],
    "formatted_address": "Oscoda, MI, USA",
    "address_components": [ {
      "long_name": "Oscoda",
      "short_name": "Oscoda",
      "types": [ "locality", "political" ]
    }, {
      "long_name": "Iosco",
      "short_name": "Iosco",
      "types": [ "administrative_area_level_2", "political" ]
    }, {
      "long_name": "Michigan",
      "short_name": "MI",
      "types": [ "administrative_area_level_1", "political" ]
    }, {
      "long_name": "United States",
      "short_name": "US",
      "types": [ "country", "political" ]
    } ],
    "geometry": {
      "location": {
        "lat": 44.4202933,
        "lng": -83.3308009
      },
      "location_type": "APPROXIMATE",
      "viewport": {
        "southwest": {
          "lat": 44.4043525,
          "lng": -83.3628157
        },
        "northeast": {
          "lat": 44.4362298,
          "lng": -83.2987861
        }
      },
      "bounds": {
        "southwest": {
          "lat": 44.4074449,
          "lng": -83.3432790
        },
        "northeast": {
          "lat": 44.4407760,
          "lng": -83.3246779
        }
      }
    }
  } ]
}
