{
  "status": "OK",
  "results": [ {
    "types": [ "locality", "political" ],
    "formatted_address": "Perry, MI, USA",
    "address_components": [ {
      "long_name": "Perry",
      "short_name": "Perry",
      "types": [ "locality", "political" ]
    }, {
      "long_name": "Shiawassee",
      "short_name": "Shiawassee",
      "types": [ "administrative_area_level_2", "political" ]
    }, {
      "long_name": "Michigan",
      "short_name": "MI",
      "types": [ "administrative_area_level_1", "political" ]
    }, {
      "long_name": "United States",
      "short_name": "US",
      "types": [ "country", "political" ]
    } ],
    "geometry": {
      "location": {
        "lat": 42.8264205,
        "lng": -84.2194127
      },
      "location_type": "APPROXIMATE",
      "viewport": {
        "southwest": {
          "lat": 42.8100514,
          "lng": -84.2514275
        },
        "northeast": {
          "lat": 42.8427852,
          "lng": -84.1873979
        }
      },
      "bounds": {
        "southwest": {
          "lat": 42.8050930,
          "lng": -84.2676350
        },
        "northeast": {
          "lat": 42.8400390,
          "lng": -84.2052250
        }
      }
    }
  } ]
}
