{
  "status": "OK",
  "results": [ {
    "types": [ "locality", "political" ],
    "formatted_address": "Plymouth, MI, USA",
    "address_components": [ {
      "long_name": "Plymouth",
      "short_name": "Plymouth",
      "types": [ "locality", "political" ]
    }, {
      "long_name": "Wayne",
      "short_name": "Wayne",
      "types": [ "administrative_area_level_2", "political" ]
    }, {
      "long_name": "Michigan",
      "short_name": "MI",
      "types": [ "administrative_area_level_1", "political" ]
    }, {
      "long_name": "United States",
      "short_name": "US",
      "types": [ "country", "political" ]
    } ],
    "geometry": {
      "location": {
        "lat": 42.3714253,
        "lng": -83.4702132
      },
      "location_type": "APPROXIMATE",
      "viewport": {
        "southwest": {
          "lat": 42.3549363,
          "lng": -83.5022280
        },
        "northeast": {
          "lat": 42.3879100,
          "lng": -83.4381984
        }
      },
      "bounds": {
        "southwest": {
          "lat": 42.3585020,
          "lng": -83.4868690
        },
        "northeast": {
          "lat": 42.3844510,
          "lng": -83.4455210
        }
      }
    }
  } ]
}
