{
  "status": "OK",
  "results": [ {
    "types": [ "locality", "political" ],
    "formatted_address": "Portland, MI, USA",
    "address_components": [ {
      "long_name": "Portland",
      "short_name": "Portland",
      "types": [ "locality", "political" ]
    }, {
      "long_name": "Ionia",
      "short_name": "Ionia",
      "types": [ "administrative_area_level_2", "political" ]
    }, {
      "long_name": "Michigan",
      "short_name": "MI",
      "types": [ "administrative_area_level_1", "political" ]
    }, {
      "long_name": "United States",
      "short_name": "US",
      "types": [ "country", "political" ]
    } ],
    "geometry": {
      "location": {
        "lat": 42.8692006,
        "lng": -84.9030517
      },
      "location_type": "APPROXIMATE",
      "viewport": {
        "southwest": {
          "lat": 42.8528429,
          "lng": -84.9350665
        },
        "northeast": {
          "lat": 42.8855540,
          "lng": -84.8710369
        }
      },
      "bounds": {
        "southwest": {
          "lat": 42.8571470,
          "lng": -84.9401670
        },
        "northeast": {
          "lat": 42.8859609,
          "lng": -84.8670580
        }
      }
    }
  } ]
}
