{
  "status": "OK",
  "results": [ {
    "types": [ "locality", "political" ],
    "formatted_address": "Potterville, MI, USA",
    "address_components": [ {
      "long_name": "Potterville",
      "short_name": "Potterville",
      "types": [ "locality", "political" ]
    }, {
      "long_name": "Eaton",
      "short_name": "Eaton",
      "types": [ "administrative_area_level_2", "political" ]
    }, {
      "long_name": "Michigan",
      "short_name": "MI",
      "types": [ "administrative_area_level_1", "political" ]
    }, {
      "long_name": "United States",
      "short_name": "US",
      "types": [ "country", "political" ]
    } ],
    "geometry": {
      "location": {
        "lat": 42.6292029,
        "lng": -84.7388740
      },
      "location_type": "APPROXIMATE",
      "viewport": {
        "southwest": {
          "lat": 42.6209928,
          "lng": -84.7548814
        },
        "northeast": {
          "lat": 42.6374119,
          "lng": -84.7228666
        }
      },
      "bounds": {
        "southwest": {
          "lat": 42.6148959,
          "lng": -84.7590929
        },
        "northeast": {
          "lat": 42.6401280,
          "lng": -84.7198349
        }
      }
    }
  } ]
}
