{
  "status": "OK",
  "results": [ {
    "types": [ "locality", "political" ],
    "formatted_address": "Reading, MI 49274, USA",
    "address_components": [ {
      "long_name": "Reading",
      "short_name": "Reading",
      "types": [ "locality", "political" ]
    }, {
      "long_name": "Hillsdale",
      "short_name": "Hillsdale",
      "types": [ "administrative_area_level_2", "political" ]
    }, {
      "long_name": "Michigan",
      "short_name": "MI",
      "types": [ "administrative_area_level_1", "political" ]
    }, {
      "long_name": "United States",
      "short_name": "US",
      "types": [ "country", "political" ]
    }, {
      "long_name": "49274",
      "short_name": "49274",
      "types": [ "postal_code" ]
    } ],
    "geometry": {
      "location": {
        "lat": 41.8394928,
        "lng": -84.7480134
      },
      "location_type": "APPROXIMATE",
      "viewport": {
        "southwest": {
          "lat": 41.8311794,
          "lng": -84.7640208
        },
        "northeast": {
          "lat": 41.8478051,
          "lng": -84.7320060
        }
      },
      "bounds": {
        "southwest": {
          "lat": 41.8322650,
          "lng": -84.7576450
        },
        "northeast": {
          "lat": 41.8469119,
          "lng": -84.7379940
        }
      }
    }
  } ]
}
