{
  "status": "OK",
  "results": [ {
    "types": [ "locality", "political" ],
    "formatted_address": "Riverview, MI, USA",
    "address_components": [ {
      "long_name": "Riverview",
      "short_name": "Riverview",
      "types": [ "locality", "political" ]
    }, {
      "long_name": "Wayne",
      "short_name": "Wayne",
      "types": [ "administrative_area_level_2", "political" ]
    }, {
      "long_name": "Michigan",
      "short_name": "MI",
      "types": [ "administrative_area_level_1", "political" ]
    }, {
      "long_name": "United States",
      "short_name": "US",
      "types": [ "country", "political" ]
    } ],
    "geometry": {
      "location": {
        "lat": 42.1742073,
        "lng": -83.1793697
      },
      "location_type": "APPROXIMATE",
      "viewport": {
        "southwest": {
          "lat": 42.1576666,
          "lng": -83.2113845
        },
        "northeast": {
          "lat": 42.1907437,
          "lng": -83.1473549
        }
      },
      "bounds": {
        "southwest": {
          "lat": 42.1552660,
          "lng": -83.2181219
        },
        "northeast": {
          "lat": 42.1854159,
          "lng": -83.1536320
        }
      }
    }
  } ]
}
