{
  "status": "OK",
  "results": [ {
    "types": [ "locality", "political" ],
    "formatted_address": "Saint Clair, MI, USA",
    "address_components": [ {
      "long_name": "Saint Clair",
      "short_name": "Saint Clair",
      "types": [ "locality", "political" ]
    }, {
      "long_name": "St. Clair",
      "short_name": "St. Clair",
      "types": [ "administrative_area_level_2", "political" ]
    }, {
      "long_name": "Michigan",
      "short_name": "MI",
      "types": [ "administrative_area_level_1", "political" ]
    }, {
      "long_name": "United States",
      "short_name": "US",
      "types": [ "country", "political" ]
    } ],
    "geometry": {
      "location": {
        "lat": 42.8208653,
        "lng": -82.4860240
      },
      "location_type": "APPROXIMATE",
      "viewport": {
        "southwest": {
          "lat": 42.7553571,
          "lng": -82.6140834
        },
        "northeast": {
          "lat": 42.8863041,
          "lng": -82.3579646
        }
      },
      "bounds": {
        "southwest": {
          "lat": 42.7870359,
          "lng": -82.6205878
        },
        "northeast": {
          "lat": 42.9077670,
          "lng": -82.4681440
        }
      }
    }
  } ]
}
