{
  "status": "OK",
  "results": [ {
    "types": [ "locality", "political" ],
    "formatted_address": "Sault Ste. Marie, MI, USA",
    "address_components": [ {
      "long_name": "Sault Ste. Marie",
      "short_name": "Sault Ste. Marie",
      "types": [ "locality", "political" ]
    }, {
      "long_name": "Chippewa",
      "short_name": "Chippewa",
      "types": [ "administrative_area_level_2", "political" ]
    }, {
      "long_name": "Michigan",
      "short_name": "MI",
      "types": [ "administrative_area_level_1", "political" ]
    }, {
      "long_name": "United States",
      "short_name": "US",
      "types": [ "country", "political" ]
    } ],
    "geometry": {
      "location": {
        "lat": 46.4952996,
        "lng": -84.3453169
      },
      "location_type": "APPROXIMATE",
      "viewport": {
        "southwest": {
          "lat": 46.4645657,
          "lng": -84.4093466
        },
        "northeast": {
          "lat": 46.5260162,
          "lng": -84.2812872
        }
      },
      "bounds": {
        "southwest": {
          "lat": 46.4625190,
          "lng": -84.4671719
        },
        "northeast": {
          "lat": 46.5090990,
          "lng": -84.2817070
        }
      }
    }
  } ]
}
