{
  "status": "OK",
  "results": [ {
    "types": [ "locality", "political" ],
    "formatted_address": "Southfield, MI, USA",
    "address_components": [ {
      "long_name": "Southfield",
      "short_name": "Southfield",
      "types": [ "locality", "political" ]
    }, {
      "long_name": "Oakland",
      "short_name": "Oakland",
      "types": [ "administrative_area_level_2", "political" ]
    }, {
      "long_name": "Michigan",
      "short_name": "MI",
      "types": [ "administrative_area_level_1", "political" ]
    }, {
      "long_name": "United States",
      "short_name": "US",
      "types": [ "country", "political" ]
    } ],
    "geometry": {
      "location": {
        "lat": 42.4733688,
        "lng": -83.2218731
      },
      "location_type": "APPROXIMATE",
      "viewport": {
        "southwest": {
          "lat": 42.4404400,
          "lng": -83.2859028
        },
        "northeast": {
          "lat": 42.5062803,
          "lng": -83.1578434
        }
      },
      "bounds": {
        "southwest": {
          "lat": 42.4420329,
          "lng": -83.3198950
        },
        "northeast": {
          "lat": 42.5174630,
          "lng": -83.2005219
        }
      }
    }
  } ]
}
