{
  "status": "OK",
  "results": [ {
    "types": [ "locality", "political" ],
    "formatted_address": "Spring Lake, MI, USA",
    "address_components": [ {
      "long_name": "Spring Lake",
      "short_name": "Spring Lake",
      "types": [ "locality", "political" ]
    }, {
      "long_name": "Ottawa",
      "short_name": "Ottawa",
      "types": [ "administrative_area_level_2", "political" ]
    }, {
      "long_name": "Michigan",
      "short_name": "MI",
      "types": [ "administrative_area_level_1", "political" ]
    }, {
      "long_name": "United States",
      "short_name": "US",
      "types": [ "country", "political" ]
    } ],
    "geometry": {
      "location": {
        "lat": 43.0769625,
        "lng": -86.1969971
      },
      "location_type": "APPROXIMATE",
      "viewport": {
        "southwest": {
          "lat": 43.0688118,
          "lng": -86.2130045
        },
        "northeast": {
          "lat": 43.0851122,
          "lng": -86.1809897
        }
      },
      "bounds": {
        "southwest": {
          "lat": 43.0648410,
          "lng": -86.2141760
        },
        "northeast": {
          "lat": 43.0812729,
          "lng": -86.1749100
        }
      }
    }
  } ]
}
