{
  "status": "OK",
  "results": [ {
    "types": [ "locality", "political" ],
    "formatted_address": "Stockbridge, MI, USA",
    "address_components": [ {
      "long_name": "Stockbridge",
      "short_name": "Stockbridge",
      "types": [ "locality", "political" ]
    }, {
      "long_name": "Ingham",
      "short_name": "Ingham",
      "types": [ "administrative_area_level_2", "political" ]
    }, {
      "long_name": "Michigan",
      "short_name": "MI",
      "types": [ "administrative_area_level_1", "political" ]
    }, {
      "long_name": "United States",
      "short_name": "US",
      "types": [ "country", "political" ]
    } ],
    "geometry": {
      "location": {
        "lat": 42.4511466,
        "lng": -84.1805146
      },
      "location_type": "APPROXIMATE",
      "viewport": {
        "southwest": {
          "lat": 42.4429131,
          "lng": -84.1965220
        },
        "northeast": {
          "lat": 42.4593790,
          "lng": -84.1645072
        }
      },
      "bounds": {
        "southwest": {
          "lat": 42.4348150,
          "lng": -84.1900579
        },
        "northeast": {
          "lat": 42.4576530,
          "lng": -84.1606049
        }
      }
    }
  } ]
}
