{
  "status": "OK",
  "results": [ {
    "types": [ "locality", "political" ],
    "formatted_address": "Troy, MI, USA",
    "address_components": [ {
      "long_name": "Troy",
      "short_name": "Troy",
      "types": [ "locality", "political" ]
    }, {
      "long_name": "Oakland",
      "short_name": "Oakland",
      "types": [ "administrative_area_level_2", "political" ]
    }, {
      "long_name": "Michigan",
      "short_name": "MI",
      "types": [ "administrative_area_level_1", "political" ]
    }, {
      "long_name": "United States",
      "short_name": "US",
      "types": [ "country", "political" ]
    } ],
    "geometry": {
      "location": {
        "lat": 42.6055893,
        "lng": -83.1499304
      },
      "location_type": "APPROXIMATE",
      "viewport": {
        "southwest": {
          "lat": 42.5727301,
          "lng": -83.2139601
        },
        "northeast": {
          "lat": 42.6384311,
          "lng": -83.0859007
        }
      },
      "bounds": {
        "southwest": {
          "lat": 42.5338000,
          "lng": -83.2092160
        },
        "northeast": {
          "lat": 42.6242079,
          "lng": -83.0868820
        }
      }
    }
  } ]
}
