{
  "status": "OK",
  "results": [ {
    "types": [ "locality", "political" ],
    "formatted_address": "Vassar, MI, USA",
    "address_components": [ {
      "long_name": "Vassar",
      "short_name": "Vassar",
      "types": [ "locality", "political" ]
    }, {
      "long_name": "Tuscola",
      "short_name": "Tuscola",
      "types": [ "administrative_area_level_2", "political" ]
    }, {
      "long_name": "Michigan",
      "short_name": "MI",
      "types": [ "administrative_area_level_1", "political" ]
    }, {
      "long_name": "United States",
      "short_name": "US",
      "types": [ "country", "political" ]
    } ],
    "geometry": {
      "location": {
        "lat": 43.3719678,
        "lng": -83.5832917
      },
      "location_type": "APPROXIMATE",
      "viewport": {
        "southwest": {
          "lat": 43.3638564,
          "lng": -83.5992991
        },
        "northeast": {
          "lat": 43.3800781,
          "lng": -83.5672843
        }
      },
      "bounds": {
        "southwest": {
          "lat": 43.3603249,
          "lng": -83.5995849
        },
        "northeast": {
          "lat": 43.3822050,
          "lng": -83.5567049
        }
      }
    }
  } ]
}
