{
  "status": "OK",
  "results": [ {
    "types": [ "locality", "political" ],
    "formatted_address": "Wyandotte, MI, USA",
    "address_components": [ {
      "long_name": "Wyandotte",
      "short_name": "Wyandotte",
      "types": [ "locality", "political" ]
    }, {
      "long_name": "Wayne",
      "short_name": "Wayne",
      "types": [ "administrative_area_level_2", "political" ]
    }, {
      "long_name": "Michigan",
      "short_name": "MI",
      "types": [ "administrative_area_level_1", "political" ]
    }, {
      "long_name": "United States",
      "short_name": "US",
      "types": [ "country", "political" ]
    } ],
    "geometry": {
      "location": {
        "lat": 42.2142064,
        "lng": -83.1499239
      },
      "location_type": "APPROXIMATE",
      "viewport": {
        "southwest": {
          "lat": 42.1976762,
          "lng": -83.1819387
        },
        "northeast": {
          "lat": 42.2307323,
          "lng": -83.1179091
        }
      },
      "bounds": {
        "southwest": {
          "lat": 42.1850139,
          "lng": -83.1812389
        },
        "northeast": {
          "lat": 42.2349530,
          "lng": -83.1272369
        }
      }
    }
  } ]
}
