{
  "status": "OK",
  "results": [ {
    "types": [ "locality", "political" ],
    "formatted_address": "Bridger, Mt 59014, USA",
    "address_components": [ {
      "long_name": "Bridger",
      "short_name": "Bridger",
      "types": [ "locality", "political" ]
    }, {
      "long_name": "Fromberg-Bridger",
      "short_name": "Fromberg-Bridger",
      "types": [ "administrative_area_level_3", "political" ]
    }, {
      "long_name": "Carbon",
      "short_name": "Carbon",
      "types": [ "administrative_area_level_2", "political" ]
    }, {
      "long_name": "Montana",
      "short_name": "Mt",
      "types": [ "administrative_area_level_1", "political" ]
    }, {
      "long_name": "United States",
      "short_name": "US",
      "types": [ "country", "political" ]
    }, {
      "long_name": "59014",
      "short_name": "59014",
      "types": [ "postal_code" ]
    } ],
    "geometry": {
      "location": {
        "lat": 45.2957807,
        "lng": -108.9137544
      },
      "location_type": "APPROXIMATE",
      "viewport": {
        "southwest": {
          "lat": 45.2879311,
          "lng": -108.9297618
        },
        "northeast": {
          "lat": 45.3036292,
          "lng": -108.8977470
        }
      },
      "bounds": {
        "southwest": {
          "lat": 45.2864880,
          "lng": -108.9293820
        },
        "northeast": {
          "lat": 45.3003180,
          "lng": -108.9036890
        }
      }
    }
  } ]
}
