{
  "status": "OK",
  "results": [ {
    "types": [ "locality", "political" ],
    "formatted_address": "Chinook, MT, USA",
    "address_components": [ {
      "long_name": "Chinook",
      "short_name": "Chinook",
      "types": [ "locality", "political" ]
    }, {
      "long_name": "Blaine",
      "short_name": "Blaine",
      "types": [ "administrative_area_level_2", "political" ]
    }, {
      "long_name": "Montana",
      "short_name": "MT",
      "types": [ "administrative_area_level_1", "political" ]
    }, {
      "long_name": "United States",
      "short_name": "US",
      "types": [ "country", "political" ]
    } ],
    "geometry": {
      "location": {
        "lat": 48.5900000,
        "lng": -109.2312849
      },
      "location_type": "APPROXIMATE",
      "viewport": {
        "southwest": {
          "lat": 48.5826191,
          "lng": -109.2472923
        },
        "northeast": {
          "lat": 48.5973798,
          "lng": -109.2152775
        }
      },
      "bounds": {
        "southwest": {
          "lat": 48.5827520,
          "lng": -109.2392240
        },
        "northeast": {
          "lat": 48.5974469,
          "lng": -109.2244200
        }
      }
    }
  } ]
}
