{
  "status": "OK",
  "results": [ {
    "types": [ "locality", "political" ],
    "formatted_address": "Glendive, MT, USA",
    "address_components": [ {
      "long_name": "Glendive",
      "short_name": "Glendive",
      "types": [ "locality", "political" ]
    }, {
      "long_name": "Dawson",
      "short_name": "Dawson",
      "types": [ "administrative_area_level_2", "political" ]
    }, {
      "long_name": "Montana",
      "short_name": "MT",
      "types": [ "administrative_area_level_1", "political" ]
    }, {
      "long_name": "United States",
      "short_name": "US",
      "types": [ "country", "political" ]
    } ],
    "geometry": {
      "location": {
        "lat": 47.1084910,
        "lng": -104.7104190
      },
      "location_type": "APPROXIMATE",
      "viewport": {
        "southwest": {
          "lat": 47.0933003,
          "lng": -104.7424338
        },
        "northeast": {
          "lat": 47.1236774,
          "lng": -104.6784042
        }
      },
      "bounds": {
        "southwest": {
          "lat": 47.0842559,
          "lng": -104.7392390
        },
        "northeast": {
          "lat": 47.1367470,
          "lng": -104.6768419
        }
      }
    }
  } ]
}
