{
  "status": "OK",
  "results": [ {
    "types": [ "locality", "political" ],
    "formatted_address": "Havre, MT, USA",
    "address_components": [ {
      "long_name": "Havre",
      "short_name": "Havre",
      "types": [ "locality", "political" ]
    }, {
      "long_name": "Hill",
      "short_name": "Hill",
      "types": [ "administrative_area_level_2", "political" ]
    }, {
      "long_name": "Montana",
      "short_name": "MT",
      "types": [ "administrative_area_level_1", "political" ]
    }, {
      "long_name": "United States",
      "short_name": "US",
      "types": [ "country", "political" ]
    } ],
    "geometry": {
      "location": {
        "lat": 48.5453670,
        "lng": -109.6775360
      },
      "location_type": "APPROXIMATE",
      "viewport": {
        "southwest": {
          "lat": 48.5305911,
          "lng": -109.7095508
        },
        "northeast": {
          "lat": 48.5601386,
          "lng": -109.6455212
        }
      },
      "bounds": {
        "southwest": {
          "lat": 48.5250920,
          "lng": -109.7142350
        },
        "northeast": {
          "lat": 48.5652920,
          "lng": -109.6206700
        }
      }
    }
  } ]
}
