{
  "status": "OK",
  "results": [ {
    "types": [ "locality", "political" ],
    "formatted_address": "Laurel, MT, USA",
    "address_components": [ {
      "long_name": "Laurel",
      "short_name": "Laurel",
      "types": [ "locality", "political" ]
    }, {
      "long_name": "Yellowstone",
      "short_name": "Yellowstone",
      "types": [ "administrative_area_level_2", "political" ]
    }, {
      "long_name": "Montana",
      "short_name": "MT",
      "types": [ "administrative_area_level_1", "political" ]
    }, {
      "long_name": "United States",
      "short_name": "US",
      "types": [ "country", "political" ]
    } ],
    "geometry": {
      "location": {
        "lat": 45.6691159,
        "lng": -108.7715328
      },
      "location_type": "APPROXIMATE",
      "viewport": {
        "southwest": {
          "lat": 45.6535193,
          "lng": -108.8035476
        },
        "northeast": {
          "lat": 45.6847082,
          "lng": -108.7395180
        }
      },
      "bounds": {
        "southwest": {
          "lat": 45.6610299,
          "lng": -108.7901480
        },
        "northeast": {
          "lat": 45.6873460,
          "lng": -108.7282340
        }
      }
    }
  } ]
}
