{
  "status": "OK",
  "results": [ {
    "types": [ "locality", "political" ],
    "formatted_address": "Lewistown, MT, USA",
    "address_components": [ {
      "long_name": "Lewistown",
      "short_name": "Lewistown",
      "types": [ "locality", "political" ]
    }, {
      "long_name": "Fergus",
      "short_name": "Fergus",
      "types": [ "administrative_area_level_2", "political" ]
    }, {
      "long_name": "Montana",
      "short_name": "MT",
      "types": [ "administrative_area_level_1", "political" ]
    }, {
      "long_name": "United States",
      "short_name": "US",
      "types": [ "country", "political" ]
    } ],
    "geometry": {
      "location": {
        "lat": 47.0466452,
        "lng": -109.4666370
      },
      "location_type": "APPROXIMATE",
      "viewport": {
        "southwest": {
          "lat": 47.0162242,
          "lng": -109.5306667
        },
        "northeast": {
          "lat": 47.0770489,
          "lng": -109.4026073
        }
      },
      "bounds": {
        "southwest": {
          "lat": 47.0265700,
          "lng": -109.4993780
        },
        "northeast": {
          "lat": 47.0785659,
          "lng": -109.3978260
        }
      }
    }
  } ]
}
