{
  "status": "OK",
  "results": [ {
    "types": [ "locality", "political" ],
    "formatted_address": "Livingston, MT, USA",
    "address_components": [ {
      "long_name": "Livingston",
      "short_name": "Livingston",
      "types": [ "locality", "political" ]
    }, {
      "long_name": "Park",
      "short_name": "Park",
      "types": [ "administrative_area_level_2", "political" ]
    }, {
      "long_name": "Montana",
      "short_name": "MT",
      "types": [ "administrative_area_level_1", "political" ]
    }, {
      "long_name": "United States",
      "short_name": "US",
      "types": [ "country", "political" ]
    } ],
    "geometry": {
      "location": {
        "lat": 45.6618798,
        "lng": -110.5624285
      },
      "location_type": "APPROXIMATE",
      "viewport": {
        "southwest": {
          "lat": 45.6306782,
          "lng": -110.6264582
        },
        "northeast": {
          "lat": 45.6930640,
          "lng": -110.4983988
        }
      },
      "bounds": {
        "southwest": {
          "lat": 45.6366049,
          "lng": -110.6129140
        },
        "northeast": {
          "lat": 45.6984829,
          "lng": -110.5069320
        }
      }
    }
  } ]
}
