{
  "status": "OK",
  "results": [ {
    "types": [ "locality", "political" ],
    "formatted_address": "Three Forks, MT, USA",
    "address_components": [ {
      "long_name": "Three Forks",
      "short_name": "Three Forks",
      "types": [ "locality", "political" ]
    }, {
      "long_name": "Gallatin",
      "short_name": "Gallatin",
      "types": [ "administrative_area_level_2", "political" ]
    }, {
      "long_name": "Montana",
      "short_name": "MT",
      "types": [ "administrative_area_level_1", "political" ]
    }, {
      "long_name": "United States",
      "short_name": "US",
      "types": [ "country", "political" ]
    } ],
    "geometry": {
      "location": {
        "lat": 45.8924280,
        "lng": -111.5521925
      },
      "location_type": "APPROXIMATE",
      "viewport": {
        "southwest": {
          "lat": 45.8768937,
          "lng": -111.5842073
        },
        "northeast": {
          "lat": 45.9079579,
          "lng": -111.5201777
        }
      },
      "bounds": {
        "southwest": {
          "lat": 45.8678109,
          "lng": -111.5805410
        },
        "northeast": {
          "lat": 45.9000569,
          "lng": -111.5346630
        }
      }
    }
  } ]
}
