{
  "status": "OK",
  "results": [ {
    "types": [ "locality", "political" ],
    "formatted_address": "Amelia, OH, USA",
    "address_components": [ {
      "long_name": "Amelia",
      "short_name": "Amelia",
      "types": [ "locality", "political" ]
    }, {
      "long_name": "Clermont",
      "short_name": "Clermont",
      "types": [ "administrative_area_level_2", "political" ]
    }, {
      "long_name": "Ohio",
      "short_name": "OH",
      "types": [ "administrative_area_level_1", "political" ]
    }, {
      "long_name": "United States",
      "short_name": "US",
      "types": [ "country", "political" ]
    } ],
    "geometry": {
      "location": {
        "lat": 39.0283966,
        "lng": -84.2177136
      },
      "location_type": "APPROXIMATE",
      "viewport": {
        "southwest": {
          "lat": 39.0110587,
          "lng": -84.2497284
        },
        "northeast": {
          "lat": 39.0457303,
          "lng": -84.1856988
        }
      },
      "bounds": {
        "southwest": {
          "lat": 39.0063980,
          "lng": -84.2330370
        },
        "northeast": {
          "lat": 39.0420120,
          "lng": -84.2009370
        }
      }
    }
  } ]
}
