{
  "status": "OK",
  "results": [ {
    "types": [ "locality", "political" ],
    "formatted_address": "Beavercreek, OH, USA",
    "address_components": [ {
      "long_name": "Beavercreek",
      "short_name": "Beavercreek",
      "types": [ "locality", "political" ]
    }, {
      "long_name": "Greene",
      "short_name": "Greene",
      "types": [ "administrative_area_level_2", "political" ]
    }, {
      "long_name": "Ohio",
      "short_name": "OH",
      "types": [ "administrative_area_level_1", "political" ]
    }, {
      "long_name": "United States",
      "short_name": "US",
      "types": [ "country", "political" ]
    } ],
    "geometry": {
      "location": {
        "lat": 39.7092262,
        "lng": -84.0632685
      },
      "location_type": "APPROXIMATE",
      "viewport": {
        "southwest": {
          "lat": 39.6748824,
          "lng": -84.1272982
        },
        "northeast": {
          "lat": 39.7435529,
          "lng": -83.9992388
        }
      },
      "bounds": {
        "southwest": {
          "lat": 39.6808620,
          "lng": -84.1065100
        },
        "northeast": {
          "lat": 39.7790059,
          "lng": -84.0090980
        }
      }
    }
  } ]
}
