{
  "status": "OK",
  "results": [ {
    "types": [ "locality", "political" ],
    "formatted_address": "Blue Ash, OH, USA",
    "address_components": [ {
      "long_name": "Blue Ash",
      "short_name": "Blue Ash",
      "types": [ "locality", "political" ]
    }, {
      "long_name": "Hamilton",
      "short_name": "Hamilton",
      "types": [ "administrative_area_level_2", "political" ]
    }, {
      "long_name": "Ohio",
      "short_name": "OH",
      "types": [ "administrative_area_level_1", "political" ]
    }, {
      "long_name": "United States",
      "short_name": "US",
      "types": [ "country", "political" ]
    } ],
    "geometry": {
      "location": {
        "lat": 39.2320029,
        "lng": -84.3782734
      },
      "location_type": "APPROXIMATE",
      "viewport": {
        "southwest": {
          "lat": 39.1974229,
          "lng": -84.4423031
        },
        "northeast": {
          "lat": 39.2665659,
          "lng": -84.3142437
        }
      },
      "bounds": {
        "southwest": {
          "lat": 39.2168209,
          "lng": -84.4152419
        },
        "northeast": {
          "lat": 39.2805589,
          "lng": -84.3546600
        }
      }
    }
  } ]
}
