{
  "status": "OK",
  "results": [ {
    "types": [ "locality", "political" ],
    "formatted_address": "Brecksville, OH, USA",
    "address_components": [ {
      "long_name": "Brecksville",
      "short_name": "Brecksville",
      "types": [ "locality", "political" ]
    }, {
      "long_name": "Cuyahoga",
      "short_name": "Cuyahoga",
      "types": [ "administrative_area_level_2", "political" ]
    }, {
      "long_name": "Ohio",
      "short_name": "OH",
      "types": [ "administrative_area_level_1", "political" ]
    }, {
      "long_name": "United States",
      "short_name": "US",
      "types": [ "country", "political" ]
    } ],
    "geometry": {
      "location": {
        "lat": 41.3197763,
        "lng": -81.6267904
      },
      "location_type": "APPROXIMATE",
      "viewport": {
        "southwest": {
          "lat": 41.2862475,
          "lng": -81.6908201
        },
        "northeast": {
          "lat": 41.3532879,
          "lng": -81.5627607
        }
      },
      "bounds": {
        "southwest": {
          "lat": 41.2770540,
          "lng": -81.6705510
        },
        "northeast": {
          "lat": 41.3512140,
          "lng": -81.5621670
        }
      }
    }
  } ]
}
