{
  "status": "OK",
  "results": [ {
    "types": [ "locality", "political" ],
    "formatted_address": "Brooklyn, OH, USA",
    "address_components": [ {
      "long_name": "Brooklyn",
      "short_name": "Brooklyn",
      "types": [ "locality", "political" ]
    }, {
      "long_name": "Cuyahoga",
      "short_name": "Cuyahoga",
      "types": [ "administrative_area_level_2", "political" ]
    }, {
      "long_name": "Ohio",
      "short_name": "OH",
      "types": [ "administrative_area_level_1", "political" ]
    }, {
      "long_name": "United States",
      "short_name": "US",
      "types": [ "country", "political" ]
    } ],
    "geometry": {
      "location": {
        "lat": 41.4397736,
        "lng": -81.7354098
      },
      "location_type": "APPROXIMATE",
      "viewport": {
        "southwest": {
          "lat": 41.4230422,
          "lng": -81.7674246
        },
        "northeast": {
          "lat": 41.4565007,
          "lng": -81.7033950
        }
      },
      "bounds": {
        "southwest": {
          "lat": 41.4184060,
          "lng": -81.7696550
        },
        "northeast": {
          "lat": 41.4625250,
          "lng": -81.7285809
        }
      }
    }
  } ]
}
