{
  "status": "OK",
  "results": [ {
    "types": [ "locality", "political" ],
    "formatted_address": "Canton, OH, USA",
    "address_components": [ {
      "long_name": "Canton",
      "short_name": "Canton",
      "types": [ "locality", "political" ]
    }, {
      "long_name": "Stark",
      "short_name": "Stark",
      "types": [ "administrative_area_level_2", "political" ]
    }, {
      "long_name": "Ohio",
      "short_name": "OH",
      "types": [ "administrative_area_level_1", "political" ]
    }, {
      "long_name": "United States",
      "short_name": "US",
      "types": [ "country", "political" ]
    } ],
    "geometry": {
      "location": {
        "lat": 40.7989473,
        "lng": -81.3784470
      },
      "location_type": "APPROXIMATE",
      "viewport": {
        "southwest": {
          "lat": 40.7313395,
          "lng": -81.5065064
        },
        "northeast": {
          "lat": 40.8664863,
          "lng": -81.2503876
        }
      },
      "bounds": {
        "southwest": {
          "lat": 40.7436370,
          "lng": -81.4292900
        },
        "northeast": {
          "lat": 40.8658639,
          "lng": -81.3009979
        }
      }
    }
  } ]
}
