{
  "status": "OK",
  "results": [ {
    "types": [ "locality", "political" ],
    "formatted_address": "Chardon, OH, USA",
    "address_components": [ {
      "long_name": "Chardon",
      "short_name": "Chardon",
      "types": [ "locality", "political" ]
    }, {
      "long_name": "Geauga",
      "short_name": "Geauga",
      "types": [ "administrative_area_level_2", "political" ]
    }, {
      "long_name": "Ohio",
      "short_name": "OH",
      "types": [ "administrative_area_level_1", "political" ]
    }, {
      "long_name": "United States",
      "short_name": "US",
      "types": [ "country", "political" ]
    } ],
    "geometry": {
      "location": {
        "lat": 41.5790740,
        "lng": -81.2085310
      },
      "location_type": "APPROXIMATE",
      "viewport": {
        "southwest": {
          "lat": 41.5623786,
          "lng": -81.2405458
        },
        "northeast": {
          "lat": 41.5957651,
          "lng": -81.1765162
        }
      },
      "bounds": {
        "southwest": {
          "lat": 41.5546480,
          "lng": -81.2426570
        },
        "northeast": {
          "lat": 41.5996510,
          "lng": -81.1876559
        }
      }
    }
  } ]
}
