{
  "status": "OK",
  "results": [ {
    "types": [ "locality", "political" ],
    "formatted_address": "Cheviot, OH 45211, USA",
    "address_components": [ {
      "long_name": "Cheviot",
      "short_name": "Cheviot",
      "types": [ "locality", "political" ]
    }, {
      "long_name": "Hamilton",
      "short_name": "Hamilton",
      "types": [ "administrative_area_level_2", "political" ]
    }, {
      "long_name": "Ohio",
      "short_name": "OH",
      "types": [ "administrative_area_level_1", "political" ]
    }, {
      "long_name": "United States",
      "short_name": "US",
      "types": [ "country", "political" ]
    }, {
      "long_name": "45211",
      "short_name": "45211",
      "types": [ "postal_code" ]
    } ],
    "geometry": {
      "location": {
        "lat": 39.1570028,
        "lng": -84.6132787
      },
      "location_type": "APPROXIMATE",
      "viewport": {
        "southwest": {
          "lat": 39.1483502,
          "lng": -84.6292861
        },
        "northeast": {
          "lat": 39.1656544,
          "lng": -84.5972713
        }
      },
      "bounds": {
        "southwest": {
          "lat": 39.1482610,
          "lng": -84.6260520
        },
        "northeast": {
          "lat": 39.1686660,
          "lng": -84.6025119
        }
      }
    }
  } ]
}
