{
  "status": "OK",
  "results": [ {
    "types": [ "locality", "political" ],
    "formatted_address": "Clayton, OH, USA",
    "address_components": [ {
      "long_name": "Clayton",
      "short_name": "Clayton",
      "types": [ "locality", "political" ]
    }, {
      "long_name": "Montgomery",
      "short_name": "Montgomery",
      "types": [ "administrative_area_level_2", "political" ]
    }, {
      "long_name": "Ohio",
      "short_name": "OH",
      "types": [ "administrative_area_level_1", "political" ]
    }, {
      "long_name": "United States",
      "short_name": "US",
      "types": [ "country", "political" ]
    } ],
    "geometry": {
      "location": {
        "lat": 39.8631101,
        "lng": -84.3605022
      },
      "location_type": "APPROXIMATE",
      "viewport": {
        "southwest": {
          "lat": 39.7945589,
          "lng": -84.4885616
        },
        "northeast": {
          "lat": 39.9315929,
          "lng": -84.2324428
        }
      },
      "bounds": {
        "southwest": {
          "lat": 39.8320830,
          "lng": -84.3692750
        },
        "northeast": {
          "lat": 39.9213990,
          "lng": -84.2254109
        }
      }
    }
  } ]
}
