{
  "status": "OK",
  "results": [ {
    "types": [ "locality", "political" ],
    "formatted_address": "Covington, OH, USA",
    "address_components": [ {
      "long_name": "Covington",
      "short_name": "Covington",
      "types": [ "locality", "political" ]
    }, {
      "long_name": "Newberry",
      "short_name": "Newberry",
      "types": [ "administrative_area_level_3", "political" ]
    }, {
      "long_name": "Miami",
      "short_name": "Miami",
      "types": [ "administrative_area_level_2", "political" ]
    }, {
      "long_name": "Ohio",
      "short_name": "OH",
      "types": [ "administrative_area_level_1", "political" ]
    }, {
      "long_name": "United States",
      "short_name": "US",
      "types": [ "country", "political" ]
    } ],
    "geometry": {
      "location": {
        "lat": 40.1172727,
        "lng": -84.3538367
      },
      "location_type": "APPROXIMATE",
      "viewport": {
        "southwest": {
          "lat": 40.1087393,
          "lng": -84.3698441
        },
        "northeast": {
          "lat": 40.1258050,
          "lng": -84.3378293
        }
      },
      "bounds": {
        "southwest": {
          "lat": 40.1074050,
          "lng": -84.3645770
        },
        "northeast": {
          "lat": 40.1285010,
          "lng": -84.3383049
        }
      }
    }
  } ]
}
