{
  "status": "OK",
  "results": [ {
    "types": [ "locality", "political" ],
    "formatted_address": "Crestline, OH, USA",
    "address_components": [ {
      "long_name": "Crestline",
      "short_name": "Crestline",
      "types": [ "locality", "political" ]
    }, {
      "long_name": "Crawford",
      "short_name": "Crawford",
      "types": [ "administrative_area_level_2", "political" ]
    }, {
      "long_name": "Ohio",
      "short_name": "OH",
      "types": [ "administrative_area_level_1", "political" ]
    }, {
      "long_name": "United States",
      "short_name": "US",
      "types": [ "country", "political" ]
    } ],
    "geometry": {
      "location": {
        "lat": 40.7875572,
        "lng": -82.7365677
      },
      "location_type": "APPROXIMATE",
      "viewport": {
        "southwest": {
          "lat": 40.7537561,
          "lng": -82.8005974
        },
        "northeast": {
          "lat": 40.8213411,
          "lng": -82.6725380
        }
      },
      "bounds": {
        "southwest": {
          "lat": 40.7565380,
          "lng": -82.7899839
        },
        "northeast": {
          "lat": 40.8012410,
          "lng": -82.7175740
        }
      }
    }
  } ]
}
