{
  "status": "OK",
  "results": [ {
    "types": [ "locality", "political" ],
    "formatted_address": "Dayton, OH, USA",
    "address_components": [ {
      "long_name": "Dayton",
      "short_name": "Dayton",
      "types": [ "locality", "political" ]
    }, {
      "long_name": "Montgomery",
      "short_name": "Montgomery",
      "types": [ "administrative_area_level_2", "political" ]
    }, {
      "long_name": "Ohio",
      "short_name": "OH",
      "types": [ "administrative_area_level_1", "political" ]
    }, {
      "long_name": "United States",
      "short_name": "US",
      "types": [ "country", "political" ]
    } ],
    "geometry": {
      "location": {
        "lat": 39.7589478,
        "lng": -84.1916069
      },
      "location_type": "APPROXIMATE",
      "viewport": {
        "southwest": {
          "lat": 39.6902927,
          "lng": -84.3196663
        },
        "northeast": {
          "lat": 39.8275345,
          "lng": -84.0635475
        }
      },
      "bounds": {
        "southwest": {
          "lat": 39.7018340,
          "lng": -84.3113769
        },
        "northeast": {
          "lat": 39.9208230,
          "lng": -84.0929379
        }
      }
    }
  } ]
}
