{
  "status": "OK",
  "results": [ {
    "types": [ "locality", "political" ],
    "formatted_address": "Elmwood Place, OH, USA",
    "address_components": [ {
      "long_name": "Elmwood Place",
      "short_name": "Elmwood Place",
      "types": [ "locality", "political" ]
    }, {
      "long_name": "Hamilton",
      "short_name": "Hamilton",
      "types": [ "administrative_area_level_2", "political" ]
    }, {
      "long_name": "Ohio",
      "short_name": "OH",
      "types": [ "administrative_area_level_1", "political" ]
    }, {
      "long_name": "United States",
      "short_name": "US",
      "types": [ "country", "political" ]
    } ],
    "geometry": {
      "location": {
        "lat": 39.1872809,
        "lng": -84.4879985
      },
      "location_type": "APPROXIMATE",
      "viewport": {
        "southwest": {
          "lat": 39.1786320,
          "lng": -84.5040059
        },
        "northeast": {
          "lat": 39.1959288,
          "lng": -84.4719911
        }
      },
      "bounds": {
        "southwest": {
          "lat": 39.1795590,
          "lng": -84.4971439
        },
        "northeast": {
          "lat": 39.1894590,
          "lng": -84.4816089
        }
      }
    }
  } ]
}
