{
  "status": "OK",
  "results": [ {
    "types": [ "locality", "political" ],
    "formatted_address": "Elyria, OH, USA",
    "address_components": [ {
      "long_name": "Elyria",
      "short_name": "Elyria",
      "types": [ "locality", "political" ]
    }, {
      "long_name": "Lorain",
      "short_name": "Lorain",
      "types": [ "administrative_area_level_2", "political" ]
    }, {
      "long_name": "Ohio",
      "short_name": "OH",
      "types": [ "administrative_area_level_1", "political" ]
    }, {
      "long_name": "United States",
      "short_name": "US",
      "types": [ "country", "political" ]
    } ],
    "geometry": {
      "location": {
        "lat": 41.3683798,
        "lng": -82.1076486
      },
      "location_type": "APPROXIMATE",
      "viewport": {
        "southwest": {
          "lat": 41.3348760,
          "lng": -82.1716783
        },
        "northeast": {
          "lat": 41.4018664,
          "lng": -82.0436189
        }
      },
      "bounds": {
        "southwest": {
          "lat": 41.3330280,
          "lng": -82.1794590
        },
        "northeast": {
          "lat": 41.4184620,
          "lng": -82.0430830
        }
      }
    }
  } ]
}
