{
  "status": "OK",
  "results": [ {
    "types": [ "locality", "political" ],
    "formatted_address": "Glendale, OH, USA",
    "address_components": [ {
      "long_name": "Glendale",
      "short_name": "Glendale",
      "types": [ "locality", "political" ]
    }, {
      "long_name": "Hamilton",
      "short_name": "Hamilton",
      "types": [ "administrative_area_level_2", "political" ]
    }, {
      "long_name": "Ohio",
      "short_name": "OH",
      "types": [ "administrative_area_level_1", "political" ]
    }, {
      "long_name": "United States",
      "short_name": "US",
      "types": [ "country", "political" ]
    } ],
    "geometry": {
      "location": {
        "lat": 39.2706134,
        "lng": -84.4593871
      },
      "location_type": "APPROXIMATE",
      "viewport": {
        "southwest": {
          "lat": 39.2619747,
          "lng": -84.4753945
        },
        "northeast": {
          "lat": 39.2792510,
          "lng": -84.4433797
        }
      },
      "bounds": {
        "southwest": {
          "lat": 39.2603250,
          "lng": -84.4781430
        },
        "northeast": {
          "lat": 39.2794890,
          "lng": -84.4401000
        }
      }
    }
  } ]
}
