{
  "status": "OK",
  "results": [ {
    "types": [ "locality", "political" ],
    "formatted_address": "Hunting Valley, OH, USA",
    "address_components": [ {
      "long_name": "Hunting Valley",
      "short_name": "Hunting Valley",
      "types": [ "locality", "political" ]
    }, {
      "long_name": "Cuyahoga",
      "short_name": "Cuyahoga",
      "types": [ "administrative_area_level_2", "political" ]
    }, {
      "long_name": "Ohio",
      "short_name": "OH",
      "types": [ "administrative_area_level_1", "political" ]
    }, {
      "long_name": "United States",
      "short_name": "US",
      "types": [ "country", "political" ]
    } ],
    "geometry": {
      "location": {
        "lat": 41.4892194,
        "lng": -81.4017810
      },
      "location_type": "APPROXIMATE",
      "viewport": {
        "southwest": {
          "lat": 41.4725008,
          "lng": -81.4337958
        },
        "northeast": {
          "lat": 41.5059337,
          "lng": -81.3697662
        }
      },
      "bounds": {
        "southwest": {
          "lat": 41.4548969,
          "lng": -81.4384439
        },
        "northeast": {
          "lat": 41.5008480,
          "lng": -81.3808590
        }
      }
    }
  } ]
}
