{
  "status": "OK",
  "results": [ {
    "types": [ "locality", "political" ],
    "formatted_address": "Jamestown, OH, USA",
    "address_components": [ {
      "long_name": "Jamestown",
      "short_name": "Jamestown",
      "types": [ "locality", "political" ]
    }, {
      "long_name": "Greene",
      "short_name": "Greene",
      "types": [ "administrative_area_level_2", "political" ]
    }, {
      "long_name": "Ohio",
      "short_name": "OH",
      "types": [ "administrative_area_level_1", "political" ]
    }, {
      "long_name": "United States",
      "short_name": "US",
      "types": [ "country", "political" ]
    } ],
    "geometry": {
      "location": {
        "lat": 39.6581163,
        "lng": -83.7349236
      },
      "location_type": "APPROXIMATE",
      "viewport": {
        "southwest": {
          "lat": 39.6409338,
          "lng": -83.7669384
        },
        "northeast": {
          "lat": 39.6752945,
          "lng": -83.7029088
        }
      },
      "bounds": {
        "southwest": {
          "lat": 39.6495210,
          "lng": -83.7639480
        },
        "northeast": {
          "lat": 39.6767420,
          "lng": -83.7250360
        }
      }
    }
  } ]
}
