{
  "status": "OK",
  "results": [ {
    "types": [ "locality", "political" ],
    "formatted_address": "Jefferson, OH, USA",
    "address_components": [ {
      "long_name": "Jefferson",
      "short_name": "Jefferson",
      "types": [ "locality", "political" ]
    }, {
      "long_name": "Ashtabula",
      "short_name": "Ashtabula",
      "types": [ "administrative_area_level_2", "political" ]
    }, {
      "long_name": "Ohio",
      "short_name": "OH",
      "types": [ "administrative_area_level_1", "political" ]
    }, {
      "long_name": "United States",
      "short_name": "US",
      "types": [ "country", "political" ]
    } ],
    "geometry": {
      "location": {
        "lat": 41.7386662,
        "lng": -80.7698066
      },
      "location_type": "APPROXIMATE",
      "viewport": {
        "southwest": {
          "lat": 41.7220121,
          "lng": -80.8018214
        },
        "northeast": {
          "lat": 41.7553160,
          "lng": -80.7377918
        }
      },
      "bounds": {
        "southwest": {
          "lat": 41.7267150,
          "lng": -80.7914570
        },
        "northeast": {
          "lat": 41.7551009,
          "lng": -80.7487520
        }
      }
    }
  } ]
}
