{
  "status": "OK",
  "results": [ {
    "types": [ "locality", "political" ],
    "formatted_address": "Johnstown, OH, USA",
    "address_components": [ {
      "long_name": "Johnstown",
      "short_name": "Johnstown",
      "types": [ "locality", "political" ]
    }, {
      "long_name": "Monroe",
      "short_name": "Monroe",
      "types": [ "administrative_area_level_3", "political" ]
    }, {
      "long_name": "Licking",
      "short_name": "Licking",
      "types": [ "administrative_area_level_2", "political" ]
    }, {
      "long_name": "Ohio",
      "short_name": "OH",
      "types": [ "administrative_area_level_1", "political" ]
    }, {
      "long_name": "United States",
      "short_name": "US",
      "types": [ "country", "political" ]
    } ],
    "geometry": {
      "location": {
        "lat": 40.1536742,
        "lng": -82.6851699
      },
      "location_type": "APPROXIMATE",
      "viewport": {
        "southwest": {
          "lat": 40.1366156,
          "lng": -82.7171847
        },
        "northeast": {
          "lat": 40.1707286,
          "lng": -82.6531551
        }
      },
      "bounds": {
        "southwest": {
          "lat": 40.1319340,
          "lng": -82.7171939
        },
        "northeast": {
          "lat": 40.1650629,
          "lng": -82.6606230
        }
      }
    }
  } ]
}
