{
  "status": "OK",
  "results": [ {
    "types": [ "locality", "political" ],
    "formatted_address": "Kenton, OH, USA",
    "address_components": [ {
      "long_name": "Kenton",
      "short_name": "Kenton",
      "types": [ "locality", "political" ]
    }, {
      "long_name": "Hardin",
      "short_name": "Hardin",
      "types": [ "administrative_area_level_2", "political" ]
    }, {
      "long_name": "Ohio",
      "short_name": "OH",
      "types": [ "administrative_area_level_1", "political" ]
    }, {
      "long_name": "United States",
      "short_name": "US",
      "types": [ "country", "political" ]
    } ],
    "geometry": {
      "location": {
        "lat": 40.6469982,
        "lng": -83.6096516
      },
      "location_type": "APPROXIMATE",
      "viewport": {
        "southwest": {
          "lat": 40.6300641,
          "lng": -83.6416664
        },
        "northeast": {
          "lat": 40.6639280,
          "lng": -83.5776368
        }
      },
      "bounds": {
        "southwest": {
          "lat": 40.6124889,
          "lng": -83.6437500
        },
        "northeast": {
          "lat": 40.6668470,
          "lng": -83.5745489
        }
      }
    }
  } ]
}
