{
  "status": "OK",
  "results": [ {
    "types": [ "locality", "political" ],
    "formatted_address": "Kirtland, OH, USA",
    "address_components": [ {
      "long_name": "Kirtland",
      "short_name": "Kirtland",
      "types": [ "locality", "political" ]
    }, {
      "long_name": "Lake",
      "short_name": "Lake",
      "types": [ "administrative_area_level_2", "political" ]
    }, {
      "long_name": "Ohio",
      "short_name": "OH",
      "types": [ "administrative_area_level_1", "political" ]
    }, {
      "long_name": "United States",
      "short_name": "US",
      "types": [ "country", "political" ]
    } ],
    "geometry": {
      "location": {
        "lat": 41.6289365,
        "lng": -81.3614985
      },
      "location_type": "APPROXIMATE",
      "viewport": {
        "southwest": {
          "lat": 41.5955671,
          "lng": -81.4255282
        },
        "northeast": {
          "lat": 41.6622886,
          "lng": -81.2974688
        }
      },
      "bounds": {
        "southwest": {
          "lat": 41.5697089,
          "lng": -81.3917340
        },
        "northeast": {
          "lat": 41.6405449,
          "lng": -81.2949860
        }
      }
    }
  } ]
}
