{
  "status": "OK",
  "results": [ {
    "types": [ "locality", "political" ],
    "formatted_address": "Lakemore, OH, USA",
    "address_components": [ {
      "long_name": "Lakemore",
      "short_name": "Lakemore",
      "types": [ "locality", "political" ]
    }, {
      "long_name": "Summit",
      "short_name": "Summit",
      "types": [ "administrative_area_level_2", "political" ]
    }, {
      "long_name": "Ohio",
      "short_name": "OH",
      "types": [ "administrative_area_level_1", "political" ]
    }, {
      "long_name": "United States",
      "short_name": "US",
      "types": [ "country", "political" ]
    } ],
    "geometry": {
      "location": {
        "lat": 41.0208895,
        "lng": -81.4359458
      },
      "location_type": "APPROXIMATE",
      "viewport": {
        "southwest": {
          "lat": 41.0124706,
          "lng": -81.4519532
        },
        "northeast": {
          "lat": 41.0293073,
          "lng": -81.4199384
        }
      },
      "bounds": {
        "southwest": {
          "lat": 41.0120970,
          "lng": -81.4450530
        },
        "northeast": {
          "lat": 41.0302110,
          "lng": -81.4006160
        }
      }
    }
  } ]
}
