{
  "status": "OK",
  "results": [ {
    "types": [ "administrative_area_level_3", "political" ],
    "formatted_address": "Liverpool, OH, USA",
    "address_components": [ {
      "long_name": "Liverpool",
      "short_name": "Liverpool",
      "types": [ "administrative_area_level_3", "political" ]
    }, {
      "long_name": "Columbiana",
      "short_name": "Columbiana",
      "types": [ "administrative_area_level_2", "political" ]
    }, {
      "long_name": "Ohio",
      "short_name": "OH",
      "types": [ "administrative_area_level_1", "political" ]
    }, {
      "long_name": "United States",
      "short_name": "US",
      "types": [ "country", "political" ]
    } ],
    "geometry": {
      "location": {
        "lat": 40.6414894,
        "lng": -80.6049374
      },
      "location_type": "APPROXIMATE",
      "viewport": {
        "southwest": {
          "lat": 40.6076141,
          "lng": -80.6689671
        },
        "northeast": {
          "lat": 40.6753475,
          "lng": -80.5409077
        }
      },
      "bounds": {
        "southwest": {
          "lat": 40.6171990,
          "lng": -80.6325629
        },
        "northeast": {
          "lat": 40.6549950,
          "lng": -80.5189889
        }
      }
    }
  } ]
}
