{
  "status": "OK",
  "results": [ {
    "types": [ "locality", "political" ],
    "formatted_address": "Lordstown, OH, USA",
    "address_components": [ {
      "long_name": "Lordstown",
      "short_name": "Lordstown",
      "types": [ "locality", "political" ]
    }, {
      "long_name": "Trumbull",
      "short_name": "Trumbull",
      "types": [ "administrative_area_level_2", "political" ]
    }, {
      "long_name": "Ohio",
      "short_name": "OH",
      "types": [ "administrative_area_level_1", "political" ]
    }, {
      "long_name": "United States",
      "short_name": "US",
      "types": [ "country", "political" ]
    } ],
    "geometry": {
      "location": {
        "lat": 41.1656129,
        "lng": -80.8575849
      },
      "location_type": "APPROXIMATE",
      "viewport": {
        "southwest": {
          "lat": 41.1320049,
          "lng": -80.9216146
        },
        "northeast": {
          "lat": 41.1992037,
          "lng": -80.7935552
        }
      },
      "bounds": {
        "southwest": {
          "lat": 41.1342260,
          "lng": -80.9061960
        },
        "northeast": {
          "lat": 41.2032550,
          "lng": -80.8108890
        }
      }
    }
  } ]
}
