{
  "status": "OK",
  "results": [ {
    "types": [ "locality", "political" ],
    "formatted_address": "Loudonville, OH, USA",
    "address_components": [ {
      "long_name": "Loudonville",
      "short_name": "Loudonville",
      "types": [ "locality", "political" ]
    }, {
      "long_name": "Ashland",
      "short_name": "Ashland",
      "types": [ "administrative_area_level_2", "political" ]
    }, {
      "long_name": "Ohio",
      "short_name": "OH",
      "types": [ "administrative_area_level_1", "political" ]
    }, {
      "long_name": "United States",
      "short_name": "US",
      "types": [ "country", "political" ]
    } ],
    "geometry": {
      "location": {
        "lat": 40.6353382,
        "lng": -82.2332144
      },
      "location_type": "APPROXIMATE",
      "viewport": {
        "southwest": {
          "lat": 40.6184011,
          "lng": -82.2652292
        },
        "northeast": {
          "lat": 40.6522710,
          "lng": -82.2011996
        }
      },
      "bounds": {
        "southwest": {
          "lat": 40.6119879,
          "lng": -82.2645129
        },
        "northeast": {
          "lat": 40.6496090,
          "lng": -82.2053519
        }
      }
    }
  } ]
}
