{
  "status": "OK",
  "results": [ {
    "types": [ "locality", "political" ],
    "formatted_address": "Lynchburg, OH, USA",
    "address_components": [ {
      "long_name": "Lynchburg",
      "short_name": "Lynchburg",
      "types": [ "locality", "political" ]
    }, {
      "long_name": "Highland",
      "short_name": "Highland",
      "types": [ "administrative_area_level_2", "political" ]
    }, {
      "long_name": "Ohio",
      "short_name": "OH",
      "types": [ "administrative_area_level_1", "political" ]
    }, {
      "long_name": "United States",
      "short_name": "US",
      "types": [ "country", "political" ]
    } ],
    "geometry": {
      "location": {
        "lat": 39.2417290,
        "lng": -83.7913143
      },
      "location_type": "APPROXIMATE",
      "viewport": {
        "southwest": {
          "lat": 39.2330868,
          "lng": -83.8073217
        },
        "northeast": {
          "lat": 39.2503702,
          "lng": -83.7753069
        }
      },
      "bounds": {
        "southwest": {
          "lat": 39.2254740,
          "lng": -83.8022020
        },
        "northeast": {
          "lat": 39.2505490,
          "lng": -83.7780190
        }
      }
    }
  } ]
}
