{
  "status": "OK",
  "results": [ {
    "types": [ "locality", "political" ],
    "formatted_address": "Maple Heights, OH, USA",
    "address_components": [ {
      "long_name": "Maple Heights",
      "short_name": "Maple Heights",
      "types": [ "locality", "political" ]
    }, {
      "long_name": "Cuyahoga",
      "short_name": "Cuyahoga",
      "types": [ "administrative_area_level_2", "political" ]
    }, {
      "long_name": "Ohio",
      "short_name": "OH",
      "types": [ "administrative_area_level_1", "political" ]
    }, {
      "long_name": "United States",
      "short_name": "US",
      "types": [ "country", "political" ]
    } ],
    "geometry": {
      "location": {
        "lat": 41.4153313,
        "lng": -81.5659560
      },
      "location_type": "APPROXIMATE",
      "viewport": {
        "southwest": {
          "lat": 41.3985936,
          "lng": -81.5979708
        },
        "northeast": {
          "lat": 41.4320647,
          "lng": -81.5339412
        }
      },
      "bounds": {
        "southwest": {
          "lat": 41.3845529,
          "lng": -81.5848539
        },
        "northeast": {
          "lat": 41.4252290,
          "lng": -81.5269369
        }
      }
    }
  } ]
}
