{
  "status": "OK",
  "results": [ {
    "types": [ "locality", "political" ],
    "formatted_address": "Mentor-on-the-Lake, OH, USA",
    "address_components": [ {
      "long_name": "Mentor-on-the-Lake",
      "short_name": "Mentor-on-the-Lake",
      "types": [ "locality", "political" ]
    }, {
      "long_name": "Lake",
      "short_name": "Lake",
      "types": [ "administrative_area_level_2", "political" ]
    }, {
      "long_name": "Ohio",
      "short_name": "OH",
      "types": [ "administrative_area_level_1", "political" ]
    }, {
      "long_name": "United States",
      "short_name": "US",
      "types": [ "country", "political" ]
    } ],
    "geometry": {
      "location": {
        "lat": 41.7137460,
        "lng": -81.3647020
      },
      "location_type": "APPROXIMATE",
      "viewport": {
        "southwest": {
          "lat": 41.7054163,
          "lng": -81.3807094
        },
        "northeast": {
          "lat": 41.7220747,
          "lng": -81.3486946
        }
      },
      "bounds": {
        "southwest": {
          "lat": 41.7043830,
          "lng": -81.3887319
        },
        "northeast": {
          "lat": 41.7287430,
          "lng": -81.3483629
        }
      }
    }
  } ]
}
