{
  "status": "OK",
  "results": [ {
    "types": [ "locality", "political" ],
    "formatted_address": "Middletown, OH, USA",
    "address_components": [ {
      "long_name": "Middletown",
      "short_name": "Middletown",
      "types": [ "locality", "political" ]
    }, {
      "long_name": "Butler",
      "short_name": "Butler",
      "types": [ "administrative_area_level_2", "political" ]
    }, {
      "long_name": "Ohio",
      "short_name": "OH",
      "types": [ "administrative_area_level_1", "political" ]
    }, {
      "long_name": "United States",
      "short_name": "US",
      "types": [ "country", "political" ]
    } ],
    "geometry": {
      "location": {
        "lat": 39.5150576,
        "lng": -84.3982763
      },
      "location_type": "APPROXIMATE",
      "viewport": {
        "southwest": {
          "lat": 39.4806174,
          "lng": -84.4623060
        },
        "northeast": {
          "lat": 39.5494807,
          "lng": -84.3342466
        }
      },
      "bounds": {
        "southwest": {
          "lat": 39.4598570,
          "lng": -84.4209109
        },
        "northeast": {
          "lat": 39.5487980,
          "lng": -84.2925150
        }
      }
    }
  } ]
}
