{
  "status": "OK",
  "results": [ {
    "types": [ "locality", "political" ],
    "formatted_address": "Moraine, OH, USA",
    "address_components": [ {
      "long_name": "Moraine",
      "short_name": "Moraine",
      "types": [ "locality", "political" ]
    }, {
      "long_name": "Montgomery",
      "short_name": "Montgomery",
      "types": [ "administrative_area_level_2", "political" ]
    }, {
      "long_name": "Ohio",
      "short_name": "OH",
      "types": [ "administrative_area_level_1", "political" ]
    }, {
      "long_name": "United States",
      "short_name": "US",
      "types": [ "country", "political" ]
    } ],
    "geometry": {
      "location": {
        "lat": 39.7061702,
        "lng": -84.2193849
      },
      "location_type": "APPROXIMATE",
      "viewport": {
        "southwest": {
          "lat": 39.6718249,
          "lng": -84.2834146
        },
        "northeast": {
          "lat": 39.7404984,
          "lng": -84.1553552
        }
      },
      "bounds": {
        "southwest": {
          "lat": 39.6725519,
          "lng": -84.3195200
        },
        "northeast": {
          "lat": 39.7324769,
          "lng": -84.1975399
        }
      }
    }
  } ]
}
