{
  "status": "OK",
  "results": [ {
    "types": [ "locality", "political" ],
    "formatted_address": "Mt Healthy, OH 45231, USA",
    "address_components": [ {
      "long_name": "Mt Healthy",
      "short_name": "Mt Healthy",
      "types": [ "locality", "political" ]
    }, {
      "long_name": "Mount Healthy",
      "short_name": "Mount Healthy",
      "types": [ "administrative_area_level_3", "political" ]
    }, {
      "long_name": "Hamilton",
      "short_name": "Hamilton",
      "types": [ "administrative_area_level_2", "political" ]
    }, {
      "long_name": "Ohio",
      "short_name": "OH",
      "types": [ "administrative_area_level_1", "political" ]
    }, {
      "long_name": "United States",
      "short_name": "US",
      "types": [ "country", "political" ]
    }, {
      "long_name": "45231",
      "short_name": "45231",
      "types": [ "postal_code" ]
    } ],
    "geometry": {
      "location": {
        "lat": 39.2336687,
        "lng": -84.5457778
      },
      "location_type": "APPROXIMATE",
      "viewport": {
        "southwest": {
          "lat": 39.2250255,
          "lng": -84.5617852
        },
        "northeast": {
          "lat": 39.2423108,
          "lng": -84.5297704
        }
      },
      "bounds": {
        "southwest": {
          "lat": 39.2235940,
          "lng": -84.5595920
        },
        "northeast": {
          "lat": 39.2439580,
          "lng": -84.5353770
        }
      }
    }
  } ]
}
