{
  "status": "OK",
  "results": [ {
    "types": [ "locality", "political" ],
    "formatted_address": "New Franklin, OH, USA",
    "address_components": [ {
      "long_name": "New Franklin",
      "short_name": "New Franklin",
      "types": [ "locality", "political" ]
    }, {
      "long_name": "Summit",
      "short_name": "Summit",
      "types": [ "administrative_area_level_2", "political" ]
    }, {
      "long_name": "Ohio",
      "short_name": "OH",
      "types": [ "administrative_area_level_1", "political" ]
    }, {
      "long_name": "United States",
      "short_name": "US",
      "types": [ "country", "political" ]
    } ],
    "geometry": {
      "location": {
        "lat": 40.9417229,
        "lng": -81.5415079
      },
      "location_type": "APPROXIMATE",
      "viewport": {
        "southwest": {
          "lat": 40.9080004,
          "lng": -81.6055376
        },
        "northeast": {
          "lat": 40.9754282,
          "lng": -81.4774782
        }
      },
      "bounds": {
        "southwest": {
          "lat": 40.9103120,
          "lng": -81.6477270
        },
        "northeast": {
          "lat": 40.9887520,
          "lng": -81.5316390
        }
      }
    }
  } ]
}
