{
  "status": "OK",
  "results": [ {
    "types": [ "locality", "political" ],
    "formatted_address": "Niles, OH, USA",
    "address_components": [ {
      "long_name": "Niles",
      "short_name": "Niles",
      "types": [ "locality", "political" ]
    }, {
      "long_name": "Trumbull",
      "short_name": "Trumbull",
      "types": [ "administrative_area_level_2", "political" ]
    }, {
      "long_name": "Ohio",
      "short_name": "OH",
      "types": [ "administrative_area_level_1", "political" ]
    }, {
      "long_name": "United States",
      "short_name": "US",
      "types": [ "country", "political" ]
    } ],
    "geometry": {
      "location": {
        "lat": 41.1828353,
        "lng": -80.7653580
      },
      "location_type": "APPROXIMATE",
      "viewport": {
        "southwest": {
          "lat": 41.1492361,
          "lng": -80.8293877
        },
        "northeast": {
          "lat": 41.2164172,
          "lng": -80.7013283
        }
      },
      "bounds": {
        "southwest": {
          "lat": 41.1566170,
          "lng": -80.7881029
        },
        "northeast": {
          "lat": 41.2200510,
          "lng": -80.7170520
        }
      }
    }
  } ]
}
