{
  "status": "OK",
  "results": [ {
    "types": [ "locality", "political" ],
    "formatted_address": "Northfield, OH, USA",
    "address_components": [ {
      "long_name": "Northfield",
      "short_name": "Northfield",
      "types": [ "locality", "political" ]
    }, {
      "long_name": "Summit",
      "short_name": "Summit",
      "types": [ "administrative_area_level_2", "political" ]
    }, {
      "long_name": "Ohio",
      "short_name": "OH",
      "types": [ "administrative_area_level_1", "political" ]
    }, {
      "long_name": "United States",
      "short_name": "US",
      "types": [ "country", "political" ]
    } ],
    "geometry": {
      "location": {
        "lat": 41.3450547,
        "lng": -81.5284520
      },
      "location_type": "APPROXIMATE",
      "viewport": {
        "southwest": {
          "lat": 41.3366774,
          "lng": -81.5444594
        },
        "northeast": {
          "lat": 41.3534310,
          "lng": -81.5124446
        }
      },
      "bounds": {
        "southwest": {
          "lat": 41.3283330,
          "lng": -81.5394050
        },
        "northeast": {
          "lat": 41.3506200,
          "lng": -81.5186370
        }
      }
    }
  } ]
}
