{
  "status": "OK",
  "results": [ {
    "types": [ "locality", "political" ],
    "formatted_address": "Norwalk, OH, USA",
    "address_components": [ {
      "long_name": "Norwalk",
      "short_name": "Norwalk",
      "types": [ "locality", "political" ]
    }, {
      "long_name": "Huron",
      "short_name": "Huron",
      "types": [ "administrative_area_level_2", "political" ]
    }, {
      "long_name": "Ohio",
      "short_name": "OH",
      "types": [ "administrative_area_level_1", "political" ]
    }, {
      "long_name": "United States",
      "short_name": "US",
      "types": [ "country", "political" ]
    } ],
    "geometry": {
      "location": {
        "lat": 41.2425531,
        "lng": -82.6157331
      },
      "location_type": "APPROXIMATE",
      "viewport": {
        "southwest": {
          "lat": 41.2089846,
          "lng": -82.6797628
        },
        "northeast": {
          "lat": 41.2761044,
          "lng": -82.5517034
        }
      },
      "bounds": {
        "southwest": {
          "lat": 41.2182080,
          "lng": -82.6592139
        },
        "northeast": {
          "lat": 41.2759829,
          "lng": -82.5583370
        }
      }
    }
  } ]
}
