{
  "status": "OK",
  "results": [ {
    "types": [ "locality", "political" ],
    "formatted_address": "Olmsted Falls, OH, USA",
    "address_components": [ {
      "long_name": "Olmsted Falls",
      "short_name": "Olmsted Falls",
      "types": [ "locality", "political" ]
    }, {
      "long_name": "Cuyahoga",
      "short_name": "Cuyahoga",
      "types": [ "administrative_area_level_2", "political" ]
    }, {
      "long_name": "Ohio",
      "short_name": "OH",
      "types": [ "administrative_area_level_1", "political" ]
    }, {
      "long_name": "United States",
      "short_name": "US",
      "types": [ "country", "political" ]
    } ],
    "geometry": {
      "location": {
        "lat": 41.3750490,
        "lng": -81.9081937
      },
      "location_type": "APPROXIMATE",
      "viewport": {
        "southwest": {
          "lat": 41.3583010,
          "lng": -81.9402085
        },
        "northeast": {
          "lat": 41.3917927,
          "lng": -81.8761789
        }
      },
      "bounds": {
        "southwest": {
          "lat": 41.3506850,
          "lng": -81.9383690
        },
        "northeast": {
          "lat": 41.3915910,
          "lng": -81.8767249
        }
      }
    }
  } ]
}
