{
  "status": "OK",
  "results": [ {
    "types": [ "locality", "political" ],
    "formatted_address": "Owensville, OH, USA",
    "address_components": [ {
      "long_name": "Owensville",
      "short_name": "Owensville",
      "types": [ "locality", "political" ]
    }, {
      "long_name": "Clermont",
      "short_name": "Clermont",
      "types": [ "administrative_area_level_2", "political" ]
    }, {
      "long_name": "Ohio",
      "short_name": "OH",
      "types": [ "administrative_area_level_1", "political" ]
    }, {
      "long_name": "United States",
      "short_name": "US",
      "types": [ "country", "political" ]
    } ],
    "geometry": {
      "location": {
        "lat": 39.1225624,
        "lng": -84.1357677
      },
      "location_type": "APPROXIMATE",
      "viewport": {
        "southwest": {
          "lat": 39.1139055,
          "lng": -84.1517751
        },
        "northeast": {
          "lat": 39.1312182,
          "lng": -84.1197603
        }
      },
      "bounds": {
        "southwest": {
          "lat": 39.1171049,
          "lng": -84.1433430
        },
        "northeast": {
          "lat": 39.1328369,
          "lng": -84.1275890
        }
      }
    }
  } ]
}
