{
  "status": "OK",
  "results": [ {
    "types": [ "locality", "political" ],
    "formatted_address": "Parma Heights, OH, USA",
    "address_components": [ {
      "long_name": "Parma Heights",
      "short_name": "Parma Heights",
      "types": [ "locality", "political" ]
    }, {
      "long_name": "Cuyahoga",
      "short_name": "Cuyahoga",
      "types": [ "administrative_area_level_2", "political" ]
    }, {
      "long_name": "Ohio",
      "short_name": "OH",
      "types": [ "administrative_area_level_1", "political" ]
    }, {
      "long_name": "United States",
      "short_name": "US",
      "types": [ "country", "political" ]
    } ],
    "geometry": {
      "location": {
        "lat": 41.3900518,
        "lng": -81.7595769
      },
      "location_type": "APPROXIMATE",
      "viewport": {
        "southwest": {
          "lat": 41.3733076,
          "lng": -81.7915917
        },
        "northeast": {
          "lat": 41.4067917,
          "lng": -81.7275621
        }
      },
      "bounds": {
        "southwest": {
          "lat": 41.3707600,
          "lng": -81.7848640
        },
        "northeast": {
          "lat": 41.4050350,
          "lng": -81.7444649
        }
      }
    }
  } ]
}
