{
  "status": "OK",
  "results": [ {
    "types": [ "locality", "political" ],
    "formatted_address": "Pataskala, OH, USA",
    "address_components": [ {
      "long_name": "Pataskala",
      "short_name": "Pataskala",
      "types": [ "locality", "political" ]
    }, {
      "long_name": "Licking",
      "short_name": "Licking",
      "types": [ "administrative_area_level_2", "political" ]
    }, {
      "long_name": "Ohio",
      "short_name": "OH",
      "types": [ "administrative_area_level_1", "political" ]
    }, {
      "long_name": "United States",
      "short_name": "US",
      "types": [ "country", "political" ]
    } ],
    "geometry": {
      "location": {
        "lat": 39.9956193,
        "lng": -82.6743341
      },
      "location_type": "APPROXIMATE",
      "viewport": {
        "southwest": {
          "lat": 39.9614185,
          "lng": -82.7383638
        },
        "northeast": {
          "lat": 40.0298030,
          "lng": -82.6103044
        }
      },
      "bounds": {
        "southwest": {
          "lat": 39.9714389,
          "lng": -82.7726830
        },
        "northeast": {
          "lat": 40.0510279,
          "lng": -82.6374270
        }
      }
    }
  } ]
}
