{
  "status": "OK",
  "results": [ {
    "types": [ "locality", "political" ],
    "formatted_address": "Peninsula, OH, USA",
    "address_components": [ {
      "long_name": "Peninsula",
      "short_name": "Peninsula",
      "types": [ "locality", "political" ]
    }, {
      "long_name": "Summit",
      "short_name": "Summit",
      "types": [ "administrative_area_level_2", "political" ]
    }, {
      "long_name": "Ohio",
      "short_name": "OH",
      "types": [ "administrative_area_level_1", "political" ]
    }, {
      "long_name": "United States",
      "short_name": "US",
      "types": [ "country", "political" ]
    } ],
    "geometry": {
      "location": {
        "lat": 41.2411668,
        "lng": -81.5526176
      },
      "location_type": "APPROXIMATE",
      "viewport": {
        "southwest": {
          "lat": 41.2243843,
          "lng": -81.5846324
        },
        "northeast": {
          "lat": 41.2579450,
          "lng": -81.5206028
        }
      },
      "bounds": {
        "southwest": {
          "lat": 41.2191550,
          "lng": -81.5845410
        },
        "northeast": {
          "lat": 41.2526550,
          "lng": -81.5189089
        }
      }
    }
  } ]
}
