{
  "status": "OK",
  "results": [ {
    "types": [ "locality", "political" ],
    "formatted_address": "Plain City, OH, USA",
    "address_components": [ {
      "long_name": "Plain City",
      "short_name": "Plain City",
      "types": [ "locality", "political" ]
    }, {
      "long_name": "Madison",
      "short_name": "Madison",
      "types": [ "administrative_area_level_2", "political" ]
    }, {
      "long_name": "Ohio",
      "short_name": "OH",
      "types": [ "administrative_area_level_1", "political" ]
    }, {
      "long_name": "United States",
      "short_name": "US",
      "types": [ "country", "political" ]
    } ],
    "geometry": {
      "location": {
        "lat": 40.1075615,
        "lng": -83.2674165
      },
      "location_type": "APPROXIMATE",
      "viewport": {
        "southwest": {
          "lat": 40.0904913,
          "lng": -83.2994313
        },
        "northeast": {
          "lat": 40.1246274,
          "lng": -83.2354017
        }
      },
      "bounds": {
        "southwest": {
          "lat": 40.0941360,
          "lng": -83.2892900
        },
        "northeast": {
          "lat": 40.1239909,
          "lng": -83.2445800
        }
      }
    }
  } ]
}
