{
  "status": "OK",
  "results": [ {
    "types": [ "locality", "political" ],
    "formatted_address": "Powhatan Point, OH, USA",
    "address_components": [ {
      "long_name": "Powhatan Point",
      "short_name": "Powhatan Point",
      "types": [ "locality", "political" ]
    }, {
      "long_name": "York",
      "short_name": "York",
      "types": [ "administrative_area_level_3", "political" ]
    }, {
      "long_name": "Belmont",
      "short_name": "Belmont",
      "types": [ "administrative_area_level_2", "political" ]
    }, {
      "long_name": "Ohio",
      "short_name": "OH",
      "types": [ "administrative_area_level_1", "political" ]
    }, {
      "long_name": "United States",
      "short_name": "US",
      "types": [ "country", "political" ]
    } ],
    "geometry": {
      "location": {
        "lat": 39.8600750,
        "lng": -80.8153680
      },
      "location_type": "APPROXIMATE",
      "viewport": {
        "southwest": {
          "lat": 39.8515095,
          "lng": -80.8313754
        },
        "northeast": {
          "lat": 39.8686395,
          "lng": -80.7993606
        }
      },
      "bounds": {
        "southwest": {
          "lat": 39.8499820,
          "lng": -80.8291110
        },
        "northeast": {
          "lat": 39.8750760,
          "lng": -80.7901560
        }
      }
    }
  } ]
}
