{
  "status": "OK",
  "results": [ {
    "types": [ "locality", "political" ],
    "formatted_address": "Rittman, OH, USA",
    "address_components": [ {
      "long_name": "Rittman",
      "short_name": "Rittman",
      "types": [ "locality", "political" ]
    }, {
      "long_name": "Wayne",
      "short_name": "Wayne",
      "types": [ "administrative_area_level_2", "political" ]
    }, {
      "long_name": "Ohio",
      "short_name": "OH",
      "types": [ "administrative_area_level_1", "political" ]
    }, {
      "long_name": "United States",
      "short_name": "US",
      "types": [ "country", "political" ]
    } ],
    "geometry": {
      "location": {
        "lat": 40.9781103,
        "lng": -81.7820775
      },
      "location_type": "APPROXIMATE",
      "viewport": {
        "southwest": {
          "lat": 40.9612605,
          "lng": -81.8140923
        },
        "northeast": {
          "lat": 40.9949558,
          "lng": -81.7500627
        }
      },
      "bounds": {
        "southwest": {
          "lat": 40.9530740,
          "lng": -81.8154260
        },
        "northeast": {
          "lat": 41.0047910,
          "lng": -81.7535159
        }
      }
    }
  } ]
}
