{
  "status": "OK",
  "results": [ {
    "types": [ "locality", "political" ],
    "formatted_address": "Russells Point, OH, USA",
    "address_components": [ {
      "long_name": "Russells Point",
      "short_name": "Russells Point",
      "types": [ "locality", "political" ]
    }, {
      "long_name": "Washington",
      "short_name": "Washington",
      "types": [ "administrative_area_level_3", "political" ]
    }, {
      "long_name": "Logan",
      "short_name": "Logan",
      "types": [ "administrative_area_level_2", "political" ]
    }, {
      "long_name": "Ohio",
      "short_name": "OH",
      "types": [ "administrative_area_level_1", "political" ]
    }, {
      "long_name": "United States",
      "short_name": "US",
      "types": [ "country", "political" ]
    } ],
    "geometry": {
      "location": {
        "lat": 40.4711612,
        "lng": -83.8927162
      },
      "location_type": "APPROXIMATE",
      "viewport": {
        "southwest": {
          "lat": 40.4626724,
          "lng": -83.9087236
        },
        "northeast": {
          "lat": 40.4796489,
          "lng": -83.8767088
        }
      },
      "bounds": {
        "southwest": {
          "lat": 40.4551419,
          "lng": -83.9032110
        },
        "northeast": {
          "lat": 40.4805730,
          "lng": -83.8785620
        }
      }
    }
  } ]
}
