{
  "status": "OK",
  "results": [ {
    "types": [ "locality", "political" ],
    "formatted_address": "Saint Paris, OH, USA",
    "address_components": [ {
      "long_name": "Saint Paris",
      "short_name": "Saint Paris",
      "types": [ "locality", "political" ]
    }, {
      "long_name": "Champaign",
      "short_name": "Champaign",
      "types": [ "administrative_area_level_2", "political" ]
    }, {
      "long_name": "Ohio",
      "short_name": "OH",
      "types": [ "administrative_area_level_1", "political" ]
    }, {
      "long_name": "United States",
      "short_name": "US",
      "types": [ "country", "political" ]
    } ],
    "geometry": {
      "location": {
        "lat": 40.1283890,
        "lng": -83.9596580
      },
      "location_type": "APPROXIMATE",
      "viewport": {
        "southwest": {
          "lat": 40.0942547,
          "lng": -84.0236877
        },
        "northeast": {
          "lat": 40.1625061,
          "lng": -83.8956283
        }
      },
      "bounds": {
        "southwest": {
          "lat": 40.0510480,
          "lng": -84.0143461
        },
        "northeast": {
          "lat": 40.1518391,
          "lng": -83.9381680
        }
      }
    }
  } ]
}
