{
  "status": "OK",
  "results": [ {
    "types": [ "locality", "political" ],
    "formatted_address": "Seven Hills, OH, USA",
    "address_components": [ {
      "long_name": "Seven Hills",
      "short_name": "Seven Hills",
      "types": [ "locality", "political" ]
    }, {
      "long_name": "Cuyahoga",
      "short_name": "Cuyahoga",
      "types": [ "administrative_area_level_2", "political" ]
    }, {
      "long_name": "Ohio",
      "short_name": "OH",
      "types": [ "administrative_area_level_1", "political" ]
    }, {
      "long_name": "United States",
      "short_name": "US",
      "types": [ "country", "political" ]
    } ],
    "geometry": {
      "location": {
        "lat": 41.3953304,
        "lng": -81.6762392
      },
      "location_type": "APPROXIMATE",
      "viewport": {
        "southwest": {
          "lat": 41.3785876,
          "lng": -81.7082540
        },
        "northeast": {
          "lat": 41.4120689,
          "lng": -81.6442244
        }
      },
      "bounds": {
        "southwest": {
          "lat": 41.3509660,
          "lng": -81.6854420
        },
        "northeast": {
          "lat": 41.4137510,
          "lng": -81.6605149
        }
      }
    }
  } ]
}
