{
  "status": "OK",
  "results": [ {
    "types": [ "locality", "political" ],
    "formatted_address": "Shelby, OH, USA",
    "address_components": [ {
      "long_name": "Shelby",
      "short_name": "Shelby",
      "types": [ "locality", "political" ]
    }, {
      "long_name": "Richland",
      "short_name": "Richland",
      "types": [ "administrative_area_level_2", "political" ]
    }, {
      "long_name": "Ohio",
      "short_name": "OH",
      "types": [ "administrative_area_level_1", "political" ]
    }, {
      "long_name": "United States",
      "short_name": "US",
      "types": [ "country", "political" ]
    } ],
    "geometry": {
      "location": {
        "lat": 40.8814452,
        "lng": -82.6618424
      },
      "location_type": "APPROXIMATE",
      "viewport": {
        "southwest": {
          "lat": 40.8645707,
          "lng": -82.6938572
        },
        "northeast": {
          "lat": 40.8983154,
          "lng": -82.6298276
        }
      },
      "bounds": {
        "southwest": {
          "lat": 40.8559510,
          "lng": -82.6898970
        },
        "northeast": {
          "lat": 40.9178450,
          "lng": -82.6295449
        }
      }
    }
  } ]
}
