{
  "status": "OK",
  "results": [ {
    "types": [ "locality", "political" ],
    "formatted_address": "Silverton, OH, USA",
    "address_components": [ {
      "long_name": "Silverton",
      "short_name": "Silverton",
      "types": [ "locality", "political" ]
    }, {
      "long_name": "Hamilton",
      "short_name": "Hamilton",
      "types": [ "administrative_area_level_2", "political" ]
    }, {
      "long_name": "Ohio",
      "short_name": "OH",
      "types": [ "administrative_area_level_1", "political" ]
    }, {
      "long_name": "United States",
      "short_name": "US",
      "types": [ "country", "political" ]
    } ],
    "geometry": {
      "location": {
        "lat": 39.1928369,
        "lng": -84.4004962
      },
      "location_type": "APPROXIMATE",
      "viewport": {
        "southwest": {
          "lat": 39.1841887,
          "lng": -84.4165036
        },
        "northeast": {
          "lat": 39.2014841,
          "lng": -84.3844888
        }
      },
      "bounds": {
        "southwest": {
          "lat": 39.1732219,
          "lng": -84.4113079
        },
        "northeast": {
          "lat": 39.2016209,
          "lng": -84.3903079
        }
      }
    }
  } ]
}
