{
  "status": "OK",
  "results": [ {
    "types": [ "locality", "political" ],
    "formatted_address": "Stow, OH, USA",
    "address_components": [ {
      "long_name": "Stow",
      "short_name": "Stow",
      "types": [ "locality", "political" ]
    }, {
      "long_name": "Summit",
      "short_name": "Summit",
      "types": [ "administrative_area_level_2", "political" ]
    }, {
      "long_name": "Ohio",
      "short_name": "OH",
      "types": [ "administrative_area_level_1", "political" ]
    }, {
      "long_name": "United States",
      "short_name": "US",
      "types": [ "country", "political" ]
    } ],
    "geometry": {
      "location": {
        "lat": 41.1595005,
        "lng": -81.4403898
      },
      "location_type": "APPROXIMATE",
      "viewport": {
        "southwest": {
          "lat": 41.1258894,
          "lng": -81.5044195
        },
        "northeast": {
          "lat": 41.1930944,
          "lng": -81.3763601
        }
      },
      "bounds": {
        "southwest": {
          "lat": 41.1355560,
          "lng": -81.4897450
        },
        "northeast": {
          "lat": 41.2029730,
          "lng": -81.3919310
        }
      }
    }
  } ]
}
