{
  "status": "OK",
  "results": [ {
    "types": [ "locality", "political" ],
    "formatted_address": "Strongsville, OH, USA",
    "address_components": [ {
      "long_name": "Strongsville",
      "short_name": "Strongsville",
      "types": [ "locality", "political" ]
    }, {
      "long_name": "Cuyahoga",
      "short_name": "Cuyahoga",
      "types": [ "administrative_area_level_2", "political" ]
    }, {
      "long_name": "Ohio",
      "short_name": "OH",
      "types": [ "administrative_area_level_1", "political" ]
    }, {
      "long_name": "United States",
      "short_name": "US",
      "types": [ "country", "political" ]
    } ],
    "geometry": {
      "location": {
        "lat": 41.3144966,
        "lng": -81.8356900
      },
      "location_type": "APPROXIMATE",
      "viewport": {
        "southwest": {
          "lat": 41.2809650,
          "lng": -81.8997197
        },
        "northeast": {
          "lat": 41.3480109,
          "lng": -81.7716603
        }
      },
      "bounds": {
        "southwest": {
          "lat": 41.2750440,
          "lng": -81.8780530
        },
        "northeast": {
          "lat": 41.3507500,
          "lng": -81.7850570
        }
      }
    }
  } ]
}
