{
  "status": "OK",
  "results": [ {
    "types": [ "locality", "political" ],
    "formatted_address": "Struthers, OH, USA",
    "address_components": [ {
      "long_name": "Struthers",
      "short_name": "Struthers",
      "types": [ "locality", "political" ]
    }, {
      "long_name": "Mahoning",
      "short_name": "Mahoning",
      "types": [ "administrative_area_level_2", "political" ]
    }, {
      "long_name": "Ohio",
      "short_name": "OH",
      "types": [ "administrative_area_level_1", "political" ]
    }, {
      "long_name": "United States",
      "short_name": "US",
      "types": [ "country", "political" ]
    } ],
    "geometry": {
      "location": {
        "lat": 41.0525588,
        "lng": -80.6078509
      },
      "location_type": "APPROXIMATE",
      "viewport": {
        "southwest": {
          "lat": 41.0357280,
          "lng": -80.6398657
        },
        "northeast": {
          "lat": 41.0693853,
          "lng": -80.5758361
        }
      },
      "bounds": {
        "southwest": {
          "lat": 41.0308060,
          "lng": -80.6158990
        },
        "northeast": {
          "lat": 41.0662510,
          "lng": -80.5616589
        }
      }
    }
  } ]
}
