{
  "status": "OK",
  "results": [ {
    "types": [ "locality", "political" ],
    "formatted_address": "Sylvania, OH, USA",
    "address_components": [ {
      "long_name": "Sylvania",
      "short_name": "Sylvania",
      "types": [ "locality", "political" ]
    }, {
      "long_name": "Lucas",
      "short_name": "Lucas",
      "types": [ "administrative_area_level_2", "political" ]
    }, {
      "long_name": "Ohio",
      "short_name": "OH",
      "types": [ "administrative_area_level_1", "political" ]
    }, {
      "long_name": "United States",
      "short_name": "US",
      "types": [ "country", "political" ]
    } ],
    "geometry": {
      "location": {
        "lat": 41.7189392,
        "lng": -83.7129935
      },
      "location_type": "APPROXIMATE",
      "viewport": {
        "southwest": {
          "lat": 41.6856165,
          "lng": -83.7770232
        },
        "northeast": {
          "lat": 41.7522447,
          "lng": -83.6489638
        }
      },
      "bounds": {
        "southwest": {
          "lat": 41.6816550,
          "lng": -83.7499629
        },
        "northeast": {
          "lat": 41.7266220,
          "lng": -83.6653769
        }
      }
    }
  } ]
}
