{
  "status": "OK",
  "results": [ {
    "types": [ "locality", "political" ],
    "formatted_address": "Trotwood, OH, USA",
    "address_components": [ {
      "long_name": "Trotwood",
      "short_name": "Trotwood",
      "types": [ "locality", "political" ]
    }, {
      "long_name": "Montgomery",
      "short_name": "Montgomery",
      "types": [ "administrative_area_level_2", "political" ]
    }, {
      "long_name": "Ohio",
      "short_name": "OH",
      "types": [ "administrative_area_level_1", "political" ]
    }, {
      "long_name": "United States",
      "short_name": "US",
      "types": [ "country", "political" ]
    } ],
    "geometry": {
      "location": {
        "lat": 39.7972788,
        "lng": -84.3113334
      },
      "location_type": "APPROXIMATE",
      "viewport": {
        "southwest": {
          "lat": 39.7629789,
          "lng": -84.3753631
        },
        "northeast": {
          "lat": 39.8315616,
          "lng": -84.2473037
        }
      },
      "bounds": {
        "southwest": {
          "lat": 39.7457889,
          "lng": -84.3671409
        },
        "northeast": {
          "lat": 39.8335790,
          "lng": -84.2534419
        }
      }
    }
  } ]
}
