{
  "status": "OK",
  "results": [ {
    "types": [ "locality", "political" ],
    "formatted_address": "Washington Court House, OH, USA",
    "address_components": [ {
      "long_name": "Washington Court House",
      "short_name": "Washington Court House",
      "types": [ "locality", "political" ]
    }, {
      "long_name": "Fayette",
      "short_name": "Fayette",
      "types": [ "administrative_area_level_2", "political" ]
    }, {
      "long_name": "Ohio",
      "short_name": "OH",
      "types": [ "administrative_area_level_1", "political" ]
    }, {
      "long_name": "United States",
      "short_name": "US",
      "types": [ "country", "political" ]
    } ],
    "geometry": {
      "location": {
        "lat": 39.5364511,
        "lng": -83.4390843
      },
      "location_type": "APPROXIMATE",
      "viewport": {
        "southwest": {
          "lat": 39.5020215,
          "lng": -83.5031140
        },
        "northeast": {
          "lat": 39.5708636,
          "lng": -83.3750546
        }
      },
      "bounds": {
        "southwest": {
          "lat": 39.5132289,
          "lng": -83.4747550
        },
        "northeast": {
          "lat": 39.5647499,
          "lng": -83.3863389
        }
      }
    }
  } ]
}
