{
  "status": "OK",
  "results": [ {
    "types": [ "locality", "political" ],
    "formatted_address": "Williamsburg, OH, USA",
    "address_components": [ {
      "long_name": "Williamsburg",
      "short_name": "Williamsburg",
      "types": [ "locality", "political" ]
    }, {
      "long_name": "Clermont",
      "short_name": "Clermont",
      "types": [ "administrative_area_level_2", "political" ]
    }, {
      "long_name": "Ohio",
      "short_name": "OH",
      "types": [ "administrative_area_level_1", "political" ]
    }, {
      "long_name": "United States",
      "short_name": "US",
      "types": [ "country", "political" ]
    } ],
    "geometry": {
      "location": {
        "lat": 39.0542311,
        "lng": -84.0529886
      },
      "location_type": "APPROXIMATE",
      "viewport": {
        "southwest": {
          "lat": 39.0368995,
          "lng": -84.0850034
        },
        "northeast": {
          "lat": 39.0715584,
          "lng": -84.0209738
        }
      },
      "bounds": {
        "southwest": {
          "lat": 39.0357519,
          "lng": -84.0707709
        },
        "northeast": {
          "lat": 39.0663370,
          "lng": -84.0228559
        }
      }
    }
  } ]
}
