{
  "status": "OK",
  "results": [ {
    "types": [ "locality", "political" ],
    "formatted_address": "Willard, OH, USA",
    "address_components": [ {
      "long_name": "Willard",
      "short_name": "Willard",
      "types": [ "locality", "political" ]
    }, {
      "long_name": "Huron",
      "short_name": "Huron",
      "types": [ "administrative_area_level_2", "political" ]
    }, {
      "long_name": "Ohio",
      "short_name": "OH",
      "types": [ "administrative_area_level_1", "political" ]
    }, {
      "long_name": "United States",
      "short_name": "US",
      "types": [ "country", "political" ]
    } ],
    "geometry": {
      "location": {
        "lat": 41.0531109,
        "lng": -82.7262906
      },
      "location_type": "APPROXIMATE",
      "viewport": {
        "southwest": {
          "lat": 41.0362802,
          "lng": -82.7583054
        },
        "northeast": {
          "lat": 41.0699373,
          "lng": -82.6942758
        }
      },
      "bounds": {
        "southwest": {
          "lat": 41.0343389,
          "lng": -82.7435500
        },
        "northeast": {
          "lat": 41.0753459,
          "lng": -82.6976150
        }
      }
    }
  } ]
}
