{
  "status": "OK",
  "results": [ {
    "types": [ "locality", "political" ],
    "formatted_address": "Willoughby Hills, OH, USA",
    "address_components": [ {
      "long_name": "Willoughby Hills",
      "short_name": "Willoughby Hills",
      "types": [ "locality", "political" ]
    }, {
      "long_name": "Lake",
      "short_name": "Lake",
      "types": [ "administrative_area_level_2", "political" ]
    }, {
      "long_name": "Ohio",
      "short_name": "OH",
      "types": [ "administrative_area_level_1", "political" ]
    }, {
      "long_name": "United States",
      "short_name": "US",
      "types": [ "country", "political" ]
    } ],
    "geometry": {
      "location": {
        "lat": 41.5983823,
        "lng": -81.4184471
      },
      "location_type": "APPROXIMATE",
      "viewport": {
        "southwest": {
          "lat": 41.5649971,
          "lng": -81.4824768
        },
        "northeast": {
          "lat": 41.6317502,
          "lng": -81.3544174
        }
      },
      "bounds": {
        "southwest": {
          "lat": 41.5691760,
          "lng": -81.4881260
        },
        "northeast": {
          "lat": 41.6215480,
          "lng": -81.3908350
        }
      }
    }
  } ]
}
