{
  "status": "OK",
  "results": [ {
    "types": [ "locality", "political" ],
    "formatted_address": "Willoughby, OH, USA",
    "address_components": [ {
      "long_name": "Willoughby",
      "short_name": "Willoughby",
      "types": [ "locality", "political" ]
    }, {
      "long_name": "Lake",
      "short_name": "Lake",
      "types": [ "administrative_area_level_2", "political" ]
    }, {
      "long_name": "Ohio",
      "short_name": "OH",
      "types": [ "administrative_area_level_1", "political" ]
    }, {
      "long_name": "United States",
      "short_name": "US",
      "types": [ "country", "political" ]
    } ],
    "geometry": {
      "location": {
        "lat": 41.6397696,
        "lng": -81.4065011
      },
      "location_type": "APPROXIMATE",
      "viewport": {
        "southwest": {
          "lat": 41.6064059,
          "lng": -81.4705308
        },
        "northeast": {
          "lat": 41.6731161,
          "lng": -81.3424714
        }
      },
      "bounds": {
        "southwest": {
          "lat": 41.6041060,
          "lng": -81.4528370
        },
        "northeast": {
          "lat": 41.7071440,
          "lng": -81.3659890
        }
      }
    }
  } ]
}
