{
  "status": "OK",
  "results": [ {
    "types": [ "locality", "political" ],
    "formatted_address": "Windham, OH, USA",
    "address_components": [ {
      "long_name": "Windham",
      "short_name": "Windham",
      "types": [ "locality", "political" ]
    }, {
      "long_name": "Portage",
      "short_name": "Portage",
      "types": [ "administrative_area_level_2", "political" ]
    }, {
      "long_name": "Ohio",
      "short_name": "OH",
      "types": [ "administrative_area_level_1", "political" ]
    }, {
      "long_name": "United States",
      "short_name": "US",
      "types": [ "country", "political" ]
    } ],
    "geometry": {
      "location": {
        "lat": 41.2350562,
        "lng": -81.0492611
      },
      "location_type": "APPROXIMATE",
      "viewport": {
        "southwest": {
          "lat": 41.2182722,
          "lng": -81.0812759
        },
        "northeast": {
          "lat": 41.2518359,
          "lng": -81.0172463
        }
      },
      "bounds": {
        "southwest": {
          "lat": 41.2296020,
          "lng": -81.0575949
        },
        "northeast": {
          "lat": 41.2475559,
          "lng": -80.9998050
        }
      }
    }
  } ]
}
