{
  "status": "OK",
  "results": [ {
    "types": [ "locality", "political" ],
    "formatted_address": "Albert Lea, MN, USA",
    "address_components": [ {
      "long_name": "Albert Lea",
      "short_name": "Albert Lea",
      "types": [ "locality", "political" ]
    }, {
      "long_name": "Freeborn",
      "short_name": "Freeborn",
      "types": [ "administrative_area_level_2", "political" ]
    }, {
      "long_name": "Minnesota",
      "short_name": "MN",
      "types": [ "administrative_area_level_1", "political" ]
    }, {
      "long_name": "United States",
      "short_name": "US",
      "types": [ "country", "political" ]
    } ],
    "geometry": {
      "location": {
        "lat": 43.6485683,
        "lng": -93.3624319
      },
      "location_type": "APPROXIMATE",
      "viewport": {
        "southwest": {
          "lat": 43.6162645,
          "lng": -93.4264616
        },
        "northeast": {
          "lat": 43.6808547,
          "lng": -93.2984022
        }
      },
      "bounds": {
        "southwest": {
          "lat": 43.6040980,
          "lng": -93.4190220
        },
        "northeast": {
          "lat": 43.7021090,
          "lng": -93.2983550
        }
      }
    }
  } ]
}
