{
  "status": "OK",
  "results": [ {
    "types": [ "locality", "political" ],
    "formatted_address": "Annandale, MN, USA",
    "address_components": [ {
      "long_name": "Annandale",
      "short_name": "Annandale",
      "types": [ "locality", "political" ]
    }, {
      "long_name": "Wright",
      "short_name": "Wright",
      "types": [ "administrative_area_level_2", "political" ]
    }, {
      "long_name": "Minnesota",
      "short_name": "MN",
      "types": [ "administrative_area_level_1", "political" ]
    }, {
      "long_name": "United States",
      "short_name": "US",
      "types": [ "country", "political" ]
    } ],
    "geometry": {
      "location": {
        "lat": 45.2611111,
        "lng": -94.1241667
      },
      "location_type": "APPROXIMATE",
      "viewport": {
        "southwest": {
          "lat": 45.2454012,
          "lng": -94.1561815
        },
        "northeast": {
          "lat": 45.2768166,
          "lng": -94.0921519
        }
      },
      "bounds": {
        "southwest": {
          "lat": 45.2452679,
          "lng": -94.1514689
        },
        "northeast": {
          "lat": 45.2830650,
          "lng": -94.0880090
        }
      }
    }
  } ]
}
