{
  "status": "OK",
  "results": [ {
    "types": [ "locality", "political" ],
    "formatted_address": "Apple Valley, MN, USA",
    "address_components": [ {
      "long_name": "Apple Valley",
      "short_name": "Apple Valley",
      "types": [ "locality", "political" ]
    }, {
      "long_name": "Dakota",
      "short_name": "Dakota",
      "types": [ "administrative_area_level_2", "political" ]
    }, {
      "long_name": "Minnesota",
      "short_name": "MN",
      "types": [ "administrative_area_level_1", "political" ]
    }, {
      "long_name": "United States",
      "short_name": "US",
      "types": [ "country", "political" ]
    } ],
    "geometry": {
      "location": {
        "lat": 44.7319094,
        "lng": -93.2177200
      },
      "location_type": "APPROXIMATE",
      "viewport": {
        "southwest": {
          "lat": 44.7001938,
          "lng": -93.2817497
        },
        "northeast": {
          "lat": 44.7636076,
          "lng": -93.1536903
        }
      },
      "bounds": {
        "southwest": {
          "lat": 44.7173449,
          "lng": -93.2489270
        },
        "northeast": {
          "lat": 44.7762690,
          "lng": -93.1513440
        }
      }
    }
  } ]
}
