{
  "status": "OK",
  "results": [ {
    "types": [ "locality", "political" ],
    "formatted_address": "Belle Plaine, MN, USA",
    "address_components": [ {
      "long_name": "Belle Plaine",
      "short_name": "Belle Plaine",
      "types": [ "locality", "political" ]
    }, {
      "long_name": "Scott",
      "short_name": "Scott",
      "types": [ "administrative_area_level_2", "political" ]
    }, {
      "long_name": "Minnesota",
      "short_name": "MN",
      "types": [ "administrative_area_level_1", "political" ]
    }, {
      "long_name": "United States",
      "short_name": "US",
      "types": [ "country", "political" ]
    } ],
    "geometry": {
      "location": {
        "lat": 44.6165080,
        "lng": -93.7694020
      },
      "location_type": "APPROXIMATE",
      "viewport": {
        "southwest": {
          "lat": 44.6006208,
          "lng": -93.8014168
        },
        "northeast": {
          "lat": 44.6323909,
          "lng": -93.7373872
        }
      },
      "bounds": {
        "southwest": {
          "lat": 44.5972460,
          "lng": -93.8061560
        },
        "northeast": {
          "lat": 44.6452630,
          "lng": -93.7254210
        }
      }
    }
  } ]
}
