{
  "status": "OK",
  "results": [ {
    "types": [ "locality", "political" ],
    "formatted_address": "Brownton, MN, USA",
    "address_components": [ {
      "long_name": "Brownton",
      "short_name": "Brownton",
      "types": [ "locality", "political" ]
    }, {
      "long_name": "McLeod",
      "short_name": "Mc Leod",
      "types": [ "administrative_area_level_2", "political" ]
    }, {
      "long_name": "Minnesota",
      "short_name": "MN",
      "types": [ "administrative_area_level_1", "political" ]
    }, {
      "long_name": "United States",
      "short_name": "US",
      "types": [ "country", "political" ]
    } ],
    "geometry": {
      "location": {
        "lat": 44.7319444,
        "lng": -94.3502778
      },
      "location_type": "APPROXIMATE",
      "viewport": {
        "southwest": {
          "lat": 44.7240171,
          "lng": -94.3662852
        },
        "northeast": {
          "lat": 44.7398706,
          "lng": -94.3342704
        }
      },
      "bounds": {
        "southwest": {
          "lat": 44.7262939,
          "lng": -94.3601719
        },
        "northeast": {
          "lat": 44.7386060,
          "lng": -94.3405909
        }
      }
    }
  } ]
}
