{
  "status": "OK",
  "results": [ {
    "types": [ "bus_station", "transit_station" ],
    "formatted_address": "76 St W & Centennial Lakes Plaza, Edina, MN 55435, USA",
    "address_components": [ {
      "long_name": "76 St W & Centennial Lakes Plaza",
      "short_name": "76 St W & Centennial Lakes Plaza",
      "types": [ "bus_station", "transit_station" ]
    }, {
      "long_name": "Edina",
      "short_name": "Edina",
      "types": [ "locality", "political" ]
    }, {
      "long_name": "Edina",
      "short_name": "Edina",
      "types": [ "administrative_area_level_3", "political" ]
    }, {
      "long_name": "Hennepin",
      "short_name": "Hennepin",
      "types": [ "administrative_area_level_2", "political" ]
    }, {
      "long_name": "Minnesota",
      "short_name": "MN",
      "types": [ "administrative_area_level_1", "political" ]
    }, {
      "long_name": "United States",
      "short_name": "US",
      "types": [ "country", "political" ]
    }, {
      "long_name": "55435",
      "short_name": "55435",
      "types": [ "postal_code" ]
    } ],
    "geometry": {
      "location": {
        "lat": 44.8654210,
        "lng": -93.3272860
      },
      "location_type": "APPROXIMATE",
      "viewport": {
        "southwest": {
          "lat": 44.8622734,
          "lng": -93.3304336
        },
        "northeast": {
          "lat": 44.8685686,
          "lng": -93.3241384
        }
      }
    },
    "partial_match": true
  }, {
    "types": [ "park", "establishment" ],
    "formatted_address": "Centennial Green Park, Circle Pines, MN 55014, USA",
    "address_components": [ {
      "long_name": "Centennial Green Park",
      "short_name": "Centennial Green Park",
      "types": [ "establishment" ]
    }, {
      "long_name": "Circle Pines",
      "short_name": "Circle Pines",
      "types": [ "locality", "political" ]
    }, {
      "long_name": "Blaine",
      "short_name": "Blaine",
      "types": [ "locality", "political" ]
    }, {
      "long_name": "Blaine",
      "short_name": "Blaine",
      "types": [ "administrative_area_level_3", "political" ]
    }, {
      "long_name": "Anoka",
      "short_name": "Anoka",
      "types": [ "administrative_area_level_2", "political" ]
    }, {
      "long_name": "Minnesota",
      "short_name": "MN",
      "types": [ "administrative_area_level_1", "political" ]
    }, {
      "long_name": "United States",
      "short_name": "US",
      "types": [ "country", "political" ]
    }, {
      "long_name": "55014",
      "short_name": "55014",
      "types": [ "postal_code" ]
    } ],
    "geometry": {
      "location": {
        "lat": 45.1510378,
        "lng": -93.1658117
      },
      "location_type": "APPROXIMATE",
      "viewport": {
        "southwest": {
          "lat": 45.1480228,
          "lng": -93.1693768
        },
        "northeast": {
          "lat": 45.1543180,
          "lng": -93.1630815
        }
      },
      "bounds": {
        "southwest": {
          "lat": 45.1504132,
          "lng": -93.1673203
        },
        "northeast": {
          "lat": 45.1519276,
          "lng": -93.1651380
        }
      }
    },
    "partial_match": true
  } ]
}
