{
  "status": "OK",
  "results": [ {
    "types": [ "locality", "political" ],
    "formatted_address": "Columbia Heights, MN, USA",
    "address_components": [ {
      "long_name": "Columbia Heights",
      "short_name": "Columbia Heights",
      "types": [ "locality", "political" ]
    }, {
      "long_name": "Anoka",
      "short_name": "Anoka",
      "types": [ "administrative_area_level_2", "political" ]
    }, {
      "long_name": "Minnesota",
      "short_name": "MN",
      "types": [ "administrative_area_level_1", "political" ]
    }, {
      "long_name": "United States",
      "short_name": "US",
      "types": [ "country", "political" ]
    } ],
    "geometry": {
      "location": {
        "lat": 45.0407987,
        "lng": -93.2630037
      },
      "location_type": "APPROXIMATE",
      "viewport": {
        "southwest": {
          "lat": 45.0250280,
          "lng": -93.2950185
        },
        "northeast": {
          "lat": 45.0565651,
          "lng": -93.2309889
        }
      },
      "bounds": {
        "southwest": {
          "lat": 45.0354649,
          "lng": -93.2725260
        },
        "northeast": {
          "lat": 45.0644510,
          "lng": -93.2269290
        }
      }
    }
  } ]
}
