{
  "status": "OK",
  "results": [ {
    "types": [ "locality", "political" ],
    "formatted_address": "Crookston, MN, USA",
    "address_components": [ {
      "long_name": "Crookston",
      "short_name": "Crookston",
      "types": [ "locality", "political" ]
    }, {
      "long_name": "Polk",
      "short_name": "Polk",
      "types": [ "administrative_area_level_2", "political" ]
    }, {
      "long_name": "Minnesota",
      "short_name": "MN",
      "types": [ "administrative_area_level_1", "political" ]
    }, {
      "long_name": "United States",
      "short_name": "US",
      "types": [ "country", "political" ]
    } ],
    "geometry": {
      "location": {
        "lat": 47.7741667,
        "lng": -96.6080556
      },
      "location_type": "APPROXIMATE",
      "viewport": {
        "southwest": {
          "lat": 47.7441629,
          "lng": -96.6720853
        },
        "northeast": {
          "lat": 47.8041532,
          "lng": -96.5440259
        }
      },
      "bounds": {
        "southwest": {
          "lat": 47.7454729,
          "lng": -96.6324350
        },
        "northeast": {
          "lat": 47.8053249,
          "lng": -96.5731880
        }
      }
    }
  } ]
}
