{
  "status": "OK",
  "results": [ {
    "types": [ "locality", "political" ],
    "formatted_address": "East Grand Forks, MN, USA",
    "address_components": [ {
      "long_name": "East Grand Forks",
      "short_name": "East Grand Forks",
      "types": [ "locality", "political" ]
    }, {
      "long_name": "Polk",
      "short_name": "Polk",
      "types": [ "administrative_area_level_2", "political" ]
    }, {
      "long_name": "Minnesota",
      "short_name": "MN",
      "types": [ "administrative_area_level_1", "political" ]
    }, {
      "long_name": "United States",
      "short_name": "US",
      "types": [ "country", "political" ]
    } ],
    "geometry": {
      "location": {
        "lat": 47.9300000,
        "lng": -97.0159040
      },
      "location_type": "APPROXIMATE",
      "viewport": {
        "southwest": {
          "lat": 47.9000862,
          "lng": -97.0799337
        },
        "northeast": {
          "lat": 47.9598965,
          "lng": -96.9518743
        }
      },
      "bounds": {
        "southwest": {
          "lat": 47.8959760,
          "lng": -97.0556029
        },
        "northeast": {
          "lat": 47.9507790,
          "lng": -96.9770530
        }
      }
    }
  } ]
}
