{
  "status": "OK",
  "results": [ {
    "types": [ "locality", "political" ],
    "formatted_address": "Falcon Heights, MN, USA",
    "address_components": [ {
      "long_name": "Falcon Heights",
      "short_name": "Falcon Heights",
      "types": [ "locality", "political" ]
    }, {
      "long_name": "Ramsey",
      "short_name": "Ramsey",
      "types": [ "administrative_area_level_2", "political" ]
    }, {
      "long_name": "Minnesota",
      "short_name": "MN",
      "types": [ "administrative_area_level_1", "political" ]
    }, {
      "long_name": "United States",
      "short_name": "US",
      "types": [ "country", "political" ]
    } ],
    "geometry": {
      "location": {
        "lat": 44.9916323,
        "lng": -93.1663330
      },
      "location_type": "APPROXIMATE",
      "viewport": {
        "southwest": {
          "lat": 44.9758480,
          "lng": -93.1983478
        },
        "northeast": {
          "lat": 45.0074122,
          "lng": -93.1343182
        }
      },
      "bounds": {
        "southwest": {
          "lat": 44.9771460,
          "lng": -93.1974319
        },
        "northeast": {
          "lat": 44.9990929,
          "lng": -93.1565550
        }
      }
    }
  } ]
}
