{
  "status": "OK",
  "results": [ {
    "types": [ "locality", "political" ],
    "formatted_address": "Hoyt Lakes, MN, USA",
    "address_components": [ {
      "long_name": "Hoyt Lakes",
      "short_name": "Hoyt Lakes",
      "types": [ "locality", "political" ]
    }, {
      "long_name": "St. Louis",
      "short_name": "St. Louis",
      "types": [ "administrative_area_level_2", "political" ]
    }, {
      "long_name": "Minnesota",
      "short_name": "MN",
      "types": [ "administrative_area_level_1", "political" ]
    }, {
      "long_name": "United States",
      "short_name": "US",
      "types": [ "country", "political" ]
    } ],
    "geometry": {
      "location": {
        "lat": 47.5196465,
        "lng": -92.1385071
      },
      "location_type": "APPROXIMATE",
      "viewport": {
        "southwest": {
          "lat": 47.3989414,
          "lng": -92.3946259
        },
        "northeast": {
          "lat": 47.6400745,
          "lng": -91.8823883
        }
      },
      "bounds": {
        "southwest": {
          "lat": 47.4881419,
          "lng": -92.1825049
        },
        "northeast": {
          "lat": 47.6300380,
          "lng": -92.0495529
        }
      }
    }
  } ]
}
