{
  "status": "OK",
  "results": [ {
    "types": [ "locality", "political" ],
    "formatted_address": "Hutchinson, MN, USA",
    "address_components": [ {
      "long_name": "Hutchinson",
      "short_name": "Hutchinson",
      "types": [ "locality", "political" ]
    }, {
      "long_name": "McLeod",
      "short_name": "Mc Leod",
      "types": [ "administrative_area_level_2", "political" ]
    }, {
      "long_name": "Minnesota",
      "short_name": "MN",
      "types": [ "administrative_area_level_1", "political" ]
    }, {
      "long_name": "United States",
      "short_name": "US",
      "types": [ "country", "political" ]
    } ],
    "geometry": {
      "location": {
        "lat": 44.8876500,
        "lng": -94.3793490
      },
      "location_type": "APPROXIMATE",
      "viewport": {
        "southwest": {
          "lat": 44.8560199,
          "lng": -94.4433787
        },
        "northeast": {
          "lat": 44.9192627,
          "lng": -94.3153193
        }
      },
      "bounds": {
        "southwest": {
          "lat": 44.8525560,
          "lng": -94.4218889
        },
        "northeast": {
          "lat": 44.9140299,
          "lng": -94.3278680
        }
      }
    }
  } ]
}
