{
  "status": "OK",
  "results": [ {
    "types": [ "locality", "political" ],
    "formatted_address": "Inver Grove Heights, MN, USA",
    "address_components": [ {
      "long_name": "Inver Grove Heights",
      "short_name": "Inver Grove Heights",
      "types": [ "locality", "political" ]
    }, {
      "long_name": "Dakota",
      "short_name": "Dakota",
      "types": [ "administrative_area_level_2", "political" ]
    }, {
      "long_name": "Minnesota",
      "short_name": "MN",
      "types": [ "administrative_area_level_1", "political" ]
    }, {
      "long_name": "United States",
      "short_name": "US",
      "types": [ "country", "political" ]
    } ],
    "geometry": {
      "location": {
        "lat": 44.8480218,
        "lng": -93.0427153
      },
      "location_type": "APPROXIMATE",
      "viewport": {
        "southwest": {
          "lat": 44.8163699,
          "lng": -93.1067450
        },
        "northeast": {
          "lat": 44.8796563,
          "lng": -92.9786856
        }
      },
      "bounds": {
        "southwest": {
          "lat": 44.7751740,
          "lng": -93.1070900
        },
        "northeast": {
          "lat": 44.8847290,
          "lng": -93.0047110
        }
      }
    }
  } ]
}
