{
  "status": "OK",
  "results": [ {
    "types": [ "locality", "political" ],
    "formatted_address": "La Crescent, MN, USA",
    "address_components": [ {
      "long_name": "La Crescent",
      "short_name": "La Crescent",
      "types": [ "locality", "political" ]
    }, {
      "long_name": "Houston",
      "short_name": "Houston",
      "types": [ "administrative_area_level_2", "political" ]
    }, {
      "long_name": "Minnesota",
      "short_name": "MN",
      "types": [ "administrative_area_level_1", "political" ]
    }, {
      "long_name": "United States",
      "short_name": "US",
      "types": [ "country", "political" ]
    } ],
    "geometry": {
      "location": {
        "lat": 43.8280216,
        "lng": -91.3040274
      },
      "location_type": "APPROXIMATE",
      "viewport": {
        "southwest": {
          "lat": 43.8119202,
          "lng": -91.3360422
        },
        "northeast": {
          "lat": 43.8441187,
          "lng": -91.2720126
        }
      },
      "bounds": {
        "southwest": {
          "lat": 43.8093510,
          "lng": -91.3241680
        },
        "northeast": {
          "lat": 43.8531390,
          "lng": -91.2743340
        }
      }
    }
  } ]
}
