{
  "status": "OK",
  "results": [ {
    "types": [ "locality", "political" ],
    "formatted_address": "Lino Lakes, MN, USA",
    "address_components": [ {
      "long_name": "Lino Lakes",
      "short_name": "Lino Lakes",
      "types": [ "locality", "political" ]
    }, {
      "long_name": "Anoka",
      "short_name": "Anoka",
      "types": [ "administrative_area_level_2", "political" ]
    }, {
      "long_name": "Minnesota",
      "short_name": "MN",
      "types": [ "administrative_area_level_1", "political" ]
    }, {
      "long_name": "United States",
      "short_name": "US",
      "types": [ "country", "political" ]
    } ],
    "geometry": {
      "location": {
        "lat": 45.1602442,
        "lng": -93.0888324
      },
      "location_type": "APPROXIMATE",
      "viewport": {
        "southwest": {
          "lat": 45.1287643,
          "lng": -93.1528621
        },
        "northeast": {
          "lat": 45.1917067,
          "lng": -93.0248027
        }
      },
      "bounds": {
        "southwest": {
          "lat": 45.1238100,
          "lng": -93.1430800
        },
        "northeast": {
          "lat": 45.2110440,
          "lng": -93.0197479
        }
      }
    }
  } ]
}
