{
  "status": "OK",
  "results": [ {
    "types": [ "locality", "political" ],
    "formatted_address": "Long Prairie, MN, USA",
    "address_components": [ {
      "long_name": "Long Prairie",
      "short_name": "Long Prairie",
      "types": [ "locality", "political" ]
    }, {
      "long_name": "Todd",
      "short_name": "Todd",
      "types": [ "administrative_area_level_2", "political" ]
    }, {
      "long_name": "Minnesota",
      "short_name": "MN",
      "types": [ "administrative_area_level_1", "political" ]
    }, {
      "long_name": "United States",
      "short_name": "US",
      "types": [ "country", "political" ]
    } ],
    "geometry": {
      "location": {
        "lat": 45.9746867,
        "lng": -94.8655775
      },
      "location_type": "APPROXIMATE",
      "viewport": {
        "southwest": {
          "lat": 45.9591755,
          "lng": -94.8975923
        },
        "northeast": {
          "lat": 45.9901936,
          "lng": -94.8335627
        }
      },
      "bounds": {
        "southwest": {
          "lat": 45.9540290,
          "lng": -94.8872030
        },
        "northeast": {
          "lat": 45.9981480,
          "lng": -94.8332229
        }
      }
    }
  } ]
}
