{
  "status": "OK",
  "results": [ {
    "types": [ "locality", "political" ],
    "formatted_address": "Madison, MN, USA",
    "address_components": [ {
      "long_name": "Madison",
      "short_name": "Madison",
      "types": [ "locality", "political" ]
    }, {
      "long_name": "Lac qui Parle",
      "short_name": "Lac qui Parle",
      "types": [ "administrative_area_level_2", "political" ]
    }, {
      "long_name": "Minnesota",
      "short_name": "MN",
      "types": [ "administrative_area_level_1", "political" ]
    }, {
      "long_name": "United States",
      "short_name": "US",
      "types": [ "country", "political" ]
    } ],
    "geometry": {
      "location": {
        "lat": 45.0128900,
        "lng": -96.1934510
      },
      "location_type": "APPROXIMATE",
      "viewport": {
        "southwest": {
          "lat": 45.0050013,
          "lng": -96.2094584
        },
        "northeast": {
          "lat": 45.0207776,
          "lng": -96.1774436
        }
      },
      "bounds": {
        "southwest": {
          "lat": 45.0053360,
          "lng": -96.2009829
        },
        "northeast": {
          "lat": 45.0229680,
          "lng": -96.1704120
        }
      }
    }
  } ]
}
