{
  "status": "OK",
  "results": [ {
    "types": [ "locality", "political" ],
    "formatted_address": "Maplewood, MN, USA",
    "address_components": [ {
      "long_name": "Maplewood",
      "short_name": "Maplewood",
      "types": [ "locality", "political" ]
    }, {
      "long_name": "Ramsey",
      "short_name": "Ramsey",
      "types": [ "administrative_area_level_2", "political" ]
    }, {
      "long_name": "Minnesota",
      "short_name": "MN",
      "types": [ "administrative_area_level_1", "political" ]
    }, {
      "long_name": "United States",
      "short_name": "US",
      "types": [ "country", "political" ]
    } ],
    "geometry": {
      "location": {
        "lat": 44.9530215,
        "lng": -92.9952153
      },
      "location_type": "APPROXIMATE",
      "viewport": {
        "southwest": {
          "lat": 44.8898159,
          "lng": -93.1232747
        },
        "northeast": {
          "lat": 45.0161576,
          "lng": -92.8671559
        }
      },
      "bounds": {
        "southwest": {
          "lat": 44.8907669,
          "lng": -93.1059679
        },
        "northeast": {
          "lat": 45.0368763,
          "lng": -92.9833010
        }
      }
    }
  } ]
}
