{
  "status": "OK",
  "results": [ {
    "types": [ "locality", "political" ],
    "formatted_address": "Mendota Heights, MN, USA",
    "address_components": [ {
      "long_name": "Mendota Heights",
      "short_name": "Mendota Heights",
      "types": [ "locality", "political" ]
    }, {
      "long_name": "Dakota",
      "short_name": "Dakota",
      "types": [ "administrative_area_level_2", "political" ]
    }, {
      "long_name": "Minnesota",
      "short_name": "MN",
      "types": [ "administrative_area_level_1", "political" ]
    }, {
      "long_name": "United States",
      "short_name": "US",
      "types": [ "country", "political" ]
    } ],
    "geometry": {
      "location": {
        "lat": 44.8835768,
        "lng": -93.1382749
      },
      "location_type": "APPROXIMATE",
      "viewport": {
        "southwest": {
          "lat": 44.8519445,
          "lng": -93.2023046
        },
        "northeast": {
          "lat": 44.9151917,
          "lng": -93.0742452
        }
      },
      "bounds": {
        "southwest": {
          "lat": 44.8610450,
          "lng": -93.2007440
        },
        "northeast": {
          "lat": 44.9197560,
          "lng": -93.1058060
        }
      }
    }
  } ]
}
