{
  "status": "OK",
  "results": [ {
    "types": [ "locality", "political" ],
    "formatted_address": "Minnetrista, MN, USA",
    "address_components": [ {
      "long_name": "Minnetrista",
      "short_name": "Minnetrista",
      "types": [ "locality", "political" ]
    }, {
      "long_name": "Hennepin",
      "short_name": "Hennepin",
      "types": [ "administrative_area_level_2", "political" ]
    }, {
      "long_name": "Minnesota",
      "short_name": "MN",
      "types": [ "administrative_area_level_1", "political" ]
    }, {
      "long_name": "United States",
      "short_name": "US",
      "types": [ "country", "political" ]
    } ],
    "geometry": {
      "location": {
        "lat": 44.9382960,
        "lng": -93.7177406
      },
      "location_type": "APPROXIMATE",
      "viewport": {
        "southwest": {
          "lat": 44.9066938,
          "lng": -93.7817703
        },
        "northeast": {
          "lat": 44.9698808,
          "lng": -93.6537109
        }
      },
      "bounds": {
        "southwest": {
          "lat": 44.8906620,
          "lng": -93.7677990
        },
        "northeast": {
          "lat": 44.9786450,
          "lng": -93.6450370
        }
      }
    }
  } ]
}
