{
  "status": "OK",
  "results": [ {
    "types": [ "locality", "political" ],
    "formatted_address": "Moose Lake, MN, USA",
    "address_components": [ {
      "long_name": "Moose Lake",
      "short_name": "Moose Lake",
      "types": [ "locality", "political" ]
    }, {
      "long_name": "Carlton",
      "short_name": "Carlton",
      "types": [ "administrative_area_level_2", "political" ]
    }, {
      "long_name": "Minnesota",
      "short_name": "MN",
      "types": [ "administrative_area_level_1", "political" ]
    }, {
      "long_name": "United States",
      "short_name": "US",
      "types": [ "country", "political" ]
    } ],
    "geometry": {
      "location": {
        "lat": 46.4513889,
        "lng": -92.7666667
      },
      "location_type": "APPROXIMATE",
      "viewport": {
        "southwest": {
          "lat": 46.4360117,
          "lng": -92.7986815
        },
        "northeast": {
          "lat": 46.4667618,
          "lng": -92.7346519
        }
      },
      "bounds": {
        "southwest": {
          "lat": 46.4255790,
          "lng": -92.8033320
        },
        "northeast": {
          "lat": 46.4616810,
          "lng": -92.7400579
        }
      }
    }
  } ]
}
