{
  "status": "OK",
  "results": [ {
    "types": [ "locality", "political" ],
    "formatted_address": "New Brighton, MN, USA",
    "address_components": [ {
      "long_name": "New Brighton",
      "short_name": "New Brighton",
      "types": [ "locality", "political" ]
    }, {
      "long_name": "Ramsey",
      "short_name": "Ramsey",
      "types": [ "administrative_area_level_2", "political" ]
    }, {
      "long_name": "Minnesota",
      "short_name": "MN",
      "types": [ "administrative_area_level_1", "political" ]
    }, {
      "long_name": "United States",
      "short_name": "US",
      "types": [ "country", "political" ]
    } ],
    "geometry": {
      "location": {
        "lat": 45.0655212,
        "lng": -93.2018908
      },
      "location_type": "APPROXIMATE",
      "viewport": {
        "southwest": {
          "lat": 45.0497573,
          "lng": -93.2339056
        },
        "northeast": {
          "lat": 45.0812808,
          "lng": -93.1698760
        }
      },
      "bounds": {
        "southwest": {
          "lat": 45.0354460,
          "lng": -93.2277340
        },
        "northeast": {
          "lat": 45.0935790,
          "lng": -93.1826289
        }
      }
    }
  } ]
}
