{
  "status": "OK",
  "results": [ {
    "types": [ "locality", "political" ],
    "formatted_address": "Olivia, MN, USA",
    "address_components": [ {
      "long_name": "Olivia",
      "short_name": "Olivia",
      "types": [ "locality", "political" ]
    }, {
      "long_name": "Renville",
      "short_name": "Renville",
      "types": [ "administrative_area_level_2", "political" ]
    }, {
      "long_name": "Minnesota",
      "short_name": "MN",
      "types": [ "administrative_area_level_1", "political" ]
    }, {
      "long_name": "United States",
      "short_name": "US",
      "types": [ "country", "political" ]
    } ],
    "geometry": {
      "location": {
        "lat": 44.7763889,
        "lng": -94.9897222
      },
      "location_type": "APPROXIMATE",
      "viewport": {
        "southwest": {
          "lat": 44.7605455,
          "lng": -95.0217370
        },
        "northeast": {
          "lat": 44.7922280,
          "lng": -94.9577074
        }
      },
      "bounds": {
        "southwest": {
          "lat": 44.7657090,
          "lng": -95.0441050
        },
        "northeast": {
          "lat": 44.7888720,
          "lng": -94.9687520
        }
      }
    }
  } ]
}
