{
  "status": "OK",
  "results": [ {
    "types": [ "locality", "political" ],
    "formatted_address": "Saint Joseph, MN, USA",
    "address_components": [ {
      "long_name": "Saint Joseph",
      "short_name": "Saint Joseph",
      "types": [ "locality", "political" ]
    }, {
      "long_name": "Stearns",
      "short_name": "Stearns",
      "types": [ "administrative_area_level_2", "political" ]
    }, {
      "long_name": "Minnesota",
      "short_name": "MN",
      "types": [ "administrative_area_level_1", "political" ]
    }, {
      "long_name": "United States",
      "short_name": "US",
      "types": [ "country", "political" ]
    } ],
    "geometry": {
      "location": {
        "lat": 45.5649647,
        "lng": -94.3183284
      },
      "location_type": "APPROXIMATE",
      "viewport": {
        "southwest": {
          "lat": 45.4398383,
          "lng": -94.5744472
        },
        "northeast": {
          "lat": 45.6898130,
          "lng": -94.0622096
        }
      },
      "bounds": {
        "southwest": {
          "lat": 45.5149840,
          "lng": -94.4734100
        },
        "northeast": {
          "lat": 45.7174799,
          "lng": -94.2242910
        }
      }
    }
  } ]
}
