{
  "status": "OK",
  "results": [ {
    "types": [ "locality", "political" ],
    "formatted_address": "St. Anthony, MN, USA",
    "address_components": [ {
      "long_name": "St. Anthony",
      "short_name": "St. Anthony",
      "types": [ "locality", "political" ]
    }, {
      "long_name": "Hennepin",
      "short_name": "Hennepin",
      "types": [ "administrative_area_level_2", "political" ]
    }, {
      "long_name": "Minnesota",
      "short_name": "MN",
      "types": [ "administrative_area_level_1", "political" ]
    }, {
      "long_name": "United States",
      "short_name": "US",
      "types": [ "country", "political" ]
    } ],
    "geometry": {
      "location": {
        "lat": 45.0202778,
        "lng": -93.2177778
      },
      "location_type": "APPROXIMATE",
      "viewport": {
        "southwest": {
          "lat": 45.0045014,
          "lng": -93.2497926
        },
        "northeast": {
          "lat": 45.0360498,
          "lng": -93.1857630
        }
      },
      "bounds": {
        "southwest": {
          "lat": 45.0057580,
          "lng": -93.2270710
        },
        "northeast": {
          "lat": 45.0500440,
          "lng": -93.2075200
        }
      }
    }
  } ]
}
