{
  "status": "OK",
  "results": [ {
    "types": [ "locality", "political" ],
    "formatted_address": "Two Harbors, MN, USA",
    "address_components": [ {
      "long_name": "Two Harbors",
      "short_name": "Two Harbors",
      "types": [ "locality", "political" ]
    }, {
      "long_name": "Lake",
      "short_name": "Lake",
      "types": [ "administrative_area_level_2", "political" ]
    }, {
      "long_name": "Minnesota",
      "short_name": "MN",
      "types": [ "administrative_area_level_1", "political" ]
    }, {
      "long_name": "United States",
      "short_name": "US",
      "types": [ "country", "political" ]
    } ],
    "geometry": {
      "location": {
        "lat": 47.0227111,
        "lng": -91.6707322
      },
      "location_type": "APPROXIMATE",
      "viewport": {
        "southwest": {
          "lat": 47.0074959,
          "lng": -91.7027470
        },
        "northeast": {
          "lat": 47.0379219,
          "lng": -91.6387174
        }
      },
      "bounds": {
        "southwest": {
          "lat": 47.0131060,
          "lng": -91.6993940
        },
        "northeast": {
          "lat": 47.0443320,
          "lng": -91.6457590
        }
      }
    }
  } ]
}
