{
  "status": "OK",
  "results": [ {
    "types": [ "locality", "political" ],
    "formatted_address": "Virginia, MN, USA",
    "address_components": [ {
      "long_name": "Virginia",
      "short_name": "Virginia",
      "types": [ "locality", "political" ]
    }, {
      "long_name": "St. Louis",
      "short_name": "St. Louis",
      "types": [ "administrative_area_level_2", "political" ]
    }, {
      "long_name": "Minnesota",
      "short_name": "MN",
      "types": [ "administrative_area_level_1", "political" ]
    }, {
      "long_name": "United States",
      "short_name": "US",
      "types": [ "country", "political" ]
    } ],
    "geometry": {
      "location": {
        "lat": 47.5232596,
        "lng": -92.5365713
      },
      "location_type": "APPROXIMATE",
      "viewport": {
        "southwest": {
          "lat": 47.4931114,
          "lng": -92.6006010
        },
        "northeast": {
          "lat": 47.5533905,
          "lng": -92.4725416
        }
      },
      "bounds": {
        "southwest": {
          "lat": 47.4724019,
          "lng": -92.5712829
        },
        "northeast": {
          "lat": 47.5468709,
          "lng": -92.4305349
        }
      }
    }
  } ]
}
