{
  "status": "OK",
  "results": [ {
    "types": [ "locality", "political" ],
    "formatted_address": "Waite Park, MN, USA",
    "address_components": [ {
      "long_name": "Waite Park",
      "short_name": "Waite Park",
      "types": [ "locality", "political" ]
    }, {
      "long_name": "Stearns",
      "short_name": "Stearns",
      "types": [ "administrative_area_level_2", "political" ]
    }, {
      "long_name": "Minnesota",
      "short_name": "MN",
      "types": [ "administrative_area_level_1", "political" ]
    }, {
      "long_name": "United States",
      "short_name": "US",
      "types": [ "country", "political" ]
    } ],
    "geometry": {
      "location": {
        "lat": 45.5571872,
        "lng": -94.2241585
      },
      "location_type": "APPROXIMATE",
      "viewport": {
        "southwest": {
          "lat": 45.5259273,
          "lng": -94.2881882
        },
        "northeast": {
          "lat": 45.5884297,
          "lng": -94.1601288
        }
      },
      "bounds": {
        "southwest": {
          "lat": 45.4980470,
          "lng": -94.2973940
        },
        "northeast": {
          "lat": 45.5627650,
          "lng": -94.2050560
        }
      }
    }
  } ]
}
