{
  "status": "OK",
  "results": [ {
    "types": [ "locality", "political" ],
    "formatted_address": "Warroad, MN, USA",
    "address_components": [ {
      "long_name": "Warroad",
      "short_name": "Warroad",
      "types": [ "locality", "political" ]
    }, {
      "long_name": "Roseau",
      "short_name": "Roseau",
      "types": [ "administrative_area_level_2", "political" ]
    }, {
      "long_name": "Minnesota",
      "short_name": "MN",
      "types": [ "administrative_area_level_1", "political" ]
    }, {
      "long_name": "United States",
      "short_name": "US",
      "types": [ "country", "political" ]
    } ],
    "geometry": {
      "location": {
        "lat": 48.9052657,
        "lng": -95.3144041
      },
      "location_type": "APPROXIMATE",
      "viewport": {
        "southwest": {
          "lat": 48.8759202,
          "lng": -95.3784338
        },
        "northeast": {
          "lat": 48.9345939,
          "lng": -95.2503744
        }
      },
      "bounds": {
        "southwest": {
          "lat": 48.8943340,
          "lng": -95.3612869
        },
        "northeast": {
          "lat": 48.9515940,
          "lng": -95.2974230
        }
      }
    }
  } ]
}
