{
  "status": "OK",
  "results": [ {
    "types": [ "locality", "political" ],
    "formatted_address": "Wayzata, MN, USA",
    "address_components": [ {
      "long_name": "Wayzata",
      "short_name": "Wayzata",
      "types": [ "locality", "political" ]
    }, {
      "long_name": "Hennepin",
      "short_name": "Hennepin",
      "types": [ "administrative_area_level_2", "political" ]
    }, {
      "long_name": "Minnesota",
      "short_name": "MN",
      "types": [ "administrative_area_level_1", "political" ]
    }, {
      "long_name": "United States",
      "short_name": "US",
      "types": [ "country", "political" ]
    } ],
    "geometry": {
      "location": {
        "lat": 44.9741300,
        "lng": -93.5066217
      },
      "location_type": "APPROXIMATE",
      "viewport": {
        "southwest": {
          "lat": 44.9583409,
          "lng": -93.5386365
        },
        "northeast": {
          "lat": 44.9899147,
          "lng": -93.4746069
        }
      },
      "bounds": {
        "southwest": {
          "lat": 44.9513240,
          "lng": -93.5486179
        },
        "northeast": {
          "lat": 44.9822500,
          "lng": -93.4766650
        }
      }
    }
  } ]
}
