{
  "status": "OK",
  "results": [ {
    "types": [ "locality", "political" ],
    "formatted_address": "Wheaton, MN, USA",
    "address_components": [ {
      "long_name": "Wheaton",
      "short_name": "Wheaton",
      "types": [ "locality", "political" ]
    }, {
      "long_name": "Traverse",
      "short_name": "Traverse",
      "types": [ "administrative_area_level_2", "political" ]
    }, {
      "long_name": "Minnesota",
      "short_name": "MN",
      "types": [ "administrative_area_level_1", "political" ]
    }, {
      "long_name": "United States",
      "short_name": "US",
      "types": [ "country", "political" ]
    } ],
    "geometry": {
      "location": {
        "lat": 45.8044052,
        "lng": -96.4992330
      },
      "location_type": "APPROXIMATE",
      "viewport": {
        "southwest": {
          "lat": 45.7966263,
          "lng": -96.5152404
        },
        "northeast": {
          "lat": 45.8121830,
          "lng": -96.4832256
        }
      },
      "bounds": {
        "southwest": {
          "lat": 45.7951450,
          "lng": -96.5105449
        },
        "northeast": {
          "lat": 45.8182390,
          "lng": -96.4846149
        }
      }
    }
  } ]
}
