{
  "status": "OK",
  "results": [ {
    "types": [ "locality", "political" ],
    "formatted_address": "Woodbury, MN, USA",
    "address_components": [ {
      "long_name": "Woodbury",
      "short_name": "Woodbury",
      "types": [ "locality", "political" ]
    }, {
      "long_name": "Washington",
      "short_name": "Washington",
      "types": [ "administrative_area_level_2", "political" ]
    }, {
      "long_name": "Minnesota",
      "short_name": "MN",
      "types": [ "administrative_area_level_1", "political" ]
    }, {
      "long_name": "United States",
      "short_name": "US",
      "types": [ "country", "political" ]
    } ],
    "geometry": {
      "location": {
        "lat": 44.9238552,
        "lng": -92.9593797
      },
      "location_type": "APPROXIMATE",
      "viewport": {
        "southwest": {
          "lat": 44.8606175,
          "lng": -93.0874391
        },
        "northeast": {
          "lat": 44.9870234,
          "lng": -92.8313203
        }
      },
      "bounds": {
        "southwest": {
          "lat": 44.8618540,
          "lng": -92.9857380
        },
        "northeast": {
          "lat": 44.9489949,
          "lng": -92.8624110
        }
      }
    }
  } ]
}
