{
  "status": "OK",
  "results": [ {
    "types": [ "locality", "political" ],
    "formatted_address": "Beebe, AR, USA",
    "address_components": [ {
      "long_name": "Beebe",
      "short_name": "Beebe",
      "types": [ "locality", "political" ]
    }, {
      "long_name": "White",
      "short_name": "White",
      "types": [ "administrative_area_level_2", "political" ]
    }, {
      "long_name": "Arkansas",
      "short_name": "AR",
      "types": [ "administrative_area_level_1", "political" ]
    }, {
      "long_name": "United States",
      "short_name": "US",
      "types": [ "country", "political" ]
    } ],
    "geometry": {
      "location": {
        "lat": 35.0706423,
        "lng": -91.8795856
      },
      "location_type": "APPROXIMATE",
      "viewport": {
        "southwest": {
          "lat": 35.0341054,
          "lng": -91.9436153
        },
        "northeast": {
          "lat": 35.1071629,
          "lng": -91.8155559
        }
      },
      "bounds": {
        "southwest": {
          "lat": 35.0536109,
          "lng": -91.9631689
        },
        "northeast": {
          "lat": 35.0949830,
          "lng": -91.8550030
        }
      }
    }
  } ]
}
