{
  "status": "OK",
  "results": [ {
    "types": [ "locality", "political" ],
    "formatted_address": "Bentonville, AR, USA",
    "address_components": [ {
      "long_name": "Bentonville",
      "short_name": "Bentonville",
      "types": [ "locality", "political" ]
    }, {
      "long_name": "Benton",
      "short_name": "Benton",
      "types": [ "administrative_area_level_2", "political" ]
    }, {
      "long_name": "Arkansas",
      "short_name": "AR",
      "types": [ "administrative_area_level_1", "political" ]
    }, {
      "long_name": "United States",
      "short_name": "US",
      "types": [ "country", "political" ]
    } ],
    "geometry": {
      "location": {
        "lat": 36.3728538,
        "lng": -94.2088172
      },
      "location_type": "APPROXIMATE",
      "viewport": {
        "southwest": {
          "lat": 36.3009475,
          "lng": -94.3368766
        },
        "northeast": {
          "lat": 36.4446937,
          "lng": -94.0807578
        }
      },
      "bounds": {
        "southwest": {
          "lat": 36.2971490,
          "lng": -94.3261170
        },
        "northeast": {
          "lat": 36.4376959,
          "lng": -94.1515330
        }
      }
    }
  } ]
}
