{
  "status": "OK",
  "results": [ {
    "types": [ "locality", "political" ],
    "formatted_address": "Bull Shoals, AR, USA",
    "address_components": [ {
      "long_name": "Bull Shoals",
      "short_name": "Bull Shoals",
      "types": [ "locality", "political" ]
    }, {
      "long_name": "Marion",
      "short_name": "Marion",
      "types": [ "administrative_area_level_2", "political" ]
    }, {
      "long_name": "Arkansas",
      "short_name": "AR",
      "types": [ "administrative_area_level_1", "political" ]
    }, {
      "long_name": "United States",
      "short_name": "US",
      "types": [ "country", "political" ]
    } ],
    "geometry": {
      "location": {
        "lat": 36.3839560,
        "lng": -92.5815527
      },
      "location_type": "APPROXIMATE",
      "viewport": {
        "southwest": {
          "lat": 36.3659882,
          "lng": -92.6135675
        },
        "northeast": {
          "lat": 36.4019196,
          "lng": -92.5495379
        }
      },
      "bounds": {
        "southwest": {
          "lat": 36.3559459,
          "lng": -92.6215869
        },
        "northeast": {
          "lat": 36.3945430,
          "lng": -92.5611210
        }
      }
    }
  } ]
}
