{
  "status": "OK",
  "results": [ {
    "types": [ "locality", "political" ],
    "formatted_address": "Caraway, AR, USA",
    "address_components": [ {
      "long_name": "Caraway",
      "short_name": "Caraway",
      "types": [ "locality", "political" ]
    }, {
      "long_name": "Craighead",
      "short_name": "Craighead",
      "types": [ "administrative_area_level_2", "political" ]
    }, {
      "long_name": "Arkansas",
      "short_name": "AR",
      "types": [ "administrative_area_level_1", "political" ]
    }, {
      "long_name": "United States",
      "short_name": "US",
      "types": [ "country", "political" ]
    } ],
    "geometry": {
      "location": {
        "lat": 35.7581319,
        "lng": -90.3223223
      },
      "location_type": "APPROXIMATE",
      "viewport": {
        "southwest": {
          "lat": 35.7400206,
          "lng": -90.3543371
        },
        "northeast": {
          "lat": 35.7762391,
          "lng": -90.2903075
        }
      },
      "bounds": {
        "southwest": {
          "lat": 35.7356510,
          "lng": -90.3579099
        },
        "northeast": {
          "lat": 35.7876170,
          "lng": -90.2871930
        }
      }
    }
  } ]
}
