{
  "status": "OK",
  "results": [ {
    "types": [ "locality", "political" ],
    "formatted_address": "Cave City, AR, USA",
    "address_components": [ {
      "long_name": "Cave City",
      "short_name": "Cave City",
      "types": [ "locality", "political" ]
    }, {
      "long_name": "Sharp",
      "short_name": "Sharp",
      "types": [ "administrative_area_level_2", "political" ]
    }, {
      "long_name": "Arkansas",
      "short_name": "AR",
      "types": [ "administrative_area_level_1", "political" ]
    }, {
      "long_name": "United States",
      "short_name": "US",
      "types": [ "country", "political" ]
    } ],
    "geometry": {
      "location": {
        "lat": 35.9417397,
        "lng": -91.5484709
      },
      "location_type": "APPROXIMATE",
      "viewport": {
        "southwest": {
          "lat": 35.9327055,
          "lng": -91.5644783
        },
        "northeast": {
          "lat": 35.9507729,
          "lng": -91.5324635
        }
      },
      "bounds": {
        "southwest": {
          "lat": 35.9341260,
          "lng": -91.5633079
        },
        "northeast": {
          "lat": 35.9640689,
          "lng": -91.5314530
        }
      }
    }
  } ]
}
