{
  "status": "OK",
  "results": [ {
    "types": [ "administrative_area_level_3", "political" ],
    "formatted_address": "Cherokee, AR, USA",
    "address_components": [ {
      "long_name": "Cherokee",
      "short_name": "Cherokee",
      "types": [ "administrative_area_level_3", "political" ]
    }, {
      "long_name": "Sharp",
      "short_name": "Sharp",
      "types": [ "administrative_area_level_2", "political" ]
    }, {
      "long_name": "Arkansas",
      "short_name": "AR",
      "types": [ "administrative_area_level_1", "political" ]
    }, {
      "long_name": "United States",
      "short_name": "US",
      "types": [ "country", "political" ]
    } ],
    "geometry": {
      "location": {
        "lat": 36.3075432,
        "lng": -91.5305465
      },
      "location_type": "APPROXIMATE",
      "viewport": {
        "southwest": {
          "lat": 36.2715682,
          "lng": -91.5945762
        },
        "northeast": {
          "lat": 36.3435016,
          "lng": -91.4665168
        }
      },
      "bounds": {
        "southwest": {
          "lat": 36.2575660,
          "lng": -91.5659410
        },
        "northeast": {
          "lat": 36.3374650,
          "lng": -91.5040700
        }
      }
    }
  } ]
}
