{
  "status": "OK",
  "results": [ {
    "types": [ "locality", "political" ],
    "formatted_address": "Diaz, AR, USA",
    "address_components": [ {
      "long_name": "Diaz",
      "short_name": "Diaz",
      "types": [ "locality", "political" ]
    }, {
      "long_name": "Jackson",
      "short_name": "Jackson",
      "types": [ "administrative_area_level_2", "political" ]
    }, {
      "long_name": "Arkansas",
      "short_name": "AR",
      "types": [ "administrative_area_level_1", "political" ]
    }, {
      "long_name": "United States",
      "short_name": "US",
      "types": [ "country", "political" ]
    } ],
    "geometry": {
      "location": {
        "lat": 35.6384123,
        "lng": -91.2651282
      },
      "location_type": "APPROXIMATE",
      "viewport": {
        "southwest": {
          "lat": 35.6202738,
          "lng": -91.2971430
        },
        "northeast": {
          "lat": 35.6565467,
          "lng": -91.2331134
        }
      },
      "bounds": {
        "southwest": {
          "lat": 35.6238520,
          "lng": -91.3011200
        },
        "northeast": {
          "lat": 35.6602279,
          "lng": -91.2262729
        }
      }
    }
  } ]
}
