{
  "status": "OK",
  "results": [ {
    "types": [ "locality", "political" ],
    "formatted_address": "Fayetteville, AR, USA",
    "address_components": [ {
      "long_name": "Fayetteville",
      "short_name": "Fayetteville",
      "types": [ "locality", "political" ]
    }, {
      "long_name": "Washington",
      "short_name": "Washington",
      "types": [ "administrative_area_level_2", "political" ]
    }, {
      "long_name": "Arkansas",
      "short_name": "AR",
      "types": [ "administrative_area_level_1", "political" ]
    }, {
      "long_name": "United States",
      "short_name": "US",
      "types": [ "country", "political" ]
    } ],
    "geometry": {
      "location": {
        "lat": 36.0625795,
        "lng": -94.1574263
      },
      "location_type": "APPROXIMATE",
      "viewport": {
        "southwest": {
          "lat": 35.9903877,
          "lng": -94.2854857
        },
        "northeast": {
          "lat": 36.1347051,
          "lng": -94.0293669
        }
      },
      "bounds": {
        "southwest": {
          "lat": 35.9901640,
          "lng": -94.2980599
        },
        "northeast": {
          "lat": 36.1487810,
          "lng": -94.0266819
        }
      }
    }
  } ]
}
