{
  "status": "OK",
  "results": [ {
    "types": [ "locality", "political" ],
    "formatted_address": "Fordyce, AR, USA",
    "address_components": [ {
      "long_name": "Fordyce",
      "short_name": "Fordyce",
      "types": [ "locality", "political" ]
    }, {
      "long_name": "Dallas",
      "short_name": "Dallas",
      "types": [ "administrative_area_level_2", "political" ]
    }, {
      "long_name": "Arkansas",
      "short_name": "AR",
      "types": [ "administrative_area_level_1", "political" ]
    }, {
      "long_name": "United States",
      "short_name": "US",
      "types": [ "country", "political" ]
    } ],
    "geometry": {
      "location": {
        "lat": 33.8137161,
        "lng": -92.4129303
      },
      "location_type": "APPROXIMATE",
      "viewport": {
        "southwest": {
          "lat": 33.7951728,
          "lng": -92.4449451
        },
        "northeast": {
          "lat": 33.8322553,
          "lng": -92.3809155
        }
      },
      "bounds": {
        "southwest": {
          "lat": 33.7981440,
          "lng": -92.4539490
        },
        "northeast": {
          "lat": 33.8408400,
          "lng": -92.3829260
        }
      }
    }
  } ]
}
