{
  "status": "OK",
  "results": [ {
    "types": [ "locality", "political" ],
    "formatted_address": "Guy, AR, USA",
    "address_components": [ {
      "long_name": "Guy",
      "short_name": "Guy",
      "types": [ "locality", "political" ]
    }, {
      "long_name": "California",
      "short_name": "California",
      "types": [ "administrative_area_level_3", "political" ]
    }, {
      "long_name": "Faulkner",
      "short_name": "Faulkner",
      "types": [ "administrative_area_level_2", "political" ]
    }, {
      "long_name": "Arkansas",
      "short_name": "AR",
      "types": [ "administrative_area_level_1", "political" ]
    }, {
      "long_name": "United States",
      "short_name": "US",
      "types": [ "country", "political" ]
    } ],
    "geometry": {
      "location": {
        "lat": 35.3253587,
        "lng": -92.3343208
      },
      "location_type": "APPROXIMATE",
      "viewport": {
        "southwest": {
          "lat": 35.3071494,
          "lng": -92.3663356
        },
        "northeast": {
          "lat": 35.3435638,
          "lng": -92.3023060
        }
      },
      "bounds": {
        "southwest": {
          "lat": 35.3072770,
          "lng": -92.3684959
        },
        "northeast": {
          "lat": 35.3509600,
          "lng": -92.3152509
        }
      }
    }
  } ]
}
