{
  "status": "OK",
  "results": [ {
    "types": [ "locality", "political" ],
    "formatted_address": "Hampton, AR, USA",
    "address_components": [ {
      "long_name": "Hampton",
      "short_name": "Hampton",
      "types": [ "locality", "political" ]
    }, {
      "long_name": "Calhoun",
      "short_name": "Calhoun",
      "types": [ "administrative_area_level_2", "political" ]
    }, {
      "long_name": "Arkansas",
      "short_name": "AR",
      "types": [ "administrative_area_level_1", "political" ]
    }, {
      "long_name": "United States",
      "short_name": "US",
      "types": [ "country", "political" ]
    } ],
    "geometry": {
      "location": {
        "lat": 33.5378920,
        "lng": -92.4698762
      },
      "location_type": "APPROXIMATE",
      "viewport": {
        "southwest": {
          "lat": 33.5285911,
          "lng": -92.4858836
        },
        "northeast": {
          "lat": 33.5471919,
          "lng": -92.4538688
        }
      },
      "bounds": {
        "southwest": {
          "lat": 33.5229310,
          "lng": -92.4864379
        },
        "northeast": {
          "lat": 33.5495559,
          "lng": -92.4486290
        }
      }
    }
  } ]
}
