{
  "status": "OK",
  "results": [ {
    "types": [ "locality", "political" ],
    "formatted_address": "Hardy, AR, USA",
    "address_components": [ {
      "long_name": "Hardy",
      "short_name": "Hardy",
      "types": [ "locality", "political" ]
    }, {
      "long_name": "Sharp",
      "short_name": "Sharp",
      "types": [ "administrative_area_level_2", "political" ]
    }, {
      "long_name": "Arkansas",
      "short_name": "AR",
      "types": [ "administrative_area_level_1", "political" ]
    }, {
      "long_name": "United States",
      "short_name": "US",
      "types": [ "country", "political" ]
    } ],
    "geometry": {
      "location": {
        "lat": 36.3158994,
        "lng": -91.4826388
      },
      "location_type": "APPROXIMATE",
      "viewport": {
        "southwest": {
          "lat": 36.2979159,
          "lng": -91.5146536
        },
        "northeast": {
          "lat": 36.3338787,
          "lng": -91.4506240
        }
      },
      "bounds": {
        "southwest": {
          "lat": 36.2919000,
          "lng": -91.5101179
        },
        "northeast": {
          "lat": 36.3427520,
          "lng": -91.4428750
        }
      }
    }
  } ]
}
