{
  "status": "OK",
  "results": [ {
    "types": [ "locality", "political" ],
    "formatted_address": "Harrison, AR, USA",
    "address_components": [ {
      "long_name": "Harrison",
      "short_name": "Harrison",
      "types": [ "locality", "political" ]
    }, {
      "long_name": "Boone",
      "short_name": "Boone",
      "types": [ "administrative_area_level_2", "political" ]
    }, {
      "long_name": "Arkansas",
      "short_name": "AR",
      "types": [ "administrative_area_level_1", "political" ]
    }, {
      "long_name": "United States",
      "short_name": "US",
      "types": [ "country", "political" ]
    } ],
    "geometry": {
      "location": {
        "lat": 36.2297936,
        "lng": -93.1076765
      },
      "location_type": "APPROXIMATE",
      "viewport": {
        "southwest": {
          "lat": 36.1937828,
          "lng": -93.1717062
        },
        "northeast": {
          "lat": 36.2657878,
          "lng": -93.0436468
        }
      },
      "bounds": {
        "southwest": {
          "lat": 36.2056150,
          "lng": -93.1593560
        },
        "northeast": {
          "lat": 36.2778760,
          "lng": -93.0653040
        }
      }
    }
  } ]
}
