{
  "status": "OK",
  "results": [ {
    "types": [ "locality", "political" ],
    "formatted_address": "Helena-West Helena, AR, USA",
    "address_components": [ {
      "long_name": "Helena-West Helena",
      "short_name": "Helena-West Helena",
      "types": [ "locality", "political" ]
    }, {
      "long_name": "Phillips",
      "short_name": "Phillips",
      "types": [ "administrative_area_level_2", "political" ]
    }, {
      "long_name": "Arkansas",
      "short_name": "AR",
      "types": [ "administrative_area_level_1", "political" ]
    }, {
      "long_name": "United States",
      "short_name": "US",
      "types": [ "country", "political" ]
    } ],
    "geometry": {
      "location": {
        "lat": 34.5291000,
        "lng": -90.5900000
      },
      "location_type": "APPROXIMATE",
      "viewport": {
        "southwest": {
          "lat": 34.4923224,
          "lng": -90.6540297
        },
        "northeast": {
          "lat": 34.5658614,
          "lng": -90.5259703
        }
      },
      "bounds": {
        "southwest": {
          "lat": 34.4937280,
          "lng": -90.6754740
        },
        "northeast": {
          "lat": 34.5756730,
          "lng": -90.5750520
        }
      }
    }
  } ]
}
