{
  "status": "OK",
  "results": [ {
    "types": [ "locality", "political" ],
    "formatted_address": "Hermitage, AR, USA",
    "address_components": [ {
      "long_name": "Hermitage",
      "short_name": "Hermitage",
      "types": [ "locality", "political" ]
    }, {
      "long_name": "Bradley",
      "short_name": "Bradley",
      "types": [ "administrative_area_level_2", "political" ]
    }, {
      "long_name": "Arkansas",
      "short_name": "AR",
      "types": [ "administrative_area_level_1", "political" ]
    }, {
      "long_name": "United States",
      "short_name": "US",
      "types": [ "country", "political" ]
    } ],
    "geometry": {
      "location": {
        "lat": 33.4465028,
        "lng": -92.1740294
      },
      "location_type": "APPROXIMATE",
      "viewport": {
        "southwest": {
          "lat": 33.4371921,
          "lng": -92.1900368
        },
        "northeast": {
          "lat": 33.4558125,
          "lng": -92.1580220
        }
      },
      "bounds": {
        "southwest": {
          "lat": 33.4364310,
          "lng": -92.1805749
        },
        "northeast": {
          "lat": 33.4641180,
          "lng": -92.1588670
        }
      }
    }
  } ]
}
