{
  "status": "OK",
  "results": [ {
    "types": [ "locality", "political" ],
    "formatted_address": "Hope, AR, USA",
    "address_components": [ {
      "long_name": "Hope",
      "short_name": "Hope",
      "types": [ "locality", "political" ]
    }, {
      "long_name": "Hempstead",
      "short_name": "Hempstead",
      "types": [ "administrative_area_level_2", "political" ]
    }, {
      "long_name": "Arkansas",
      "short_name": "AR",
      "types": [ "administrative_area_level_1", "political" ]
    }, {
      "long_name": "United States",
      "short_name": "US",
      "types": [ "country", "political" ]
    } ],
    "geometry": {
      "location": {
        "lat": 33.6670615,
        "lng": -93.5915665
      },
      "location_type": "APPROXIMATE",
      "viewport": {
        "southwest": {
          "lat": 33.6299075,
          "lng": -93.6555962
        },
        "northeast": {
          "lat": 33.7041994,
          "lng": -93.5275368
        }
      },
      "bounds": {
        "southwest": {
          "lat": 33.6265620,
          "lng": -93.6257909
        },
        "northeast": {
          "lat": 33.6978499,
          "lng": -93.5531050
        }
      }
    }
  } ]
}
