{
  "status": "OK",
  "results": [ {
    "types": [ "locality", "political" ],
    "formatted_address": "Judsonia, AR, USA",
    "address_components": [ {
      "long_name": "Judsonia",
      "short_name": "Judsonia",
      "types": [ "locality", "political" ]
    }, {
      "long_name": "White",
      "short_name": "White",
      "types": [ "administrative_area_level_2", "political" ]
    }, {
      "long_name": "Arkansas",
      "short_name": "AR",
      "types": [ "administrative_area_level_1", "political" ]
    }, {
      "long_name": "United States",
      "short_name": "US",
      "types": [ "country", "political" ]
    } ],
    "geometry": {
      "location": {
        "lat": 35.2700850,
        "lng": -91.6398575
      },
      "location_type": "APPROXIMATE",
      "viewport": {
        "southwest": {
          "lat": 35.2518633,
          "lng": -91.6718723
        },
        "northeast": {
          "lat": 35.2883026,
          "lng": -91.6078427
        }
      },
      "bounds": {
        "southwest": {
          "lat": 35.2601290,
          "lng": -91.6697880
        },
        "northeast": {
          "lat": 35.2905860,
          "lng": -91.6226370
        }
      }
    }
  } ]
}
