{
  "status": "OK",
  "results": [ {
    "types": [ "administrative_area_level_3", "political" ],
    "formatted_address": "Lake, AR, USA",
    "address_components": [ {
      "long_name": "Lake",
      "short_name": "Lake",
      "types": [ "administrative_area_level_3", "political" ]
    }, {
      "long_name": "Perry",
      "short_name": "Perry",
      "types": [ "administrative_area_level_2", "political" ]
    }, {
      "long_name": "Arkansas",
      "short_name": "AR",
      "types": [ "administrative_area_level_1", "political" ]
    }, {
      "long_name": "United States",
      "short_name": "US",
      "types": [ "country", "political" ]
    } ],
    "geometry": {
      "location": {
        "lat": 35.0614948,
        "lng": -92.8078640
      },
      "location_type": "APPROXIMATE",
      "viewport": {
        "southwest": {
          "lat": 35.0249538,
          "lng": -92.8718937
        },
        "northeast": {
          "lat": 35.0980195,
          "lng": -92.7438343
        }
      },
      "bounds": {
        "southwest": {
          "lat": 35.0220820,
          "lng": -92.8574570
        },
        "northeast": {
          "lat": 35.0737740,
          "lng": -92.7333340
        }
      }
    }
  } ]
}
