{
  "status": "OK",
  "results": [ {
    "types": [ "locality", "political" ],
    "formatted_address": "Maumelle, AR, USA",
    "address_components": [ {
      "long_name": "Maumelle",
      "short_name": "Maumelle",
      "types": [ "locality", "political" ]
    }, {
      "long_name": "Pulaski",
      "short_name": "Pulaski",
      "types": [ "administrative_area_level_2", "political" ]
    }, {
      "long_name": "Arkansas",
      "short_name": "AR",
      "types": [ "administrative_area_level_1", "political" ]
    }, {
      "long_name": "United States",
      "short_name": "US",
      "types": [ "country", "political" ]
    } ],
    "geometry": {
      "location": {
        "lat": 34.8667565,
        "lng": -92.4043219
      },
      "location_type": "APPROXIMATE",
      "viewport": {
        "southwest": {
          "lat": 34.8301286,
          "lng": -92.4683516
        },
        "northeast": {
          "lat": 34.9033681,
          "lng": -92.3402922
        }
      },
      "bounds": {
        "southwest": {
          "lat": 34.8156970,
          "lng": -92.4396570
        },
        "northeast": {
          "lat": 34.8870320,
          "lng": -92.3465610
        }
      }
    }
  } ]
}
