{
  "status": "OK",
  "results": [ {
    "types": [ "locality", "political" ],
    "formatted_address": "Mena, AR, USA",
    "address_components": [ {
      "long_name": "Mena",
      "short_name": "Mena",
      "types": [ "locality", "political" ]
    }, {
      "long_name": "Polk",
      "short_name": "Polk",
      "types": [ "administrative_area_level_2", "political" ]
    }, {
      "long_name": "Arkansas",
      "short_name": "AR",
      "types": [ "administrative_area_level_1", "political" ]
    }, {
      "long_name": "United States",
      "short_name": "US",
      "types": [ "country", "political" ]
    } ],
    "geometry": {
      "location": {
        "lat": 34.5862171,
        "lng": -94.2396554
      },
      "location_type": "APPROXIMATE",
      "viewport": {
        "southwest": {
          "lat": 34.5678429,
          "lng": -94.2716702
        },
        "northeast": {
          "lat": 34.6045872,
          "lng": -94.2076406
        }
      },
      "bounds": {
        "southwest": {
          "lat": 34.5608150,
          "lng": -94.2670370
        },
        "northeast": {
          "lat": 34.6071610,
          "lng": -94.2006220
        }
      }
    }
  } ]
}
