{
  "status": "OK",
  "results": [ {
    "types": [ "locality", "political" ],
    "formatted_address": "Ola, AR, USA",
    "address_components": [ {
      "long_name": "Ola",
      "short_name": "Ola",
      "types": [ "locality", "political" ]
    }, {
      "long_name": "Yell",
      "short_name": "Yell",
      "types": [ "administrative_area_level_2", "political" ]
    }, {
      "long_name": "Arkansas",
      "short_name": "AR",
      "types": [ "administrative_area_level_1", "political" ]
    }, {
      "long_name": "United States",
      "short_name": "US",
      "types": [ "country", "political" ]
    } ],
    "geometry": {
      "location": {
        "lat": 35.0323119,
        "lng": -93.2232345
      },
      "location_type": "APPROXIMATE",
      "viewport": {
        "southwest": {
          "lat": 35.0231749,
          "lng": -93.2392419
        },
        "northeast": {
          "lat": 35.0414479,
          "lng": -93.2072271
        }
      },
      "bounds": {
        "southwest": {
          "lat": 35.0191350,
          "lng": -93.2416439
        },
        "northeast": {
          "lat": 35.0433240,
          "lng": -93.2082020
        }
      }
    }
  } ]
}
