{
  "status": "OK",
  "results": [ {
    "types": [ "locality", "political" ],
    "formatted_address": "Pocahontas, AR, USA",
    "address_components": [ {
      "long_name": "Pocahontas",
      "short_name": "Pocahontas",
      "types": [ "locality", "political" ]
    }, {
      "long_name": "Randolph",
      "short_name": "Randolph",
      "types": [ "administrative_area_level_2", "political" ]
    }, {
      "long_name": "Arkansas",
      "short_name": "AR",
      "types": [ "administrative_area_level_1", "political" ]
    }, {
      "long_name": "United States",
      "short_name": "US",
      "types": [ "country", "political" ]
    } ],
    "geometry": {
      "location": {
        "lat": 36.2614554,
        "lng": -90.9712330
      },
      "location_type": "APPROXIMATE",
      "viewport": {
        "southwest": {
          "lat": 36.2254592,
          "lng": -91.0352627
        },
        "northeast": {
          "lat": 36.2974350,
          "lng": -90.9072033
        }
      },
      "bounds": {
        "southwest": {
          "lat": 36.2340499,
          "lng": -91.0062810
        },
        "northeast": {
          "lat": 36.2984180,
          "lng": -90.9346499
        }
      }
    }
  } ]
}
