{
  "status": "OK",
  "results": [ {
    "types": [ "locality", "political" ],
    "formatted_address": "Quitman, AR, USA",
    "address_components": [ {
      "long_name": "Quitman",
      "short_name": "Quitman",
      "types": [ "locality", "political" ]
    }, {
      "long_name": "Cleburne",
      "short_name": "Cleburne",
      "types": [ "administrative_area_level_2", "political" ]
    }, {
      "long_name": "Arkansas",
      "short_name": "AR",
      "types": [ "administrative_area_level_1", "political" ]
    }, {
      "long_name": "United States",
      "short_name": "US",
      "types": [ "country", "political" ]
    } ],
    "geometry": {
      "location": {
        "lat": 35.3842471,
        "lng": -92.2157074
      },
      "location_type": "APPROXIMATE",
      "viewport": {
        "southwest": {
          "lat": 35.3660511,
          "lng": -92.2477222
        },
        "northeast": {
          "lat": 35.4024390,
          "lng": -92.1836926
        }
      },
      "bounds": {
        "southwest": {
          "lat": 35.3552270,
          "lng": -92.2383720
        },
        "northeast": {
          "lat": 35.4010279,
          "lng": -92.1792840
        }
      }
    }
  } ]
}
