{
  "status": "OK",
  "results": [ {
    "types": [ "locality", "political" ],
    "formatted_address": "Sheridan, AR, USA",
    "address_components": [ {
      "long_name": "Sheridan",
      "short_name": "Sheridan",
      "types": [ "locality", "political" ]
    }, {
      "long_name": "Grant",
      "short_name": "Grant",
      "types": [ "administrative_area_level_2", "political" ]
    }, {
      "long_name": "Arkansas",
      "short_name": "AR",
      "types": [ "administrative_area_level_1", "political" ]
    }, {
      "long_name": "United States",
      "short_name": "US",
      "types": [ "country", "political" ]
    } ],
    "geometry": {
      "location": {
        "lat": 34.3070406,
        "lng": -92.4012654
      },
      "location_type": "APPROXIMATE",
      "viewport": {
        "southwest": {
          "lat": 34.2701652,
          "lng": -92.4652951
        },
        "northeast": {
          "lat": 34.3438998,
          "lng": -92.3372357
        }
      },
      "bounds": {
        "southwest": {
          "lat": 34.2520180,
          "lng": -92.4616839
        },
        "northeast": {
          "lat": 34.3440380,
          "lng": -92.3833830
        }
      }
    }
  } ]
}
