{
  "status": "OK",
  "results": [ {
    "types": [ "locality", "political" ],
    "formatted_address": "White Hall, AR, USA",
    "address_components": [ {
      "long_name": "White Hall",
      "short_name": "White Hall",
      "types": [ "locality", "political" ]
    }, {
      "long_name": "Jefferson",
      "short_name": "Jefferson",
      "types": [ "administrative_area_level_2", "political" ]
    }, {
      "long_name": "Arkansas",
      "short_name": "AR",
      "types": [ "administrative_area_level_1", "political" ]
    }, {
      "long_name": "United States",
      "short_name": "US",
      "types": [ "country", "political" ]
    } ],
    "geometry": {
      "location": {
        "lat": 34.2739862,
        "lng": -92.0909766
      },
      "location_type": "APPROXIMATE",
      "viewport": {
        "southwest": {
          "lat": 34.2555433,
          "lng": -92.1229914
        },
        "northeast": {
          "lat": 34.2924251,
          "lng": -92.0589618
        }
      },
      "bounds": {
        "southwest": {
          "lat": 34.2398060,
          "lng": -92.1218409
        },
        "northeast": {
          "lat": 34.3007730,
          "lng": -92.0623679
        }
      }
    }
  } ]
}
