{
  "status": "OK",
  "results": [ {
    "types": [ "locality", "political" ],
    "formatted_address": "Amity, OR, USA",
    "address_components": [ {
      "long_name": "Amity",
      "short_name": "Amity",
      "types": [ "locality", "political" ]
    }, {
      "long_name": "Dayton-Amity",
      "short_name": "Dayton-Amity",
      "types": [ "administrative_area_level_3", "political" ]
    }, {
      "long_name": "Yamhill",
      "short_name": "Yamhill",
      "types": [ "administrative_area_level_2", "political" ]
    }, {
      "long_name": "Oregon",
      "short_name": "OR",
      "types": [ "administrative_area_level_1", "political" ]
    }, {
      "long_name": "United States",
      "short_name": "US",
      "types": [ "country", "political" ]
    } ],
    "geometry": {
      "location": {
        "lat": 45.1156724,
        "lng": -123.2073257
      },
      "location_type": "APPROXIMATE",
      "viewport": {
        "southwest": {
          "lat": 45.1077979,
          "lng": -123.2233331
        },
        "northeast": {
          "lat": 45.1235458,
          "lng": -123.1913183
        }
      },
      "bounds": {
        "southwest": {
          "lat": 45.1032630,
          "lng": -123.2151610
        },
        "northeast": {
          "lat": 45.1230240,
          "lng": -123.1926440
        }
      }
    }
  } ]
}
