{
  "status": "OK",
  "results": [ {
    "types": [ "locality", "political" ],
    "formatted_address": "Aumsville, OR, USA",
    "address_components": [ {
      "long_name": "Aumsville",
      "short_name": "Aumsville",
      "types": [ "locality", "political" ]
    }, {
      "long_name": "Marion",
      "short_name": "Marion",
      "types": [ "administrative_area_level_2", "political" ]
    }, {
      "long_name": "Oregon",
      "short_name": "OR",
      "types": [ "administrative_area_level_1", "political" ]
    }, {
      "long_name": "United States",
      "short_name": "US",
      "types": [ "country", "political" ]
    } ],
    "geometry": {
      "location": {
        "lat": 44.8409548,
        "lng": -122.8709243
      },
      "location_type": "APPROXIMATE",
      "viewport": {
        "southwest": {
          "lat": 44.8330425,
          "lng": -122.8869317
        },
        "northeast": {
          "lat": 44.8488660,
          "lng": -122.8549169
        }
      },
      "bounds": {
        "southwest": {
          "lat": 44.8383560,
          "lng": -122.8815860
        },
        "northeast": {
          "lat": 44.8560669,
          "lng": -122.8600600
        }
      }
    }
  } ]
}
