{
  "status": "OK",
  "results": [ {
    "types": [ "locality", "political" ],
    "formatted_address": "Banks, OR, USA",
    "address_components": [ {
      "long_name": "Banks",
      "short_name": "Banks",
      "types": [ "locality", "political" ]
    }, {
      "long_name": "Coast Range",
      "short_name": "Coast Range",
      "types": [ "administrative_area_level_3", "political" ]
    }, {
      "long_name": "Washington",
      "short_name": "Washington",
      "types": [ "administrative_area_level_2", "political" ]
    }, {
      "long_name": "Oregon",
      "short_name": "OR",
      "types": [ "administrative_area_level_1", "political" ]
    }, {
      "long_name": "United States",
      "short_name": "US",
      "types": [ "country", "political" ]
    } ],
    "geometry": {
      "location": {
        "lat": 45.6187245,
        "lng": -123.1142758
      },
      "location_type": "APPROXIMATE",
      "viewport": {
        "southwest": {
          "lat": 45.6109197,
          "lng": -123.1302832
        },
        "northeast": {
          "lat": 45.6265282,
          "lng": -123.0982684
        }
      },
      "bounds": {
        "southwest": {
          "lat": 45.6086759,
          "lng": -123.1169910
        },
        "northeast": {
          "lat": 45.6227150,
          "lng": -123.1029840
        }
      }
    }
  } ]
}
