{
  "status": "OK",
  "results": [ {
    "types": [ "locality", "political" ],
    "formatted_address": "Corvallis, OR, USA",
    "address_components": [ {
      "long_name": "Corvallis",
      "short_name": "Corvallis",
      "types": [ "locality", "political" ]
    }, {
      "long_name": "Benton",
      "short_name": "Benton",
      "types": [ "administrative_area_level_2", "political" ]
    }, {
      "long_name": "Oregon",
      "short_name": "OR",
      "types": [ "administrative_area_level_1", "political" ]
    }, {
      "long_name": "United States",
      "short_name": "US",
      "types": [ "country", "political" ]
    } ],
    "geometry": {
      "location": {
        "lat": 44.5645659,
        "lng": -123.2620435
      },
      "location_type": "APPROXIMATE",
      "viewport": {
        "southwest": {
          "lat": 44.5327587,
          "lng": -123.3260732
        },
        "northeast": {
          "lat": 44.5963557,
          "lng": -123.1980138
        }
      },
      "bounds": {
        "southwest": {
          "lat": 44.5196909,
          "lng": -123.3362330
        },
        "northeast": {
          "lat": 44.6062540,
          "lng": -123.2308400
        }
      }
    }
  } ]
}
