{
  "status": "OK",
  "results": [ {
    "types": [ "locality", "political" ],
    "formatted_address": "Creswell, OR, USA",
    "address_components": [ {
      "long_name": "Creswell",
      "short_name": "Creswell",
      "types": [ "locality", "political" ]
    }, {
      "long_name": "Lane",
      "short_name": "Lane",
      "types": [ "administrative_area_level_2", "political" ]
    }, {
      "long_name": "Oregon",
      "short_name": "OR",
      "types": [ "administrative_area_level_1", "political" ]
    }, {
      "long_name": "United States",
      "short_name": "US",
      "types": [ "country", "political" ]
    } ],
    "geometry": {
      "location": {
        "lat": 43.9179023,
        "lng": -123.0245261
      },
      "location_type": "APPROXIMATE",
      "viewport": {
        "southwest": {
          "lat": 43.9098643,
          "lng": -123.0405335
        },
        "northeast": {
          "lat": 43.9259392,
          "lng": -123.0085187
        }
      },
      "bounds": {
        "southwest": {
          "lat": 43.9090610,
          "lng": -123.0337130
        },
        "northeast": {
          "lat": 43.9274020,
          "lng": -122.9960970
        }
      }
    }
  } ]
}
