{
  "status": "OK",
  "results": [ {
    "types": [ "locality", "political" ],
    "formatted_address": "Dallas, OR, USA",
    "address_components": [ {
      "long_name": "Dallas",
      "short_name": "Dallas",
      "types": [ "locality", "political" ]
    }, {
      "long_name": "Polk",
      "short_name": "Polk",
      "types": [ "administrative_area_level_2", "political" ]
    }, {
      "long_name": "Oregon",
      "short_name": "OR",
      "types": [ "administrative_area_level_1", "political" ]
    }, {
      "long_name": "United States",
      "short_name": "US",
      "types": [ "country", "political" ]
    } ],
    "geometry": {
      "location": {
        "lat": 44.9192844,
        "lng": -123.3170472
      },
      "location_type": "APPROXIMATE",
      "viewport": {
        "southwest": {
          "lat": 44.9034802,
          "lng": -123.3490620
        },
        "northeast": {
          "lat": 44.9350842,
          "lng": -123.2850324
        }
      },
      "bounds": {
        "southwest": {
          "lat": 44.9031279,
          "lng": -123.3491460
        },
        "northeast": {
          "lat": 44.9379870,
          "lng": -123.2749510
        }
      }
    }
  } ]
}
