{
  "status": "OK",
  "results": [ {
    "types": [ "locality", "political" ],
    "formatted_address": "Hubbard, OR, USA",
    "address_components": [ {
      "long_name": "Hubbard",
      "short_name": "Hubbard",
      "types": [ "locality", "political" ]
    }, {
      "long_name": "Marion",
      "short_name": "Marion",
      "types": [ "administrative_area_level_2", "political" ]
    }, {
      "long_name": "Oregon",
      "short_name": "OR",
      "types": [ "administrative_area_level_1", "political" ]
    }, {
      "long_name": "United States",
      "short_name": "US",
      "types": [ "country", "political" ]
    } ],
    "geometry": {
      "location": {
        "lat": 45.1823423,
        "lng": -122.8078718
      },
      "location_type": "APPROXIMATE",
      "viewport": {
        "southwest": {
          "lat": 45.1744770,
          "lng": -122.8238792
        },
        "northeast": {
          "lat": 45.1902065,
          "lng": -122.7918644
        }
      },
      "bounds": {
        "southwest": {
          "lat": 45.1719590,
          "lng": -122.8165760
        },
        "northeast": {
          "lat": 45.1915100,
          "lng": -122.7979150
        }
      }
    }
  } ]
}
