{
  "status": "OK",
  "results": [ {
    "types": [ "locality", "political" ],
    "formatted_address": "Keizer, OR, USA",
    "address_components": [ {
      "long_name": "Keizer",
      "short_name": "Keizer",
      "types": [ "locality", "political" ]
    }, {
      "long_name": "Marion",
      "short_name": "Marion",
      "types": [ "administrative_area_level_2", "political" ]
    }, {
      "long_name": "Oregon",
      "short_name": "OR",
      "types": [ "administrative_area_level_1", "political" ]
    }, {
      "long_name": "United States",
      "short_name": "US",
      "types": [ "country", "political" ]
    } ],
    "geometry": {
      "location": {
        "lat": 44.9901194,
        "lng": -123.0262077
      },
      "location_type": "APPROXIMATE",
      "viewport": {
        "southwest": {
          "lat": 44.9585457,
          "lng": -123.0902374
        },
        "northeast": {
          "lat": 45.0216757,
          "lng": -122.9621780
        }
      },
      "bounds": {
        "southwest": {
          "lat": 44.9726409,
          "lng": -123.0544330
        },
        "northeast": {
          "lat": 45.0376520,
          "lng": -122.9905070
        }
      }
    }
  } ]
}
