{
  "status": "OK",
  "results": [ {
    "types": [ "locality", "political" ],
    "formatted_address": "La Grande, OR, USA",
    "address_components": [ {
      "long_name": "La Grande",
      "short_name": "La Grande",
      "types": [ "locality", "political" ]
    }, {
      "long_name": "Union",
      "short_name": "Union",
      "types": [ "administrative_area_level_2", "political" ]
    }, {
      "long_name": "Oregon",
      "short_name": "OR",
      "types": [ "administrative_area_level_1", "political" ]
    }, {
      "long_name": "United States",
      "short_name": "US",
      "types": [ "country", "political" ]
    } ],
    "geometry": {
      "location": {
        "lat": 45.3245771,
        "lng": -118.0877188
      },
      "location_type": "APPROXIMATE",
      "viewport": {
        "southwest": {
          "lat": 45.3088848,
          "lng": -118.1197336
        },
        "northeast": {
          "lat": 45.3402651,
          "lng": -118.0557040
        }
      },
      "bounds": {
        "southwest": {
          "lat": 45.3022680,
          "lng": -118.1166950
        },
        "northeast": {
          "lat": 45.3460169,
          "lng": -118.0530760
        }
      }
    }
  } ]
}
