{
  "status": "OK",
  "results": [ {
    "types": [ "locality", "political" ],
    "formatted_address": "McMinnville, OR, USA",
    "address_components": [ {
      "long_name": "McMinnville",
      "short_name": "McMinnville",
      "types": [ "locality", "political" ]
    }, {
      "long_name": "Yamhill",
      "short_name": "Yamhill",
      "types": [ "administrative_area_level_2", "political" ]
    }, {
      "long_name": "Oregon",
      "short_name": "OR",
      "types": [ "administrative_area_level_1", "political" ]
    }, {
      "long_name": "United States",
      "short_name": "US",
      "types": [ "country", "political" ]
    } ],
    "geometry": {
      "location": {
        "lat": 45.2101162,
        "lng": -123.1987163
      },
      "location_type": "APPROXIMATE",
      "viewport": {
        "southwest": {
          "lat": 45.1786639,
          "lng": -123.2627460
        },
        "northeast": {
          "lat": 45.2415511,
          "lng": -123.1346866
        }
      },
      "bounds": {
        "southwest": {
          "lat": 45.1855489,
          "lng": -123.2541500
        },
        "northeast": {
          "lat": 45.2391430,
          "lng": -123.1291130
        }
      }
    }
  } ]
}
