{
  "status": "OK",
  "results": [ {
    "types": [ "locality", "political" ],
    "formatted_address": "Phoenix, OR, USA",
    "address_components": [ {
      "long_name": "Phoenix",
      "short_name": "Phoenix",
      "types": [ "locality", "political" ]
    }, {
      "long_name": "Jackson",
      "short_name": "Jackson",
      "types": [ "administrative_area_level_2", "political" ]
    }, {
      "long_name": "Oregon",
      "short_name": "OR",
      "types": [ "administrative_area_level_1", "political" ]
    }, {
      "long_name": "United States",
      "short_name": "US",
      "types": [ "country", "political" ]
    } ],
    "geometry": {
      "location": {
        "lat": 42.2754058,
        "lng": -122.8180920
      },
      "location_type": "APPROXIMATE",
      "viewport": {
        "southwest": {
          "lat": 42.2671492,
          "lng": -122.8340994
        },
        "northeast": {
          "lat": 42.2836613,
          "lng": -122.8020846
        }
      },
      "bounds": {
        "southwest": {
          "lat": 42.2634160,
          "lng": -122.8323500
        },
        "northeast": {
          "lat": 42.2850050,
          "lng": -122.8011850
        }
      }
    }
  } ]
}
