{
  "status": "OK",
  "results": [ {
    "types": [ "locality", "political" ],
    "formatted_address": "Portland, OR, USA",
    "address_components": [ {
      "long_name": "Portland",
      "short_name": "Portland",
      "types": [ "locality", "political" ]
    }, {
      "long_name": "Multnomah",
      "short_name": "Multnomah",
      "types": [ "administrative_area_level_2", "political" ]
    }, {
      "long_name": "Oregon",
      "short_name": "OR",
      "types": [ "administrative_area_level_1", "political" ]
    }, {
      "long_name": "United States",
      "short_name": "US",
      "types": [ "country", "political" ]
    } ],
    "geometry": {
      "location": {
        "lat": 45.5234515,
        "lng": -122.6762071
      },
      "location_type": "APPROXIMATE",
      "viewport": {
        "southwest": {
          "lat": 45.3982328,
          "lng": -122.9323259
        },
        "northeast": {
          "lat": 45.6483921,
          "lng": -122.4200883
        }
      },
      "bounds": {
        "southwest": {
          "lat": 45.4323930,
          "lng": -122.8369950
        },
        "northeast": {
          "lat": 45.6544240,
          "lng": -122.4718490
        }
      }
    }
  } ]
}
