{
  "status": "OK",
  "results": [ {
    "types": [ "locality", "political" ],
    "formatted_address": "Redmond, OR, USA",
    "address_components": [ {
      "long_name": "Redmond",
      "short_name": "Redmond",
      "types": [ "locality", "political" ]
    }, {
      "long_name": "Deschutes",
      "short_name": "Deschutes",
      "types": [ "administrative_area_level_2", "political" ]
    }, {
      "long_name": "Oregon",
      "short_name": "OR",
      "types": [ "administrative_area_level_1", "political" ]
    }, {
      "long_name": "United States",
      "short_name": "US",
      "types": [ "country", "political" ]
    } ],
    "geometry": {
      "location": {
        "lat": 44.2726203,
        "lng": -121.1739212
      },
      "location_type": "APPROXIMATE",
      "viewport": {
        "southwest": {
          "lat": 44.2406539,
          "lng": -121.2379509
        },
        "northeast": {
          "lat": 44.3045693,
          "lng": -121.1098915
        }
      },
      "bounds": {
        "southwest": {
          "lat": 44.2250490,
          "lng": -121.2293590
        },
        "northeast": {
          "lat": 44.3058390,
          "lng": -121.1333520
        }
      }
    }
  } ]
}
