{
  "status": "OK",
  "results": [ {
    "types": [ "locality", "political" ],
    "formatted_address": "Salem, OR, USA",
    "address_components": [ {
      "long_name": "Salem",
      "short_name": "Salem",
      "types": [ "locality", "political" ]
    }, {
      "long_name": "Marion",
      "short_name": "Marion",
      "types": [ "administrative_area_level_2", "political" ]
    }, {
      "long_name": "Oregon",
      "short_name": "OR",
      "types": [ "administrative_area_level_1", "political" ]
    }, {
      "long_name": "United States",
      "short_name": "US",
      "types": [ "country", "political" ]
    } ],
    "geometry": {
      "location": {
        "lat": 44.9428975,
        "lng": -123.0350963
      },
      "location_type": "APPROXIMATE",
      "viewport": {
        "southwest": {
          "lat": 44.8796807,
          "lng": -123.1631557
        },
        "northeast": {
          "lat": 45.0060447,
          "lng": -122.9070369
        }
      },
      "bounds": {
        "southwest": {
          "lat": 44.8536420,
          "lng": -123.1227110
        },
        "northeast": {
          "lat": 45.0123410,
          "lng": -122.9337040
        }
      }
    }
  } ]
}
