{
  "status": "OK",
  "results": [ {
    "types": [ "locality", "political" ],
    "formatted_address": "Sherwood, OR, USA",
    "address_components": [ {
      "long_name": "Sherwood",
      "short_name": "Sherwood",
      "types": [ "locality", "political" ]
    }, {
      "long_name": "Beaverton-Hillsboro",
      "short_name": "Beaverton-Hillsboro",
      "types": [ "administrative_area_level_3", "political" ]
    }, {
      "long_name": "Washington",
      "short_name": "Washington",
      "types": [ "administrative_area_level_2", "political" ]
    }, {
      "long_name": "Oregon",
      "short_name": "OR",
      "types": [ "administrative_area_level_1", "political" ]
    }, {
      "long_name": "United States",
      "short_name": "US",
      "types": [ "country", "political" ]
    } ],
    "geometry": {
      "location": {
        "lat": 45.3565074,
        "lng": -122.8400980
      },
      "location_type": "APPROXIMATE",
      "viewport": {
        "southwest": {
          "lat": 45.3408239,
          "lng": -122.8721128
        },
        "northeast": {
          "lat": 45.3721865,
          "lng": -122.8080832
        }
      },
      "bounds": {
        "southwest": {
          "lat": 45.3458580,
          "lng": -122.8697890
        },
        "northeast": {
          "lat": 45.3755230,
          "lng": -122.8089840
        }
      }
    }
  } ]
}
