{
  "status": "OK",
  "results": [ {
    "types": [ "locality", "political" ],
    "formatted_address": "Springfield, OR, USA",
    "address_components": [ {
      "long_name": "Springfield",
      "short_name": "Springfield",
      "types": [ "locality", "political" ]
    }, {
      "long_name": "Eugene-Springfield",
      "short_name": "Eugene-Springfield",
      "types": [ "administrative_area_level_3", "political" ]
    }, {
      "long_name": "Lane",
      "short_name": "Lane",
      "types": [ "administrative_area_level_2", "political" ]
    }, {
      "long_name": "Oregon",
      "short_name": "OR",
      "types": [ "administrative_area_level_1", "political" ]
    }, {
      "long_name": "United States",
      "short_name": "US",
      "types": [ "country", "political" ]
    } ],
    "geometry": {
      "location": {
        "lat": 44.0462362,
        "lng": -123.0220289
      },
      "location_type": "APPROXIMATE",
      "viewport": {
        "southwest": {
          "lat": 43.9820404,
          "lng": -123.1500883
        },
        "northeast": {
          "lat": 44.1103625,
          "lng": -122.8939695
        }
      },
      "bounds": {
        "southwest": {
          "lat": 44.0272439,
          "lng": -123.0508960
        },
        "northeast": {
          "lat": 44.0954590,
          "lng": -122.8797300
        }
      }
    }
  } ]
}
