{
  "status": "OK",
  "results": [ {
    "types": [ "locality", "political" ],
    "formatted_address": "Sweet Home, OR, USA",
    "address_components": [ {
      "long_name": "Sweet Home",
      "short_name": "Sweet Home",
      "types": [ "locality", "political" ]
    }, {
      "long_name": "Linn",
      "short_name": "Linn",
      "types": [ "administrative_area_level_2", "political" ]
    }, {
      "long_name": "Oregon",
      "short_name": "OR",
      "types": [ "administrative_area_level_1", "political" ]
    }, {
      "long_name": "United States",
      "short_name": "US",
      "types": [ "country", "political" ]
    } ],
    "geometry": {
      "location": {
        "lat": 44.3976247,
        "lng": -122.7361959
      },
      "location_type": "APPROXIMATE",
      "viewport": {
        "southwest": {
          "lat": 44.3657264,
          "lng": -122.8002256
        },
        "northeast": {
          "lat": 44.4295056,
          "lng": -122.6721662
        }
      },
      "bounds": {
        "southwest": {
          "lat": 44.3813150,
          "lng": -122.7519320
        },
        "northeast": {
          "lat": 44.4168029,
          "lng": -122.6520540
        }
      }
    }
  } ]
}
