{
  "status": "OK",
  "results": [ {
    "types": [ "locality", "political" ],
    "formatted_address": "Troutdale, OR, USA",
    "address_components": [ {
      "long_name": "Troutdale",
      "short_name": "Troutdale",
      "types": [ "locality", "political" ]
    }, {
      "long_name": "Multnomah",
      "short_name": "Multnomah",
      "types": [ "administrative_area_level_2", "political" ]
    }, {
      "long_name": "Oregon",
      "short_name": "OR",
      "types": [ "administrative_area_level_1", "political" ]
    }, {
      "long_name": "United States",
      "short_name": "US",
      "types": [ "country", "political" ]
    } ],
    "geometry": {
      "location": {
        "lat": 45.5392862,
        "lng": -122.3873133
      },
      "location_type": "APPROXIMATE",
      "viewport": {
        "southwest": {
          "lat": 45.5080164,
          "lng": -122.4513430
        },
        "northeast": {
          "lat": 45.5705386,
          "lng": -122.3232836
        }
      },
      "bounds": {
        "southwest": {
          "lat": 45.5064020,
          "lng": -122.4309560
        },
        "northeast": {
          "lat": 45.5608529,
          "lng": -122.3671550
        }
      }
    }
  } ]
}
