{
  "status": "OK",
  "results": [ {
    "types": [ "locality", "political" ],
    "formatted_address": "Alfred, NY, USA",
    "address_components": [ {
      "long_name": "Alfred",
      "short_name": "Alfred",
      "types": [ "locality", "political" ]
    }, {
      "long_name": "Allegany",
      "short_name": "Allegany",
      "types": [ "administrative_area_level_2", "political" ]
    }, {
      "long_name": "New York",
      "short_name": "NY",
      "types": [ "administrative_area_level_1", "political" ]
    }, {
      "long_name": "United States",
      "short_name": "US",
      "types": [ "country", "political" ]
    } ],
    "geometry": {
      "location": {
        "lat": 42.2542366,
        "lng": -77.7905509
      },
      "location_type": "APPROXIMATE",
      "viewport": {
        "southwest": {
          "lat": 42.2459773,
          "lng": -77.8065583
        },
        "northeast": {
          "lat": 42.2624949,
          "lng": -77.7745435
        }
      },
      "bounds": {
        "southwest": {
          "lat": 42.2421820,
          "lng": -77.8032230
        },
        "northeast": {
          "lat": 42.2656620,
          "lng": -77.7780210
        }
      }
    }
  } ]
}
