{
  "status": "OK",
  "results": [ {
    "types": [ "locality", "political" ],
    "formatted_address": "Attica, NY, USA",
    "address_components": [ {
      "long_name": "Attica",
      "short_name": "Attica",
      "types": [ "locality", "political" ]
    }, {
      "long_name": "Wyoming",
      "short_name": "Wyoming",
      "types": [ "administrative_area_level_2", "political" ]
    }, {
      "long_name": "New York",
      "short_name": "NY",
      "types": [ "administrative_area_level_1", "political" ]
    }, {
      "long_name": "United States",
      "short_name": "US",
      "types": [ "country", "political" ]
    } ],
    "geometry": {
      "location": {
        "lat": 42.8642267,
        "lng": -78.2802946
      },
      "location_type": "APPROXIMATE",
      "viewport": {
        "southwest": {
          "lat": 42.8560477,
          "lng": -78.2963020
        },
        "northeast": {
          "lat": 42.8724046,
          "lng": -78.2642872
        }
      },
      "bounds": {
        "southwest": {
          "lat": 42.8555230,
          "lng": -78.2953840
        },
        "northeast": {
          "lat": 42.8790459,
          "lng": -78.2600350
        }
      }
    }
  } ]
}
