{
  "status": "OK",
  "results": [ {
    "types": [ "locality", "political" ],
    "formatted_address": "Auburn, NY, USA",
    "address_components": [ {
      "long_name": "Auburn",
      "short_name": "Auburn",
      "types": [ "locality", "political" ]
    }, {
      "long_name": "Cayuga",
      "short_name": "Cayuga",
      "types": [ "administrative_area_level_2", "political" ]
    }, {
      "long_name": "New York",
      "short_name": "NY",
      "types": [ "administrative_area_level_1", "political" ]
    }, {
      "long_name": "United States",
      "short_name": "US",
      "types": [ "country", "political" ]
    } ],
    "geometry": {
      "location": {
        "lat": 42.9317335,
        "lng": -76.5660529
      },
      "location_type": "APPROXIMATE",
      "viewport": {
        "southwest": {
          "lat": 42.9153923,
          "lng": -76.5980677
        },
        "northeast": {
          "lat": 42.9480703,
          "lng": -76.5340381
        }
      },
      "bounds": {
        "southwest": {
          "lat": 42.9066029,
          "lng": -76.6008240
        },
        "northeast": {
          "lat": 42.9592680,
          "lng": -76.5369149
        }
      }
    }
  } ]
}
