{
  "status": "OK",
  "results": [ {
    "types": [ "locality", "political" ],
    "formatted_address": "Bedford, NY, USA",
    "address_components": [ {
      "long_name": "Bedford",
      "short_name": "Bedford",
      "types": [ "locality", "political" ]
    }, {
      "long_name": "Westchester",
      "short_name": "Westchester",
      "types": [ "administrative_area_level_2", "political" ]
    }, {
      "long_name": "New York",
      "short_name": "NY",
      "types": [ "administrative_area_level_1", "political" ]
    }, {
      "long_name": "United States",
      "short_name": "US",
      "types": [ "country", "political" ]
    } ],
    "geometry": {
      "location": {
        "lat": 41.2042620,
        "lng": -73.6437397
      },
      "location_type": "APPROXIMATE",
      "viewport": {
        "southwest": {
          "lat": 41.1874701,
          "lng": -73.6757545
        },
        "northeast": {
          "lat": 41.2210496,
          "lng": -73.6117249
        }
      },
      "bounds": {
        "southwest": {
          "lat": 41.1760449,
          "lng": -73.6682079
        },
        "northeast": {
          "lat": 41.2137440,
          "lng": -73.6241479
        }
      }
    }
  } ]
}
