{
  "status": "OK",
  "results": [ {
    "types": [ "locality", "political" ],
    "formatted_address": "Canton, NY, USA",
    "address_components": [ {
      "long_name": "Canton",
      "short_name": "Canton",
      "types": [ "locality", "political" ]
    }, {
      "long_name": "St. Lawrence",
      "short_name": "St. Lawrence",
      "types": [ "administrative_area_level_2", "political" ]
    }, {
      "long_name": "New York",
      "short_name": "NY",
      "types": [ "administrative_area_level_1", "political" ]
    }, {
      "long_name": "United States",
      "short_name": "US",
      "types": [ "country", "political" ]
    } ],
    "geometry": {
      "location": {
        "lat": 44.5956163,
        "lng": -75.1690942
      },
      "location_type": "APPROXIMATE",
      "viewport": {
        "southwest": {
          "lat": 44.5797234,
          "lng": -75.2011090
        },
        "northeast": {
          "lat": 44.6115049,
          "lng": -75.1370794
        }
      },
      "bounds": {
        "southwest": {
          "lat": 44.5791530,
          "lng": -75.1939400
        },
        "northeast": {
          "lat": 44.6231170,
          "lng": -75.1341530
        }
      }
    }
  } ]
}
