{
  "status": "OK",
  "results": [ {
    "types": [ "locality", "political" ],
    "formatted_address": "Carthage, NY, USA",
    "address_components": [ {
      "long_name": "Carthage",
      "short_name": "Carthage",
      "types": [ "locality", "political" ]
    }, {
      "long_name": "Jefferson",
      "short_name": "Jefferson",
      "types": [ "administrative_area_level_2", "political" ]
    }, {
      "long_name": "New York",
      "short_name": "NY",
      "types": [ "administrative_area_level_1", "political" ]
    }, {
      "long_name": "United States",
      "short_name": "US",
      "types": [ "country", "political" ]
    } ],
    "geometry": {
      "location": {
        "lat": 43.9781236,
        "lng": -75.6093591
      },
      "location_type": "APPROXIMATE",
      "viewport": {
        "southwest": {
          "lat": 43.9620627,
          "lng": -75.6413739
        },
        "northeast": {
          "lat": 43.9941801,
          "lng": -75.5773443
        }
      },
      "bounds": {
        "southwest": {
          "lat": 43.9663970,
          "lng": -75.6283960
        },
        "northeast": {
          "lat": 44.0095589,
          "lng": -75.5831530
        }
      }
    }
  } ]
}
