{
  "status": "OK",
  "results": [ {
    "types": [ "locality", "political" ],
    "formatted_address": "Cazenovia, NY, USA",
    "address_components": [ {
      "long_name": "Cazenovia",
      "short_name": "Cazenovia",
      "types": [ "locality", "political" ]
    }, {
      "long_name": "Madison",
      "short_name": "Madison",
      "types": [ "administrative_area_level_2", "political" ]
    }, {
      "long_name": "New York",
      "short_name": "NY",
      "types": [ "administrative_area_level_1", "political" ]
    }, {
      "long_name": "United States",
      "short_name": "US",
      "types": [ "country", "political" ]
    } ],
    "geometry": {
      "location": {
        "lat": 42.9300668,
        "lng": -75.8526915
      },
      "location_type": "APPROXIMATE",
      "viewport": {
        "southwest": {
          "lat": 42.9218965,
          "lng": -75.8686989
        },
        "northeast": {
          "lat": 42.9382360,
          "lng": -75.8366841
        }
      },
      "bounds": {
        "southwest": {
          "lat": 42.9175320,
          "lng": -75.8677660
        },
        "northeast": {
          "lat": 42.9418520,
          "lng": -75.8332040
        }
      }
    }
  } ]
}
