{
  "status": "OK",
  "results": [ {
    "types": [ "locality", "political" ],
    "formatted_address": "Chatham, NY, USA",
    "address_components": [ {
      "long_name": "Chatham",
      "short_name": "Chatham",
      "types": [ "locality", "political" ]
    }, {
      "long_name": "Columbia",
      "short_name": "Columbia",
      "types": [ "administrative_area_level_2", "political" ]
    }, {
      "long_name": "New York",
      "short_name": "NY",
      "types": [ "administrative_area_level_1", "political" ]
    }, {
      "long_name": "United States",
      "short_name": "US",
      "types": [ "country", "political" ]
    } ],
    "geometry": {
      "location": {
        "lat": 42.3642516,
        "lng": -73.5948391
      },
      "location_type": "APPROXIMATE",
      "viewport": {
        "southwest": {
          "lat": 42.3560067,
          "lng": -73.6108465
        },
        "northeast": {
          "lat": 42.3724954,
          "lng": -73.5788317
        }
      },
      "bounds": {
        "southwest": {
          "lat": 42.3484610,
          "lng": -73.6085849
        },
        "northeast": {
          "lat": 42.3754689,
          "lng": -73.5854880
        }
      }
    }
  } ]
}
