{
  "status": "OK",
  "results": [ {
    "types": [ "locality", "political" ],
    "formatted_address": "Chittenango, NY, USA",
    "address_components": [ {
      "long_name": "Chittenango",
      "short_name": "Chittenango",
      "types": [ "locality", "political" ]
    }, {
      "long_name": "Madison",
      "short_name": "Madison",
      "types": [ "administrative_area_level_2", "political" ]
    }, {
      "long_name": "New York",
      "short_name": "NY",
      "types": [ "administrative_area_level_1", "political" ]
    }, {
      "long_name": "United States",
      "short_name": "US",
      "types": [ "country", "political" ]
    } ],
    "geometry": {
      "location": {
        "lat": 43.0450671,
        "lng": -75.8665800
      },
      "location_type": "APPROXIMATE",
      "viewport": {
        "southwest": {
          "lat": 43.0287560,
          "lng": -75.8985948
        },
        "northeast": {
          "lat": 43.0613738,
          "lng": -75.8345652
        }
      },
      "bounds": {
        "southwest": {
          "lat": 43.0285040,
          "lng": -75.9040100
        },
        "northeast": {
          "lat": 43.0602070,
          "lng": -75.8538219
        }
      }
    }
  } ]
}
