{
  "status": "OK",
  "results": [ {
    "types": [ "locality", "political" ],
    "formatted_address": "Cohoes, NY, USA",
    "address_components": [ {
      "long_name": "Cohoes",
      "short_name": "Cohoes",
      "types": [ "locality", "political" ]
    }, {
      "long_name": "Albany",
      "short_name": "Albany",
      "types": [ "administrative_area_level_2", "political" ]
    }, {
      "long_name": "New York",
      "short_name": "NY",
      "types": [ "administrative_area_level_1", "political" ]
    }, {
      "long_name": "United States",
      "short_name": "US",
      "types": [ "country", "political" ]
    } ],
    "geometry": {
      "location": {
        "lat": 42.7742446,
        "lng": -73.7001187
      },
      "location_type": "APPROXIMATE",
      "viewport": {
        "southwest": {
          "lat": 42.7578617,
          "lng": -73.7321335
        },
        "northeast": {
          "lat": 42.7906231,
          "lng": -73.6681039
        }
      },
      "bounds": {
        "southwest": {
          "lat": 42.7511430,
          "lng": -73.7317170
        },
        "northeast": {
          "lat": 42.7940770,
          "lng": -73.6767620
        }
      }
    }
  } ]
}
