{
  "status": "OK",
  "results": [ {
    "types": [ "administrative_area_level_3", "political" ],
    "formatted_address": "Deerpark, NY, USA",
    "address_components": [ {
      "long_name": "Deerpark",
      "short_name": "Deerpark",
      "types": [ "administrative_area_level_3", "political" ]
    }, {
      "long_name": "Orange",
      "short_name": "Orange",
      "types": [ "administrative_area_level_2", "political" ]
    }, {
      "long_name": "New York",
      "short_name": "NY",
      "types": [ "administrative_area_level_1", "political" ]
    }, {
      "long_name": "United States",
      "short_name": "US",
      "types": [ "country", "political" ]
    } ],
    "geometry": {
      "location": {
        "lat": 41.4591459,
        "lng": -74.6634640
      },
      "location_type": "APPROXIMATE",
      "viewport": {
        "southwest": {
          "lat": 41.3922145,
          "lng": -74.7915234
        },
        "northeast": {
          "lat": 41.5260083,
          "lng": -74.5354046
        }
      },
      "bounds": {
        "southwest": {
          "lat": 41.3476930,
          "lng": -74.7626229
        },
        "northeast": {
          "lat": 41.5023939,
          "lng": -74.5297509
        }
      }
    }
  } ]
}
