{
  "status": "OK",
  "results": [ {
    "types": [ "locality", "political" ],
    "formatted_address": "Elmira Heights, NY, USA",
    "address_components": [ {
      "long_name": "Elmira Heights",
      "short_name": "Elmira Heights",
      "types": [ "locality", "political" ]
    }, {
      "long_name": "Chemung",
      "short_name": "Chemung",
      "types": [ "administrative_area_level_2", "political" ]
    }, {
      "long_name": "New York",
      "short_name": "NY",
      "types": [ "administrative_area_level_1", "political" ]
    }, {
      "long_name": "United States",
      "short_name": "US",
      "types": [ "country", "political" ]
    } ],
    "geometry": {
      "location": {
        "lat": 42.1297967,
        "lng": -76.8207898
      },
      "location_type": "APPROXIMATE",
      "viewport": {
        "southwest": {
          "lat": 42.1215211,
          "lng": -76.8367972
        },
        "northeast": {
          "lat": 42.1380712,
          "lng": -76.8047824
        }
      },
      "bounds": {
        "southwest": {
          "lat": 42.1179739,
          "lng": -76.8410750
        },
        "northeast": {
          "lat": 42.1346769,
          "lng": -76.8111930
        }
      }
    }
  } ]
}
