{
  "status": "OK",
  "results": [ {
    "types": [ "locality", "political" ],
    "formatted_address": "Fort Edward, NY, USA",
    "address_components": [ {
      "long_name": "Fort Edward",
      "short_name": "Fort Edward",
      "types": [ "locality", "political" ]
    }, {
      "long_name": "Washington",
      "short_name": "Washington",
      "types": [ "administrative_area_level_2", "political" ]
    }, {
      "long_name": "New York",
      "short_name": "NY",
      "types": [ "administrative_area_level_1", "political" ]
    }, {
      "long_name": "United States",
      "short_name": "US",
      "types": [ "country", "political" ]
    } ],
    "geometry": {
      "location": {
        "lat": 43.2670175,
        "lng": -73.5845597
      },
      "location_type": "APPROXIMATE",
      "viewport": {
        "southwest": {
          "lat": 43.2588921,
          "lng": -73.6005671
        },
        "northeast": {
          "lat": 43.2751418,
          "lng": -73.5685523
        }
      },
      "bounds": {
        "southwest": {
          "lat": 43.2500320,
          "lng": -73.6009809
        },
        "northeast": {
          "lat": 43.2791700,
          "lng": -73.5679069
        }
      }
    }
  } ]
}
