{
  "status": "OK",
  "results": [ {
    "types": [ "locality", "political" ],
    "formatted_address": "Fort Plain, NY, USA",
    "address_components": [ {
      "long_name": "Fort Plain",
      "short_name": "Fort Plain",
      "types": [ "locality", "political" ]
    }, {
      "long_name": "Montgomery",
      "short_name": "Montgomery",
      "types": [ "administrative_area_level_2", "political" ]
    }, {
      "long_name": "New York",
      "short_name": "NY",
      "types": [ "administrative_area_level_1", "political" ]
    }, {
      "long_name": "United States",
      "short_name": "US",
      "types": [ "country", "political" ]
    } ],
    "geometry": {
      "location": {
        "lat": 42.9314616,
        "lng": -74.6226425
      },
      "location_type": "APPROXIMATE",
      "viewport": {
        "southwest": {
          "lat": 42.9232915,
          "lng": -74.6386499
        },
        "northeast": {
          "lat": 42.9396306,
          "lng": -74.6066351
        }
      },
      "bounds": {
        "southwest": {
          "lat": 42.9194350,
          "lng": -74.6412680
        },
        "northeast": {
          "lat": 42.9442570,
          "lng": -74.6123250
        }
      }
    }
  } ]
}
