{
  "status": "OK",
  "results": [ {
    "types": [ "locality", "political" ],
    "formatted_address": "Franklinville, NY, USA",
    "address_components": [ {
      "long_name": "Franklinville",
      "short_name": "Franklinville",
      "types": [ "locality", "political" ]
    }, {
      "long_name": "Cattaraugus",
      "short_name": "Cattaraugus",
      "types": [ "administrative_area_level_2", "political" ]
    }, {
      "long_name": "New York",
      "short_name": "NY",
      "types": [ "administrative_area_level_1", "political" ]
    }, {
      "long_name": "United States",
      "short_name": "US",
      "types": [ "country", "political" ]
    } ],
    "geometry": {
      "location": {
        "lat": 42.3370091,
        "lng": -78.4580761
      },
      "location_type": "APPROXIMATE",
      "viewport": {
        "southwest": {
          "lat": 42.3287606,
          "lng": -78.4740835
        },
        "northeast": {
          "lat": 42.3452565,
          "lng": -78.4420687
        }
      },
      "bounds": {
        "southwest": {
          "lat": 42.3263199,
          "lng": -78.4642269
        },
        "northeast": {
          "lat": 42.3472350,
          "lng": -78.4448060
        }
      }
    }
  } ]
}
