{
  "status": "OK",
  "results": [ {
    "types": [ "locality", "political" ],
    "formatted_address": "Freeport, NY, USA",
    "address_components": [ {
      "long_name": "Freeport",
      "short_name": "Freeport",
      "types": [ "locality", "political" ]
    }, {
      "long_name": "Nassau",
      "short_name": "Nassau",
      "types": [ "administrative_area_level_2", "political" ]
    }, {
      "long_name": "New York",
      "short_name": "NY",
      "types": [ "administrative_area_level_1", "political" ]
    }, {
      "long_name": "United States",
      "short_name": "US",
      "types": [ "country", "political" ]
    } ],
    "geometry": {
      "location": {
        "lat": 40.6576022,
        "lng": -73.5831835
      },
      "location_type": "APPROXIMATE",
      "viewport": {
        "southwest": {
          "lat": 40.6406708,
          "lng": -73.6151983
        },
        "northeast": {
          "lat": 40.6745293,
          "lng": -73.5511687
        }
      },
      "bounds": {
        "southwest": {
          "lat": 40.6233730,
          "lng": -73.6038410
        },
        "northeast": {
          "lat": 40.6735479,
          "lng": -73.5646320
        }
      }
    }
  } ]
}
