{
  "status": "OK",
  "results": [ {
    "types": [ "locality", "political" ],
    "formatted_address": "Greenwich, NY, USA",
    "address_components": [ {
      "long_name": "Greenwich",
      "short_name": "Greenwich",
      "types": [ "locality", "political" ]
    }, {
      "long_name": "Washington",
      "short_name": "Washington",
      "types": [ "administrative_area_level_2", "political" ]
    }, {
      "long_name": "New York",
      "short_name": "NY",
      "types": [ "administrative_area_level_1", "political" ]
    }, {
      "long_name": "United States",
      "short_name": "US",
      "types": [ "country", "political" ]
    } ],
    "geometry": {
      "location": {
        "lat": 43.0906318,
        "lng": -73.4987251
      },
      "location_type": "APPROXIMATE",
      "viewport": {
        "southwest": {
          "lat": 43.0824829,
          "lng": -73.5147325
        },
        "northeast": {
          "lat": 43.0987796,
          "lng": -73.4827177
        }
      },
      "bounds": {
        "southwest": {
          "lat": 43.0747710,
          "lng": -73.5081730
        },
        "northeast": {
          "lat": 43.0981669,
          "lng": -73.4853700
        }
      }
    }
  } ]
}
