{
  "status": "OK",
  "results": [ {
    "types": [ "locality", "political" ],
    "formatted_address": "Hempstead, NY, USA",
    "address_components": [ {
      "long_name": "Hempstead",
      "short_name": "Hempstead",
      "types": [ "locality", "political" ]
    }, {
      "long_name": "Nassau",
      "short_name": "Nassau",
      "types": [ "administrative_area_level_2", "political" ]
    }, {
      "long_name": "New York",
      "short_name": "NY",
      "types": [ "administrative_area_level_1", "political" ]
    }, {
      "long_name": "United States",
      "short_name": "US",
      "types": [ "country", "political" ]
    } ],
    "geometry": {
      "location": {
        "lat": 40.7062128,
        "lng": -73.6187397
      },
      "location_type": "APPROXIMATE",
      "viewport": {
        "southwest": {
          "lat": 40.6892937,
          "lng": -73.6507545
        },
        "northeast": {
          "lat": 40.7231276,
          "lng": -73.5867249
        }
      },
      "bounds": {
        "southwest": {
          "lat": 40.6844929,
          "lng": -73.6431729
        },
        "northeast": {
          "lat": 40.7213740,
          "lng": -73.5984900
        }
      }
    }
  } ]
}
