{
  "status": "OK",
  "results": [ {
    "types": [ "locality", "political" ],
    "formatted_address": "Homer, NY, USA",
    "address_components": [ {
      "long_name": "Homer",
      "short_name": "Homer",
      "types": [ "locality", "political" ]
    }, {
      "long_name": "Cortland",
      "short_name": "Cortland",
      "types": [ "administrative_area_level_2", "political" ]
    }, {
      "long_name": "New York",
      "short_name": "NY",
      "types": [ "administrative_area_level_1", "political" ]
    }, {
      "long_name": "United States",
      "short_name": "US",
      "types": [ "country", "political" ]
    } ],
    "geometry": {
      "location": {
        "lat": 42.6370141,
        "lng": -76.1788174
      },
      "location_type": "APPROXIMATE",
      "viewport": {
        "southwest": {
          "lat": 42.6205950,
          "lng": -76.2108322
        },
        "northeast": {
          "lat": 42.6534289,
          "lng": -76.1468026
        }
      },
      "bounds": {
        "southwest": {
          "lat": 42.6170399,
          "lng": -76.2028060
        },
        "northeast": {
          "lat": 42.6526080,
          "lng": -76.1721910
        }
      }
    }
  } ]
}
