{
  "status": "OK",
  "results": [ {
    "types": [ "locality", "political" ],
    "formatted_address": "Huntington Bay, NY, USA",
    "address_components": [ {
      "long_name": "Huntington Bay",
      "short_name": "Huntington Bay",
      "types": [ "locality", "political" ]
    }, {
      "long_name": "Suffolk",
      "short_name": "Suffolk",
      "types": [ "administrative_area_level_2", "political" ]
    }, {
      "long_name": "New York",
      "short_name": "NY",
      "types": [ "administrative_area_level_1", "political" ]
    }, {
      "long_name": "United States",
      "short_name": "US",
      "types": [ "country", "political" ]
    } ],
    "geometry": {
      "location": {
        "lat": 40.8998203,
        "lng": -73.4148418
      },
      "location_type": "APPROXIMATE",
      "viewport": {
        "southwest": {
          "lat": 40.8913859,
          "lng": -73.4308492
        },
        "northeast": {
          "lat": 40.9082536,
          "lng": -73.3988344
        }
      },
      "bounds": {
        "southwest": {
          "lat": 40.8920980,
          "lng": -73.4344639
        },
        "northeast": {
          "lat": 40.9142559,
          "lng": -73.3881390
        }
      }
    }
  } ]
}
