{
  "status": "OK",
  "results": [ {
    "types": [ "locality", "political" ],
    "formatted_address": "Ilion, NY, USA",
    "address_components": [ {
      "long_name": "Ilion",
      "short_name": "Ilion",
      "types": [ "locality", "political" ]
    }, {
      "long_name": "Herkimer",
      "short_name": "Herkimer",
      "types": [ "administrative_area_level_2", "political" ]
    }, {
      "long_name": "New York",
      "short_name": "NY",
      "types": [ "administrative_area_level_1", "political" ]
    }, {
      "long_name": "United States",
      "short_name": "US",
      "types": [ "country", "political" ]
    } ],
    "geometry": {
      "location": {
        "lat": 43.0150703,
        "lng": -75.0354347
      },
      "location_type": "APPROXIMATE",
      "viewport": {
        "southwest": {
          "lat": 42.9987513,
          "lng": -75.0674495
        },
        "northeast": {
          "lat": 43.0313850,
          "lng": -75.0034199
        }
      },
      "bounds": {
        "southwest": {
          "lat": 42.9973500,
          "lng": -75.0594629
        },
        "northeast": {
          "lat": 43.0240460,
          "lng": -75.0180050
        }
      }
    }
  } ]
}
