{
  "status": "OK",
  "results": [ {
    "types": [ "locality", "political" ],
    "formatted_address": "Irondequoit, NY, USA",
    "address_components": [ {
      "long_name": "Irondequoit",
      "short_name": "Irondequoit",
      "types": [ "locality", "political" ]
    }, {
      "long_name": "Monroe",
      "short_name": "Monroe",
      "types": [ "administrative_area_level_2", "political" ]
    }, {
      "long_name": "New York",
      "short_name": "NY",
      "types": [ "administrative_area_level_1", "political" ]
    }, {
      "long_name": "United States",
      "short_name": "US",
      "types": [ "country", "political" ]
    } ],
    "geometry": {
      "location": {
        "lat": 43.2133955,
        "lng": -77.5797226
      },
      "location_type": "APPROXIMATE",
      "viewport": {
        "southwest": {
          "lat": 43.1808587,
          "lng": -77.6437523
        },
        "northeast": {
          "lat": 43.2459150,
          "lng": -77.5156929
        }
      },
      "bounds": {
        "southwest": {
          "lat": 43.1667260,
          "lng": -77.6234250
        },
        "northeast": {
          "lat": 43.2585920,
          "lng": -77.5213210
        }
      }
    }
  } ]
}
