{
  "status": "OK",
  "results": [ {
    "types": [ "locality", "political" ],
    "formatted_address": "Ithaca, NY, USA",
    "address_components": [ {
      "long_name": "Ithaca",
      "short_name": "Ithaca",
      "types": [ "locality", "political" ]
    }, {
      "long_name": "Tompkins",
      "short_name": "Tompkins",
      "types": [ "administrative_area_level_2", "political" ]
    }, {
      "long_name": "New York",
      "short_name": "NY",
      "types": [ "administrative_area_level_1", "political" ]
    }, {
      "long_name": "United States",
      "short_name": "US",
      "types": [ "country", "political" ]
    } ],
    "geometry": {
      "location": {
        "lat": 42.4406284,
        "lng": -76.4966071
      },
      "location_type": "APPROXIMATE",
      "viewport": {
        "southwest": {
          "lat": 42.4241576,
          "lng": -76.5286219
        },
        "northeast": {
          "lat": 42.4570949,
          "lng": -76.4645923
        }
      },
      "bounds": {
        "southwest": {
          "lat": 42.4183270,
          "lng": -76.5269469
        },
        "northeast": {
          "lat": 42.4670790,
          "lng": -76.4698030
        }
      }
    }
  } ]
}
