{
  "status": "OK",
  "results": [ {
    "types": [ "locality", "political" ],
    "formatted_address": "Johnson City, NY, USA",
    "address_components": [ {
      "long_name": "Johnson City",
      "short_name": "Johnson City",
      "types": [ "locality", "political" ]
    }, {
      "long_name": "Broome",
      "short_name": "Broome",
      "types": [ "administrative_area_level_2", "political" ]
    }, {
      "long_name": "New York",
      "short_name": "NY",
      "types": [ "administrative_area_level_1", "political" ]
    }, {
      "long_name": "United States",
      "short_name": "US",
      "types": [ "country", "political" ]
    } ],
    "geometry": {
      "location": {
        "lat": 42.1156308,
        "lng": -75.9588092
      },
      "location_type": "APPROXIMATE",
      "viewport": {
        "southwest": {
          "lat": 42.0990748,
          "lng": -75.9908240
        },
        "northeast": {
          "lat": 42.1321825,
          "lng": -75.9267944
        }
      },
      "bounds": {
        "southwest": {
          "lat": 42.0947910,
          "lng": -75.9838450
        },
        "northeast": {
          "lat": 42.1466050,
          "lng": -75.9451349
        }
      }
    }
  } ]
}
