{
  "status": "OK",
  "results": [ {
    "types": [ "locality", "political" ],
    "formatted_address": "Kenmore, NY, USA",
    "address_components": [ {
      "long_name": "Kenmore",
      "short_name": "Kenmore",
      "types": [ "locality", "political" ]
    }, {
      "long_name": "Erie",
      "short_name": "Erie",
      "types": [ "administrative_area_level_2", "political" ]
    }, {
      "long_name": "New York",
      "short_name": "NY",
      "types": [ "administrative_area_level_1", "political" ]
    }, {
      "long_name": "United States",
      "short_name": "US",
      "types": [ "country", "political" ]
    } ],
    "geometry": {
      "location": {
        "lat": 42.9658907,
        "lng": -78.8700360
      },
      "location_type": "APPROXIMATE",
      "viewport": {
        "southwest": {
          "lat": 42.9577252,
          "lng": -78.8860434
        },
        "northeast": {
          "lat": 42.9740551,
          "lng": -78.8540286
        }
      },
      "bounds": {
        "southwest": {
          "lat": 42.9585710,
          "lng": -78.8892779
        },
        "northeast": {
          "lat": 42.9732399,
          "lng": -78.8530320
        }
      }
    }
  } ]
}
