{
  "status": "OK",
  "results": [ {
    "types": [ "locality", "political" ],
    "formatted_address": "Kings Point, NY, USA",
    "address_components": [ {
      "long_name": "Kings Point",
      "short_name": "Kings Point",
      "types": [ "locality", "political" ]
    }, {
      "long_name": "Nassau",
      "short_name": "Nassau",
      "types": [ "administrative_area_level_2", "political" ]
    }, {
      "long_name": "New York",
      "short_name": "NY",
      "types": [ "administrative_area_level_1", "political" ]
    }, {
      "long_name": "United States",
      "short_name": "US",
      "types": [ "country", "political" ]
    } ],
    "geometry": {
      "location": {
        "lat": 40.8198231,
        "lng": -73.7351316
      },
      "location_type": "APPROXIMATE",
      "viewport": {
        "southwest": {
          "lat": 40.8029329,
          "lng": -73.7671464
        },
        "northeast": {
          "lat": 40.8367090,
          "lng": -73.7031168
        }
      },
      "bounds": {
        "southwest": {
          "lat": 40.7975650,
          "lng": -73.7653000
        },
        "northeast": {
          "lat": 40.8404249,
          "lng": -73.7125750
        }
      }
    }
  } ]
}
