{
  "status": "OK",
  "results": [ {
    "types": [ "locality", "political" ],
    "formatted_address": "Lake Success, NY, USA",
    "address_components": [ {
      "long_name": "Lake Success",
      "short_name": "Lake Success",
      "types": [ "locality", "political" ]
    }, {
      "long_name": "Nassau",
      "short_name": "Nassau",
      "types": [ "administrative_area_level_2", "political" ]
    }, {
      "long_name": "New York",
      "short_name": "NY",
      "types": [ "administrative_area_level_1", "political" ]
    }, {
      "long_name": "United States",
      "short_name": "US",
      "types": [ "country", "political" ]
    } ],
    "geometry": {
      "location": {
        "lat": 40.7706572,
        "lng": -73.7176312
      },
      "location_type": "APPROXIMATE",
      "viewport": {
        "southwest": {
          "lat": 40.7537545,
          "lng": -73.7496460
        },
        "northeast": {
          "lat": 40.7875556,
          "lng": -73.6856164
        }
      },
      "bounds": {
        "southwest": {
          "lat": 40.7525300,
          "lng": -73.7296970
        },
        "northeast": {
          "lat": 40.7827780,
          "lng": -73.6887780
        }
      }
    }
  } ]
}
