{
  "status": "OK",
  "results": [ {
    "types": [ "locality", "political" ],
    "formatted_address": "Long Beach, NY, USA",
    "address_components": [ {
      "long_name": "Long Beach",
      "short_name": "Long Beach",
      "types": [ "locality", "political" ]
    }, {
      "long_name": "Nassau",
      "short_name": "Nassau",
      "types": [ "administrative_area_level_2", "political" ]
    }, {
      "long_name": "New York",
      "short_name": "NY",
      "types": [ "administrative_area_level_1", "political" ]
    }, {
      "long_name": "United States",
      "short_name": "US",
      "types": [ "country", "political" ]
    } ],
    "geometry": {
      "location": {
        "lat": 40.5884373,
        "lng": -73.6579080
      },
      "location_type": "APPROXIMATE",
      "viewport": {
        "southwest": {
          "lat": 40.5714883,
          "lng": -73.6899228
        },
        "northeast": {
          "lat": 40.6053820,
          "lng": -73.6258932
        }
      },
      "bounds": {
        "southwest": {
          "lat": 40.5746320,
          "lng": -73.7013990
        },
        "northeast": {
          "lat": 40.5958390,
          "lng": -73.6357020
        }
      }
    }
  } ]
}
