{
  "status": "OK",
  "results": [ {
    "types": [ "locality", "political" ],
    "formatted_address": "Menands, NY, USA",
    "address_components": [ {
      "long_name": "Menands",
      "short_name": "Menands",
      "types": [ "locality", "political" ]
    }, {
      "long_name": "Albany",
      "short_name": "Albany",
      "types": [ "administrative_area_level_2", "political" ]
    }, {
      "long_name": "New York",
      "short_name": "NY",
      "types": [ "administrative_area_level_1", "political" ]
    }, {
      "long_name": "United States",
      "short_name": "US",
      "types": [ "country", "political" ]
    } ],
    "geometry": {
      "location": {
        "lat": 42.6920233,
        "lng": -73.7245639
      },
      "location_type": "APPROXIMATE",
      "viewport": {
        "southwest": {
          "lat": 42.6756187,
          "lng": -73.7565787
        },
        "northeast": {
          "lat": 42.7084236,
          "lng": -73.6925491
        }
      },
      "bounds": {
        "southwest": {
          "lat": 42.6728789,
          "lng": -73.7518350
        },
        "northeast": {
          "lat": 42.7090770,
          "lng": -73.7024630
        }
      }
    }
  } ]
}
