{
  "status": "OK",
  "results": [ {
    "types": [ "locality", "political" ],
    "formatted_address": "Newburgh, NY, USA",
    "address_components": [ {
      "long_name": "Newburgh",
      "short_name": "Newburgh",
      "types": [ "locality", "political" ]
    }, {
      "long_name": "Orange",
      "short_name": "Orange",
      "types": [ "administrative_area_level_2", "political" ]
    }, {
      "long_name": "New York",
      "short_name": "NY",
      "types": [ "administrative_area_level_1", "political" ]
    }, {
      "long_name": "United States",
      "short_name": "US",
      "types": [ "country", "political" ]
    } ],
    "geometry": {
      "location": {
        "lat": 41.5034271,
        "lng": -74.0104178
      },
      "location_type": "APPROXIMATE",
      "viewport": {
        "southwest": {
          "lat": 41.4867121,
          "lng": -74.0424326
        },
        "northeast": {
          "lat": 41.5201377,
          "lng": -73.9784030
        }
      },
      "bounds": {
        "southwest": {
          "lat": 41.4872120,
          "lng": -74.0486380
        },
        "northeast": {
          "lat": 41.5192080,
          "lng": -73.9947840
        }
      }
    }
  } ]
}
