{
  "status": "OK",
  "results": [ {
    "types": [ "locality", "political" ],
    "formatted_address": "Niagara Falls, ON, Canada",
    "address_components": [ {
      "long_name": "Niagara Falls",
      "short_name": "Niagara Falls",
      "types": [ "locality", "political" ]
    }, {
      "long_name": "Niagara Regional Municipality",
      "short_name": "Niagara Regional Municipality",
      "types": [ "administrative_area_level_2", "political" ]
    }, {
      "long_name": "Ontario",
      "short_name": "ON",
      "types": [ "administrative_area_level_1", "political" ]
    }, {
      "long_name": "Canada",
      "short_name": "CA",
      "types": [ "country", "political" ]
    } ],
    "geometry": {
      "location": {
        "lat": 43.1053160,
        "lng": -79.0732430
      },
      "location_type": "APPROXIMATE",
      "viewport": {
        "southwest": {
          "lat": 43.0401098,
          "lng": -79.2013024
        },
        "northeast": {
          "lat": 43.1704528,
          "lng": -78.9451836
        }
      },
      "bounds": {
        "southwest": {
          "lat": 42.9594530,
          "lng": -79.1762840
        },
        "northeast": {
          "lat": 43.1482470,
          "lng": -78.9994640
        }
      }
    }
  } ]
}
