{
  "status": "OK",
  "results": [ {
    "types": [ "locality", "political" ],
    "formatted_address": "Old Westbury, NY, USA",
    "address_components": [ {
      "long_name": "Old Westbury",
      "short_name": "Old Westbury",
      "types": [ "locality", "political" ]
    }, {
      "long_name": "Nassau",
      "short_name": "Nassau",
      "types": [ "administrative_area_level_2", "political" ]
    }, {
      "long_name": "New York",
      "short_name": "NY",
      "types": [ "administrative_area_level_1", "political" ]
    }, {
      "long_name": "United States",
      "short_name": "US",
      "types": [ "country", "political" ]
    } ],
    "geometry": {
      "location": {
        "lat": 40.7887113,
        "lng": -73.5995717
      },
      "location_type": "APPROXIMATE",
      "viewport": {
        "southwest": {
          "lat": 40.7718132,
          "lng": -73.6315865
        },
        "northeast": {
          "lat": 40.8056051,
          "lng": -73.5675569
        }
      },
      "bounds": {
        "southwest": {
          "lat": 40.7565410,
          "lng": -73.6257859
        },
        "northeast": {
          "lat": 40.8161939,
          "lng": -73.5646019
        }
      }
    }
  } ]
}
