{
  "status": "OK",
  "results": [ {
    "types": [ "locality", "political" ],
    "formatted_address": "Perry, NY, USA",
    "address_components": [ {
      "long_name": "Perry",
      "short_name": "Perry",
      "types": [ "locality", "political" ]
    }, {
      "long_name": "Wyoming",
      "short_name": "Wyoming",
      "types": [ "administrative_area_level_2", "political" ]
    }, {
      "long_name": "New York",
      "short_name": "NY",
      "types": [ "administrative_area_level_1", "political" ]
    }, {
      "long_name": "United States",
      "short_name": "US",
      "types": [ "country", "political" ]
    } ],
    "geometry": {
      "location": {
        "lat": 42.7156175,
        "lng": -78.0055618
      },
      "location_type": "APPROXIMATE",
      "viewport": {
        "southwest": {
          "lat": 42.6992191,
          "lng": -78.0375766
        },
        "northeast": {
          "lat": 42.7320115,
          "lng": -77.9735470
        }
      },
      "bounds": {
        "southwest": {
          "lat": 42.7027209,
          "lng": -78.0255480
        },
        "northeast": {
          "lat": 42.7303870,
          "lng": -77.9864939
        }
      }
    }
  } ]
}
