{
  "status": "OK",
  "results": [ {
    "types": [ "locality", "political" ],
    "formatted_address": "Philmont, NY, USA",
    "address_components": [ {
      "long_name": "Philmont",
      "short_name": "Philmont",
      "types": [ "locality", "political" ]
    }, {
      "long_name": "Columbia",
      "short_name": "Columbia",
      "types": [ "administrative_area_level_2", "political" ]
    }, {
      "long_name": "New York",
      "short_name": "NY",
      "types": [ "administrative_area_level_1", "political" ]
    }, {
      "long_name": "United States",
      "short_name": "US",
      "types": [ "country", "political" ]
    } ],
    "geometry": {
      "location": {
        "lat": 42.2484210,
        "lng": -73.6531760
      },
      "location_type": "APPROXIMATE",
      "viewport": {
        "southwest": {
          "lat": 42.2401609,
          "lng": -73.6691834
        },
        "northeast": {
          "lat": 42.2566800,
          "lng": -73.6371686
        }
      },
      "bounds": {
        "southwest": {
          "lat": 42.2373739,
          "lng": -73.6580379
        },
        "northeast": {
          "lat": 42.2573630,
          "lng": -73.6338509
        }
      }
    }
  } ]
}
