{
  "status": "OK",
  "results": [ {
    "types": [ "locality", "political" ],
    "formatted_address": "Port Washington, NY, USA",
    "address_components": [ {
      "long_name": "Port Washington",
      "short_name": "Port Washington",
      "types": [ "locality", "political" ]
    }, {
      "long_name": "Nassau",
      "short_name": "Nassau",
      "types": [ "administrative_area_level_2", "political" ]
    }, {
      "long_name": "New York",
      "short_name": "NY",
      "types": [ "administrative_area_level_1", "political" ]
    }, {
      "long_name": "United States",
      "short_name": "US",
      "types": [ "country", "political" ]
    } ],
    "geometry": {
      "location": {
        "lat": 40.8256561,
        "lng": -73.6981858
      },
      "location_type": "APPROXIMATE",
      "viewport": {
        "southwest": {
          "lat": 40.8087674,
          "lng": -73.7302006
        },
        "northeast": {
          "lat": 40.8425405,
          "lng": -73.6661710
        }
      },
      "bounds": {
        "southwest": {
          "lat": 40.8051059,
          "lng": -73.7217749
        },
        "northeast": {
          "lat": 40.8539729,
          "lng": -73.6496729
        }
      }
    }
  } ]
}
