{
  "status": "OK",
  "results": [ {
    "types": [ "locality", "political" ],
    "formatted_address": "Poughkeepsie, NY, USA",
    "address_components": [ {
      "long_name": "Poughkeepsie",
      "short_name": "Poughkeepsie",
      "types": [ "locality", "political" ]
    }, {
      "long_name": "Dutchess",
      "short_name": "Dutchess",
      "types": [ "administrative_area_level_2", "political" ]
    }, {
      "long_name": "New York",
      "short_name": "NY",
      "types": [ "administrative_area_level_1", "political" ]
    }, {
      "long_name": "United States",
      "short_name": "US",
      "types": [ "country", "political" ]
    } ],
    "geometry": {
      "location": {
        "lat": 41.7003713,
        "lng": -73.9209701
      },
      "location_type": "APPROXIMATE",
      "viewport": {
        "southwest": {
          "lat": 41.6837073,
          "lng": -73.9529849
        },
        "northeast": {
          "lat": 41.7170310,
          "lng": -73.8889553
        }
      },
      "bounds": {
        "southwest": {
          "lat": 41.6704800,
          "lng": -73.9466820
        },
        "northeast": {
          "lat": 41.7173790,
          "lng": -73.8906600
        }
      }
    }
  } ]
}
