{
  "status": "OK",
  "results": [ {
    "types": [ "locality", "political" ],
    "formatted_address": "Red Hook, NY 12571, USA",
    "address_components": [ {
      "long_name": "Red Hook",
      "short_name": "Red Hook",
      "types": [ "locality", "political" ]
    }, {
      "long_name": "Dutchess",
      "short_name": "Dutchess",
      "types": [ "administrative_area_level_2", "political" ]
    }, {
      "long_name": "New York",
      "short_name": "NY",
      "types": [ "administrative_area_level_1", "political" ]
    }, {
      "long_name": "United States",
      "short_name": "US",
      "types": [ "country", "political" ]
    }, {
      "long_name": "12571",
      "short_name": "12571",
      "types": [ "postal_code" ]
    } ],
    "geometry": {
      "location": {
        "lat": 41.9950919,
        "lng": -73.8754114
      },
      "location_type": "APPROXIMATE",
      "viewport": {
        "southwest": {
          "lat": 41.9867987,
          "lng": -73.8914188
        },
        "northeast": {
          "lat": 42.0033840,
          "lng": -73.8594040
        }
      },
      "bounds": {
        "southwest": {
          "lat": 41.9861740,
          "lng": -73.8875760
        },
        "northeast": {
          "lat": 42.0063860,
          "lng": -73.8652310
        }
      }
    }
  } ]
}
