{
  "status": "OK",
  "results": [ {
    "types": [ "locality", "political" ],
    "formatted_address": "Rotterdam, NY, USA",
    "address_components": [ {
      "long_name": "Rotterdam",
      "short_name": "Rotterdam",
      "types": [ "locality", "political" ]
    }, {
      "long_name": "Schenectady",
      "short_name": "Schenectady",
      "types": [ "administrative_area_level_2", "political" ]
    }, {
      "long_name": "New York",
      "short_name": "NY",
      "types": [ "administrative_area_level_1", "political" ]
    }, {
      "long_name": "United States",
      "short_name": "US",
      "types": [ "country", "political" ]
    } ],
    "geometry": {
      "location": {
        "lat": 42.7870209,
        "lng": -73.9709583
      },
      "location_type": "APPROXIMATE",
      "viewport": {
        "southwest": {
          "lat": 42.7542576,
          "lng": -74.0349880
        },
        "northeast": {
          "lat": 42.8197669,
          "lng": -73.9069286
        }
      },
      "bounds": {
        "southwest": {
          "lat": 42.7594510,
          "lng": -73.9997169
        },
        "northeast": {
          "lat": 42.8016870,
          "lng": -73.9067850
        }
      }
    }
  } ]
}
