{
  "status": "OK",
  "results": [ {
    "types": [ "locality", "political" ],
    "formatted_address": "Rye Brook, NY, USA",
    "address_components": [ {
      "long_name": "Rye Brook",
      "short_name": "Rye Brook",
      "types": [ "locality", "political" ]
    }, {
      "long_name": "Westchester",
      "short_name": "Westchester",
      "types": [ "administrative_area_level_2", "political" ]
    }, {
      "long_name": "New York",
      "short_name": "NY",
      "types": [ "administrative_area_level_1", "political" ]
    }, {
      "long_name": "United States",
      "short_name": "US",
      "types": [ "country", "political" ]
    } ],
    "geometry": {
      "location": {
        "lat": 41.0192641,
        "lng": -73.6834621
      },
      "location_type": "APPROXIMATE",
      "viewport": {
        "southwest": {
          "lat": 40.9855812,
          "lng": -73.7474918
        },
        "northeast": {
          "lat": 41.0529298,
          "lng": -73.6194324
        }
      },
      "bounds": {
        "southwest": {
          "lat": 40.9947030,
          "lng": -73.7067309
        },
        "northeast": {
          "lat": 41.0740709,
          "lng": -73.6665970
        }
      }
    }
  } ]
}
