{
  "status": "OK",
  "results": [ {
    "types": [ "locality", "political" ],
    "formatted_address": "Sackets Harbor, NY, USA",
    "address_components": [ {
      "long_name": "Sackets Harbor",
      "short_name": "Sackets Harbor",
      "types": [ "locality", "political" ]
    }, {
      "long_name": "Jefferson",
      "short_name": "Jefferson",
      "types": [ "administrative_area_level_2", "political" ]
    }, {
      "long_name": "New York",
      "short_name": "NY",
      "types": [ "administrative_area_level_1", "political" ]
    }, {
      "long_name": "United States",
      "short_name": "US",
      "types": [ "country", "political" ]
    } ],
    "geometry": {
      "location": {
        "lat": 43.9461707,
        "lng": -76.1190929
      },
      "location_type": "APPROXIMATE",
      "viewport": {
        "southwest": {
          "lat": 43.9301012,
          "lng": -76.1511077
        },
        "northeast": {
          "lat": 43.9622359,
          "lng": -76.0870781
        }
      },
      "bounds": {
        "southwest": {
          "lat": 43.9302360,
          "lng": -76.1476759
        },
        "northeast": {
          "lat": 43.9563000,
          "lng": -76.0968709
        }
      }
    }
  } ]
}
