{
  "status": "OK",
  "results": [ {
    "types": [ "locality", "political" ],
    "formatted_address": "Saugerties, NY, USA",
    "address_components": [ {
      "long_name": "Saugerties",
      "short_name": "Saugerties",
      "types": [ "locality", "political" ]
    }, {
      "long_name": "Ulster",
      "short_name": "Ulster",
      "types": [ "administrative_area_level_2", "political" ]
    }, {
      "long_name": "New York",
      "short_name": "NY",
      "types": [ "administrative_area_level_1", "political" ]
    }, {
      "long_name": "United States",
      "short_name": "US",
      "types": [ "country", "political" ]
    } ],
    "geometry": {
      "location": {
        "lat": 42.0775906,
        "lng": -73.9529126
      },
      "location_type": "APPROXIMATE",
      "viewport": {
        "southwest": {
          "lat": 42.0610247,
          "lng": -73.9849274
        },
        "northeast": {
          "lat": 42.0941522,
          "lng": -73.9208978
        }
      },
      "bounds": {
        "southwest": {
          "lat": 42.0633840,
          "lng": -73.9713139
        },
        "northeast": {
          "lat": 42.0889540,
          "lng": -73.9261860
        }
      }
    }
  } ]
}
