{
  "status": "OK",
  "results": [ {
    "types": [ "locality", "political" ],
    "formatted_address": "Seneca Falls, NY, USA",
    "address_components": [ {
      "long_name": "Seneca Falls",
      "short_name": "Seneca Falls",
      "types": [ "locality", "political" ]
    }, {
      "long_name": "Seneca",
      "short_name": "Seneca",
      "types": [ "administrative_area_level_2", "political" ]
    }, {
      "long_name": "New York",
      "short_name": "NY",
      "types": [ "administrative_area_level_1", "political" ]
    }, {
      "long_name": "United States",
      "short_name": "US",
      "types": [ "country", "political" ]
    } ],
    "geometry": {
      "location": {
        "lat": 42.9106219,
        "lng": -76.7966215
      },
      "location_type": "APPROXIMATE",
      "viewport": {
        "southwest": {
          "lat": 42.8942751,
          "lng": -76.8286363
        },
        "northeast": {
          "lat": 42.9269643,
          "lng": -76.7646067
        }
      },
      "bounds": {
        "southwest": {
          "lat": 42.8861540,
          "lng": -76.8203379
        },
        "northeast": {
          "lat": 42.9293650,
          "lng": -76.7714500
        }
      }
    }
  } ]
}
