{
  "status": "OK",
  "results": [ {
    "types": [ "locality", "political" ],
    "formatted_address": "Skaneateles, NY, USA",
    "address_components": [ {
      "long_name": "Skaneateles",
      "short_name": "Skaneateles",
      "types": [ "locality", "political" ]
    }, {
      "long_name": "Onondaga",
      "short_name": "Onondaga",
      "types": [ "administrative_area_level_2", "political" ]
    }, {
      "long_name": "New York",
      "short_name": "NY",
      "types": [ "administrative_area_level_1", "political" ]
    }, {
      "long_name": "United States",
      "short_name": "US",
      "types": [ "country", "political" ]
    } ],
    "geometry": {
      "location": {
        "lat": 42.9470110,
        "lng": -76.4291017
      },
      "location_type": "APPROXIMATE",
      "viewport": {
        "southwest": {
          "lat": 42.9388430,
          "lng": -76.4451091
        },
        "northeast": {
          "lat": 42.9551779,
          "lng": -76.4130943
        }
      },
      "bounds": {
        "southwest": {
          "lat": 42.9364390,
          "lng": -76.4448259
        },
        "northeast": {
          "lat": 42.9589969,
          "lng": -76.4092800
        }
      }
    }
  } ]
}
