{
  "status": "OK",
  "results": [ {
    "types": [ "locality", "political" ],
    "formatted_address": "South Nyack, NY, USA",
    "address_components": [ {
      "long_name": "South Nyack",
      "short_name": "South Nyack",
      "types": [ "locality", "political" ]
    }, {
      "long_name": "Rockland",
      "short_name": "Rockland",
      "types": [ "administrative_area_level_2", "political" ]
    }, {
      "long_name": "New York",
      "short_name": "NY",
      "types": [ "administrative_area_level_1", "political" ]
    }, {
      "long_name": "United States",
      "short_name": "US",
      "types": [ "country", "political" ]
    } ],
    "geometry": {
      "location": {
        "lat": 41.0831520,
        "lng": -73.9201369
      },
      "location_type": "APPROXIMATE",
      "viewport": {
        "southwest": {
          "lat": 41.0747411,
          "lng": -73.9361443
        },
        "northeast": {
          "lat": 41.0915619,
          "lng": -73.9041295
        }
      },
      "bounds": {
        "southwest": {
          "lat": 41.0704960,
          "lng": -73.9333810
        },
        "northeast": {
          "lat": 41.0904960,
          "lng": -73.8946799
        }
      }
    }
  } ]
}
