{
  "status": "OK",
  "results": [ {
    "types": [ "locality", "political" ],
    "formatted_address": "Ticonderoga, NY, USA",
    "address_components": [ {
      "long_name": "Ticonderoga",
      "short_name": "Ticonderoga",
      "types": [ "locality", "political" ]
    }, {
      "long_name": "Essex",
      "short_name": "Essex",
      "types": [ "administrative_area_level_2", "political" ]
    }, {
      "long_name": "New York",
      "short_name": "NY",
      "types": [ "administrative_area_level_1", "political" ]
    }, {
      "long_name": "United States",
      "short_name": "US",
      "types": [ "country", "political" ]
    } ],
    "geometry": {
      "location": {
        "lat": 43.8486707,
        "lng": -73.4234531
      },
      "location_type": "APPROXIMATE",
      "viewport": {
        "southwest": {
          "lat": 43.8325749,
          "lng": -73.4554679
        },
        "northeast": {
          "lat": 43.8647622,
          "lng": -73.3914383
        }
      },
      "bounds": {
        "southwest": {
          "lat": 43.8149940,
          "lng": -73.4516089
        },
        "northeast": {
          "lat": 43.8595420,
          "lng": -73.3992739
        }
      }
    }
  } ]
}
