{
  "status": "OK",
  "results": [ {
    "types": [ "locality", "political" ],
    "formatted_address": "Tupper Lake, NY, USA",
    "address_components": [ {
      "long_name": "Tupper Lake",
      "short_name": "Tupper Lake",
      "types": [ "locality", "political" ]
    }, {
      "long_name": "Franklin",
      "short_name": "Franklin",
      "types": [ "administrative_area_level_2", "political" ]
    }, {
      "long_name": "New York",
      "short_name": "NY",
      "types": [ "administrative_area_level_1", "political" ]
    }, {
      "long_name": "United States",
      "short_name": "US",
      "types": [ "country", "political" ]
    } ],
    "geometry": {
      "location": {
        "lat": 44.2239488,
        "lng": -74.4640575
      },
      "location_type": "APPROXIMATE",
      "viewport": {
        "southwest": {
          "lat": 44.2079546,
          "lng": -74.4960723
        },
        "northeast": {
          "lat": 44.2399387,
          "lng": -74.4320427
        }
      },
      "bounds": {
        "southwest": {
          "lat": 44.2164749,
          "lng": -74.4939440
        },
        "northeast": {
          "lat": 44.2498430,
          "lng": -74.4235180
        }
      }
    }
  } ]
}
