{
  "status": "OK",
  "results": [ {
    "types": [ "locality", "political" ],
    "formatted_address": "West Carthage, NY, USA",
    "address_components": [ {
      "long_name": "West Carthage",
      "short_name": "West Carthage",
      "types": [ "locality", "political" ]
    }, {
      "long_name": "Jefferson",
      "short_name": "Jefferson",
      "types": [ "administrative_area_level_2", "political" ]
    }, {
      "long_name": "New York",
      "short_name": "NY",
      "types": [ "administrative_area_level_1", "political" ]
    }, {
      "long_name": "United States",
      "short_name": "US",
      "types": [ "country", "political" ]
    } ],
    "geometry": {
      "location": {
        "lat": 43.9742346,
        "lng": -75.6151927
      },
      "location_type": "APPROXIMATE",
      "viewport": {
        "southwest": {
          "lat": 43.9662042,
          "lng": -75.6312001
        },
        "northeast": {
          "lat": 43.9822639,
          "lng": -75.5991853
        }
      },
      "bounds": {
        "southwest": {
          "lat": 43.9609499,
          "lng": -75.6348979
        },
        "northeast": {
          "lat": 43.9859260,
          "lng": -75.6036699
        }
      }
    }
  } ]
}
