{
  "status": "OK",
  "results": [ {
    "types": [ "locality", "political" ],
    "formatted_address": "Youngstown, NY, USA",
    "address_components": [ {
      "long_name": "Youngstown",
      "short_name": "Youngstown",
      "types": [ "locality", "political" ]
    }, {
      "long_name": "Niagara",
      "short_name": "Niagara",
      "types": [ "administrative_area_level_2", "political" ]
    }, {
      "long_name": "New York",
      "short_name": "NY",
      "types": [ "administrative_area_level_1", "political" ]
    }, {
      "long_name": "United States",
      "short_name": "US",
      "types": [ "country", "political" ]
    } ],
    "geometry": {
      "location": {
        "lat": 43.2472768,
        "lng": -79.0500466
      },
      "location_type": "APPROXIMATE",
      "viewport": {
        "southwest": {
          "lat": 43.2391487,
          "lng": -79.0660540
        },
        "northeast": {
          "lat": 43.2554038,
          "lng": -79.0340392
        }
      },
      "bounds": {
        "southwest": {
          "lat": 43.2367540,
          "lng": -79.0560689
        },
        "northeast": {
          "lat": 43.2592700,
          "lng": -79.0306679
        }
      }
    }
  } ]
}
