{
  "status": "OK",
  "results": [ {
    "types": [ "locality", "political" ],
    "formatted_address": "Allenhurst, NJ, USA",
    "address_components": [ {
      "long_name": "Allenhurst",
      "short_name": "Allenhurst",
      "types": [ "locality", "political" ]
    }, {
      "long_name": "Monmouth",
      "short_name": "Monmouth",
      "types": [ "administrative_area_level_2", "political" ]
    }, {
      "long_name": "New Jersey",
      "short_name": "NJ",
      "types": [ "administrative_area_level_1", "political" ]
    }, {
      "long_name": "United States",
      "short_name": "US",
      "types": [ "country", "political" ]
    } ],
    "geometry": {
      "location": {
        "lat": 40.2362236,
        "lng": -74.0006925
      },
      "location_type": "APPROXIMATE",
      "viewport": {
        "southwest": {
          "lat": 40.2277052,
          "lng": -74.0166999
        },
        "northeast": {
          "lat": 40.2447409,
          "lng": -73.9846851
        }
      },
      "bounds": {
        "southwest": {
          "lat": 40.2327760,
          "lng": -74.0094819
        },
        "northeast": {
          "lat": 40.2398510,
          "lng": -73.9928810
        }
      }
    }
  } ]
}
