{
  "status": "OK",
  "results": [ {
    "types": [ "locality", "political" ],
    "formatted_address": "Atlantic Highlands, NJ, USA",
    "address_components": [ {
      "long_name": "Atlantic Highlands",
      "short_name": "Atlantic Highlands",
      "types": [ "locality", "political" ]
    }, {
      "long_name": "Monmouth",
      "short_name": "Monmouth",
      "types": [ "administrative_area_level_2", "political" ]
    }, {
      "long_name": "New Jersey",
      "short_name": "NJ",
      "types": [ "administrative_area_level_1", "political" ]
    }, {
      "long_name": "United States",
      "short_name": "US",
      "types": [ "country", "political" ]
    } ],
    "geometry": {
      "location": {
        "lat": 40.4078864,
        "lng": -74.0343060
      },
      "location_type": "APPROXIMATE",
      "viewport": {
        "southwest": {
          "lat": 40.3908918,
          "lng": -74.0663208
        },
        "northeast": {
          "lat": 40.4248767,
          "lng": -74.0022912
        }
      },
      "bounds": {
        "southwest": {
          "lat": 40.4017100,
          "lng": -74.0504459
        },
        "northeast": {
          "lat": 40.4443069,
          "lng": -73.9981789
        }
      }
    }
  } ]
}
