{
  "status": "OK",
  "results": [ {
    "types": [ "locality", "political" ],
    "formatted_address": "Bernardsville, NJ, USA",
    "address_components": [ {
      "long_name": "Bernardsville",
      "short_name": "Bernardsville",
      "types": [ "locality", "political" ]
    }, {
      "long_name": "Somerset",
      "short_name": "Somerset",
      "types": [ "administrative_area_level_2", "political" ]
    }, {
      "long_name": "New Jersey",
      "short_name": "NJ",
      "types": [ "administrative_area_level_1", "political" ]
    }, {
      "long_name": "United States",
      "short_name": "US",
      "types": [ "country", "political" ]
    } ],
    "geometry": {
      "location": {
        "lat": 40.7187119,
        "lng": -74.5693240
      },
      "location_type": "APPROXIMATE",
      "viewport": {
        "southwest": {
          "lat": 40.6848758,
          "lng": -74.6333537
        },
        "northeast": {
          "lat": 40.7525308,
          "lng": -74.5052943
        }
      },
      "bounds": {
        "southwest": {
          "lat": 40.6928709,
          "lng": -74.6409760
        },
        "northeast": {
          "lat": 40.7580050,
          "lng": -74.5487510
        }
      }
    }
  } ]
}
