{
  "status": "OK",
  "results": [ {
    "types": [ "administrative_area_level_3", "political" ],
    "formatted_address": "Bernards, NJ, USA",
    "address_components": [ {
      "long_name": "Bernards",
      "short_name": "Bernards",
      "types": [ "administrative_area_level_3", "political" ]
    }, {
      "long_name": "Somerset",
      "short_name": "Somerset",
      "types": [ "administrative_area_level_2", "political" ]
    }, {
      "long_name": "New Jersey",
      "short_name": "NJ",
      "types": [ "administrative_area_level_1", "political" ]
    }, {
      "long_name": "United States",
      "short_name": "US",
      "types": [ "country", "political" ]
    } ],
    "geometry": {
      "location": {
        "lat": 40.6669335,
        "lng": -74.5580454
      },
      "location_type": "APPROXIMATE",
      "viewport": {
        "southwest": {
          "lat": 40.5991915,
          "lng": -74.6861048
        },
        "northeast": {
          "lat": 40.7346067,
          "lng": -74.4299860
        }
      },
      "bounds": {
        "southwest": {
          "lat": 40.6107380,
          "lng": -74.6308689
        },
        "northeast": {
          "lat": 40.7417540,
          "lng": -74.5135110
        }
      }
    }
  } ]
}
