{
  "status": "OK",
  "results": [ {
    "types": [ "administrative_area_level_3", "political" ],
    "formatted_address": "Blairstown Township, NJ, USA",
    "address_components": [ {
      "long_name": "Blairstown Township",
      "short_name": "Blairstown Township",
      "types": [ "administrative_area_level_3", "political" ]
    }, {
      "long_name": "Warren",
      "short_name": "Warren",
      "types": [ "administrative_area_level_2", "political" ]
    }, {
      "long_name": "New Jersey",
      "short_name": "NJ",
      "types": [ "administrative_area_level_1", "political" ]
    }, {
      "long_name": "United States",
      "short_name": "US",
      "types": [ "country", "political" ]
    } ],
    "geometry": {
      "location": {
        "lat": 40.9922980,
        "lng": -74.9910112
      },
      "location_type": "APPROXIMATE",
      "viewport": {
        "southwest": {
          "lat": 40.9586013,
          "lng": -75.0550409
        },
        "northeast": {
          "lat": 41.0259775,
          "lng": -74.9269815
        }
      },
      "bounds": {
        "southwest": {
          "lat": 40.9197160,
          "lng": -75.0633129
        },
        "northeast": {
          "lat": 41.0435850,
          "lng": -74.9376180
        }
      }
    }
  } ]
}
