{
  "status": "OK",
  "results": [ {
    "types": [ "locality", "political" ],
    "formatted_address": "Bloomfield, NJ, USA",
    "address_components": [ {
      "long_name": "Bloomfield",
      "short_name": "Bloomfield",
      "types": [ "locality", "political" ]
    }, {
      "long_name": "Essex",
      "short_name": "Essex",
      "types": [ "administrative_area_level_2", "political" ]
    }, {
      "long_name": "New Jersey",
      "short_name": "NJ",
      "types": [ "administrative_area_level_1", "political" ]
    }, {
      "long_name": "United States",
      "short_name": "US",
      "types": [ "country", "political" ]
    } ],
    "geometry": {
      "location": {
        "lat": 40.8067670,
        "lng": -74.1854226
      },
      "location_type": "APPROXIMATE",
      "viewport": {
        "southwest": {
          "lat": 40.7729757,
          "lng": -74.2494523
        },
        "northeast": {
          "lat": 40.8405411,
          "lng": -74.1213929
        }
      },
      "bounds": {
        "southwest": {
          "lat": 40.7680480,
          "lng": -74.2118900
        },
        "northeast": {
          "lat": 40.8487990,
          "lng": -74.1626280
        }
      }
    }
  } ]
}
