{
  "status": "OK",
  "results": [ {
    "types": [ "locality", "political" ],
    "formatted_address": "Brigantine, NJ, USA",
    "address_components": [ {
      "long_name": "Brigantine",
      "short_name": "Brigantine",
      "types": [ "locality", "political" ]
    }, {
      "long_name": "Atlantic",
      "short_name": "Atlantic",
      "types": [ "administrative_area_level_2", "political" ]
    }, {
      "long_name": "New Jersey",
      "short_name": "NJ",
      "types": [ "administrative_area_level_1", "political" ]
    }, {
      "long_name": "United States",
      "short_name": "US",
      "types": [ "country", "political" ]
    } ],
    "geometry": {
      "location": {
        "lat": 39.4101171,
        "lng": -74.3645906
      },
      "location_type": "APPROXIMATE",
      "viewport": {
        "southwest": {
          "lat": 39.3756250,
          "lng": -74.4286203
        },
        "northeast": {
          "lat": 39.4445922,
          "lng": -74.3005609
        }
      },
      "bounds": {
        "southwest": {
          "lat": 39.3705039,
          "lng": -74.4219930
        },
        "northeast": {
          "lat": 39.4442410,
          "lng": -74.3285609
        }
      }
    }
  } ]
}
