{
  "status": "OK",
  "results": [ {
    "types": [ "locality", "political" ],
    "formatted_address": "Caldwell, NJ, USA",
    "address_components": [ {
      "long_name": "Caldwell",
      "short_name": "Caldwell",
      "types": [ "locality", "political" ]
    }, {
      "long_name": "Essex",
      "short_name": "Essex",
      "types": [ "administrative_area_level_2", "political" ]
    }, {
      "long_name": "New Jersey",
      "short_name": "NJ",
      "types": [ "administrative_area_level_1", "political" ]
    }, {
      "long_name": "United States",
      "short_name": "US",
      "types": [ "country", "political" ]
    } ],
    "geometry": {
      "location": {
        "lat": 40.8398218,
        "lng": -74.2765366
      },
      "location_type": "APPROXIMATE",
      "viewport": {
        "southwest": {
          "lat": 40.8313798,
          "lng": -74.2925440
        },
        "northeast": {
          "lat": 40.8482627,
          "lng": -74.2605292
        }
      },
      "bounds": {
        "southwest": {
          "lat": 40.8295290,
          "lng": -74.2935349
        },
        "northeast": {
          "lat": 40.8479230,
          "lng": -74.2631849
        }
      }
    }
  } ]
}
