{
  "status": "OK",
  "results": [ {
    "types": [ "administrative_area_level_3", "political" ],
    "formatted_address": "Cedar Grove Township, NJ, USA",
    "address_components": [ {
      "long_name": "Cedar Grove Township",
      "short_name": "Cedar Grove Township",
      "types": [ "administrative_area_level_3", "political" ]
    }, {
      "long_name": "Essex",
      "short_name": "Essex",
      "types": [ "administrative_area_level_2", "political" ]
    }, {
      "long_name": "New Jersey",
      "short_name": "NJ",
      "types": [ "administrative_area_level_1", "political" ]
    }, {
      "long_name": "United States",
      "short_name": "US",
      "types": [ "country", "political" ]
    } ],
    "geometry": {
      "location": {
        "lat": 40.8589645,
        "lng": -74.2296713
      },
      "location_type": "APPROXIMATE",
      "viewport": {
        "southwest": {
          "lat": 40.8420843,
          "lng": -74.2616861
        },
        "northeast": {
          "lat": 40.8758404,
          "lng": -74.1976565
        }
      },
      "bounds": {
        "southwest": {
          "lat": 40.8333100,
          "lng": -74.2511909
        },
        "northeast": {
          "lat": 40.8807989,
          "lng": -74.2048210
        }
      }
    }
  } ]
}
