{
  "status": "OK",
  "results": [ {
    "types": [ "locality", "political" ],
    "formatted_address": "Clifton, NJ, USA",
    "address_components": [ {
      "long_name": "Clifton",
      "short_name": "Clifton",
      "types": [ "locality", "political" ]
    }, {
      "long_name": "Passaic",
      "short_name": "Passaic",
      "types": [ "administrative_area_level_2", "political" ]
    }, {
      "long_name": "New Jersey",
      "short_name": "NJ",
      "types": [ "administrative_area_level_1", "political" ]
    }, {
      "long_name": "United States",
      "short_name": "US",
      "types": [ "country", "political" ]
    } ],
    "geometry": {
      "location": {
        "lat": 40.8584328,
        "lng": -74.1637553
      },
      "location_type": "APPROXIMATE",
      "viewport": {
        "southwest": {
          "lat": 40.8246678,
          "lng": -74.2277850
        },
        "northeast": {
          "lat": 40.8921806,
          "lng": -74.0997256
        }
      },
      "bounds": {
        "southwest": {
          "lat": 40.8199619,
          "lng": -74.1977340
        },
        "northeast": {
          "lat": 40.8993980,
          "lng": -74.1178039
        }
      }
    }
  } ]
}
