{
  "status": "OK",
  "results": [ {
    "types": [ "locality", "political" ],
    "formatted_address": "Cranford, NJ, USA",
    "address_components": [ {
      "long_name": "Cranford",
      "short_name": "Cranford",
      "types": [ "locality", "political" ]
    }, {
      "long_name": "Union",
      "short_name": "Union",
      "types": [ "administrative_area_level_2", "political" ]
    }, {
      "long_name": "New Jersey",
      "short_name": "NJ",
      "types": [ "administrative_area_level_1", "political" ]
    }, {
      "long_name": "United States",
      "short_name": "US",
      "types": [ "country", "political" ]
    } ],
    "geometry": {
      "location": {
        "lat": 40.6584358,
        "lng": -74.2995923
      },
      "location_type": "APPROXIMATE",
      "viewport": {
        "southwest": {
          "lat": 40.6415046,
          "lng": -74.3316071
        },
        "northeast": {
          "lat": 40.6753627,
          "lng": -74.2675775
        }
      },
      "bounds": {
        "southwest": {
          "lat": 40.6334589,
          "lng": -74.3276930
        },
        "northeast": {
          "lat": 40.6784020,
          "lng": -74.2806909
        }
      }
    }
  } ]
}
