{
  "status": "OK",
  "results": [ {
    "types": [ "locality", "political" ],
    "formatted_address": "Deal, NJ, USA",
    "address_components": [ {
      "long_name": "Deal",
      "short_name": "Deal",
      "types": [ "locality", "political" ]
    }, {
      "long_name": "Monmouth",
      "short_name": "Monmouth",
      "types": [ "administrative_area_level_2", "political" ]
    }, {
      "long_name": "New Jersey",
      "short_name": "NJ",
      "types": [ "administrative_area_level_1", "political" ]
    }, {
      "long_name": "United States",
      "short_name": "US",
      "types": [ "country", "political" ]
    } ],
    "geometry": {
      "location": {
        "lat": 40.2431680,
        "lng": -74.0006927
      },
      "location_type": "APPROXIMATE",
      "viewport": {
        "southwest": {
          "lat": 40.2346505,
          "lng": -74.0167001
        },
        "northeast": {
          "lat": 40.2516845,
          "lng": -73.9846853
        }
      },
      "bounds": {
        "southwest": {
          "lat": 40.2372660,
          "lng": -74.0097330
        },
        "northeast": {
          "lat": 40.2634500,
          "lng": -73.9866809
        }
      }
    }
  } ]
}
