{
  "status": "OK",
  "results": [ {
    "types": [ "locality", "political" ],
    "formatted_address": "Delanco, NJ, USA",
    "address_components": [ {
      "long_name": "Delanco",
      "short_name": "Delanco",
      "types": [ "locality", "political" ]
    }, {
      "long_name": "Burlington",
      "short_name": "Burlington",
      "types": [ "administrative_area_level_2", "political" ]
    }, {
      "long_name": "New Jersey",
      "short_name": "NJ",
      "types": [ "administrative_area_level_1", "political" ]
    }, {
      "long_name": "United States",
      "short_name": "US",
      "types": [ "country", "political" ]
    } ],
    "geometry": {
      "location": {
        "lat": 40.0506669,
        "lng": -74.9535016
      },
      "location_type": "APPROXIMATE",
      "viewport": {
        "southwest": {
          "lat": 40.0164937,
          "lng": -75.0175313
        },
        "northeast": {
          "lat": 40.0848230,
          "lng": -74.8894719
        }
      },
      "bounds": {
        "southwest": {
          "lat": 39.9918119,
          "lng": -75.0094240
        },
        "northeast": {
          "lat": 40.0687850,
          "lng": -74.8933510
        }
      }
    }
  } ]
}
