{
  "status": "OK",
  "results": [ {
    "types": [ "administrative_area_level_3", "political" ],
    "formatted_address": "Denville Township, NJ, USA",
    "address_components": [ {
      "long_name": "Denville Township",
      "short_name": "Denville Township",
      "types": [ "administrative_area_level_3", "political" ]
    }, {
      "long_name": "Morris",
      "short_name": "Morris",
      "types": [ "administrative_area_level_2", "political" ]
    }, {
      "long_name": "New Jersey",
      "short_name": "NJ",
      "types": [ "administrative_area_level_1", "political" ]
    }, {
      "long_name": "United States",
      "short_name": "US",
      "types": [ "country", "political" ]
    } ],
    "geometry": {
      "location": {
        "lat": 40.8889758,
        "lng": -74.4818698
      },
      "location_type": "APPROXIMATE",
      "viewport": {
        "southwest": {
          "lat": 40.8552264,
          "lng": -74.5458995
        },
        "northeast": {
          "lat": 40.9227080,
          "lng": -74.4178401
        }
      },
      "bounds": {
        "southwest": {
          "lat": 40.8331440,
          "lng": -74.5335729
        },
        "northeast": {
          "lat": 40.9351560,
          "lng": -74.4385680
        }
      }
    }
  } ]
}
