{
  "status": "OK",
  "results": [ {
    "types": [ "locality", "political" ],
    "formatted_address": "East Rutherford, NJ, USA",
    "address_components": [ {
      "long_name": "East Rutherford",
      "short_name": "East Rutherford",
      "types": [ "locality", "political" ]
    }, {
      "long_name": "Bergen",
      "short_name": "Bergen",
      "types": [ "administrative_area_level_2", "political" ]
    }, {
      "long_name": "New Jersey",
      "short_name": "NJ",
      "types": [ "administrative_area_level_1", "political" ]
    }, {
      "long_name": "United States",
      "short_name": "US",
      "types": [ "country", "political" ]
    } ],
    "geometry": {
      "location": {
        "lat": 40.8339890,
        "lng": -74.0970865
      },
      "location_type": "APPROXIMATE",
      "viewport": {
        "southwest": {
          "lat": 40.8002115,
          "lng": -74.1611162
        },
        "northeast": {
          "lat": 40.8677493,
          "lng": -74.0330568
        }
      },
      "bounds": {
        "southwest": {
          "lat": 40.7879940,
          "lng": -74.1214040
        },
        "northeast": {
          "lat": 40.8533500,
          "lng": -74.0606849
        }
      }
    }
  } ]
}
