{
  "status": "OK",
  "results": [ {
    "types": [ "administrative_area_level_3", "political" ],
    "formatted_address": "East Hanover Township, NJ, USA",
    "address_components": [ {
      "long_name": "East Hanover Township",
      "short_name": "East Hanover Township",
      "types": [ "administrative_area_level_3", "political" ]
    }, {
      "long_name": "Morris",
      "short_name": "Morris",
      "types": [ "administrative_area_level_2", "political" ]
    }, {
      "long_name": "New Jersey",
      "short_name": "NJ",
      "types": [ "administrative_area_level_1", "political" ]
    }, {
      "long_name": "United States",
      "short_name": "US",
      "types": [ "country", "political" ]
    } ],
    "geometry": {
      "location": {
        "lat": 40.8234211,
        "lng": -74.3646122
      },
      "location_type": "APPROXIMATE",
      "viewport": {
        "southwest": {
          "lat": 40.7896383,
          "lng": -74.4286419
        },
        "northeast": {
          "lat": 40.8571867,
          "lng": -74.3005825
        }
      },
      "bounds": {
        "southwest": {
          "lat": 40.7914240,
          "lng": -74.4112399
        },
        "northeast": {
          "lat": 40.8495859,
          "lng": -74.3256179
        }
      }
    }
  } ]
}
