{
  "status": "OK",
  "results": [ {
    "types": [ "locality", "political" ],
    "formatted_address": "Eatontown, NJ, USA",
    "address_components": [ {
      "long_name": "Eatontown",
      "short_name": "Eatontown",
      "types": [ "locality", "political" ]
    }, {
      "long_name": "Monmouth",
      "short_name": "Monmouth",
      "types": [ "administrative_area_level_2", "political" ]
    }, {
      "long_name": "New Jersey",
      "short_name": "NJ",
      "types": [ "administrative_area_level_1", "political" ]
    }, {
      "long_name": "United States",
      "short_name": "US",
      "types": [ "country", "political" ]
    } ],
    "geometry": {
      "location": {
        "lat": 40.2962222,
        "lng": -74.0509725
      },
      "location_type": "APPROXIMATE",
      "viewport": {
        "southwest": {
          "lat": 40.2791994,
          "lng": -74.0829873
        },
        "northeast": {
          "lat": 40.3132407,
          "lng": -74.0189577
        }
      },
      "bounds": {
        "southwest": {
          "lat": 40.2706639,
          "lng": -74.0806219
        },
        "northeast": {
          "lat": 40.3149699,
          "lng": -74.0276200
        }
      }
    }
  } ]
}
