{
  "status": "OK",
  "results": [ {
    "types": [ "locality", "political" ],
    "formatted_address": "Edgewater, NJ, USA",
    "address_components": [ {
      "long_name": "Edgewater",
      "short_name": "Edgewater",
      "types": [ "locality", "political" ]
    }, {
      "long_name": "Bergen",
      "short_name": "Bergen",
      "types": [ "administrative_area_level_2", "political" ]
    }, {
      "long_name": "New Jersey",
      "short_name": "NJ",
      "types": [ "administrative_area_level_1", "political" ]
    }, {
      "long_name": "United States",
      "short_name": "US",
      "types": [ "country", "political" ]
    } ],
    "geometry": {
      "location": {
        "lat": 40.8270448,
        "lng": -73.9756940
      },
      "location_type": "APPROXIMATE",
      "viewport": {
        "southwest": {
          "lat": 40.8101564,
          "lng": -74.0077088
        },
        "northeast": {
          "lat": 40.8439289,
          "lng": -73.9436792
        }
      },
      "bounds": {
        "southwest": {
          "lat": 40.7975170,
          "lng": -73.9944120
        },
        "northeast": {
          "lat": 40.8481000,
          "lng": -73.9539820
        }
      }
    }
  } ]
}
