{
  "status": "OK",
  "results": [ {
    "types": [ "administrative_area_level_3", "political" ],
    "formatted_address": "Elk, NJ, USA",
    "address_components": [ {
      "long_name": "Elk",
      "short_name": "Elk",
      "types": [ "administrative_area_level_3", "political" ]
    }, {
      "long_name": "Gloucester",
      "short_name": "Gloucester",
      "types": [ "administrative_area_level_2", "political" ]
    }, {
      "long_name": "New Jersey",
      "short_name": "NJ",
      "types": [ "administrative_area_level_1", "political" ]
    }, {
      "long_name": "United States",
      "short_name": "US",
      "types": [ "country", "political" ]
    } ],
    "geometry": {
      "location": {
        "lat": 39.6644095,
        "lng": -75.1428632
      },
      "location_type": "APPROXIMATE",
      "viewport": {
        "southwest": {
          "lat": 39.6300434,
          "lng": -75.2068929
        },
        "northeast": {
          "lat": 39.6987585,
          "lng": -75.0788335
        }
      },
      "bounds": {
        "southwest": {
          "lat": 39.6203400,
          "lng": -75.2205489
        },
        "northeast": {
          "lat": 39.7089560,
          "lng": -75.1006790
        }
      }
    }
  } ]
}
