{
  "status": "OK",
  "results": [ {
    "types": [ "locality", "political" ],
    "formatted_address": "Emerson, NJ, USA",
    "address_components": [ {
      "long_name": "Emerson",
      "short_name": "Emerson",
      "types": [ "locality", "political" ]
    }, {
      "long_name": "Bergen",
      "short_name": "Bergen",
      "types": [ "administrative_area_level_2", "political" ]
    }, {
      "long_name": "New Jersey",
      "short_name": "NJ",
      "types": [ "administrative_area_level_1", "political" ]
    }, {
      "long_name": "United States",
      "short_name": "US",
      "types": [ "country", "political" ]
    } ],
    "geometry": {
      "location": {
        "lat": 40.9762090,
        "lng": -74.0262505
      },
      "location_type": "APPROXIMATE",
      "viewport": {
        "southwest": {
          "lat": 40.9593587,
          "lng": -74.0582653
        },
        "northeast": {
          "lat": 40.9930550,
          "lng": -73.9942357
        }
      },
      "bounds": {
        "southwest": {
          "lat": 40.9622079,
          "lng": -74.0569790
        },
        "northeast": {
          "lat": 40.9871890,
          "lng": -73.9934909
        }
      }
    }
  } ]
}
