{
  "status": "OK",
  "results": [ {
    "types": [ "locality", "political" ],
    "formatted_address": "Fairview, NJ, USA",
    "address_components": [ {
      "long_name": "Fairview",
      "short_name": "Fairview",
      "types": [ "locality", "political" ]
    }, {
      "long_name": "Bergen",
      "short_name": "Bergen",
      "types": [ "administrative_area_level_2", "political" ]
    }, {
      "long_name": "New Jersey",
      "short_name": "NJ",
      "types": [ "administrative_area_level_1", "political" ]
    }, {
      "long_name": "United States",
      "short_name": "US",
      "types": [ "country", "political" ]
    } ],
    "geometry": {
      "location": {
        "lat": 40.8126006,
        "lng": -73.9990280
      },
      "location_type": "APPROXIMATE",
      "viewport": {
        "southwest": {
          "lat": 40.8041551,
          "lng": -74.0150354
        },
        "northeast": {
          "lat": 40.8210450,
          "lng": -73.9830206
        }
      },
      "bounds": {
        "southwest": {
          "lat": 40.8084700,
          "lng": -74.0136249
        },
        "northeast": {
          "lat": 40.8267109,
          "lng": -73.9907980
        }
      }
    }
  } ]
}
