{
  "status": "OK",
  "results": [ {
    "types": [ "locality", "political" ],
    "formatted_address": "Glen Ridge, NJ, USA",
    "address_components": [ {
      "long_name": "Glen Ridge",
      "short_name": "Glen Ridge",
      "types": [ "locality", "political" ]
    }, {
      "long_name": "Essex",
      "short_name": "Essex",
      "types": [ "administrative_area_level_2", "political" ]
    }, {
      "long_name": "New Jersey",
      "short_name": "NJ",
      "types": [ "administrative_area_level_1", "political" ]
    }, {
      "long_name": "United States",
      "short_name": "US",
      "types": [ "country", "political" ]
    } ],
    "geometry": {
      "location": {
        "lat": 40.8053780,
        "lng": -74.2037566
      },
      "location_type": "APPROXIMATE",
      "viewport": {
        "southwest": {
          "lat": 40.7884841,
          "lng": -74.2357714
        },
        "northeast": {
          "lat": 40.8222676,
          "lng": -74.1717418
        }
      },
      "bounds": {
        "southwest": {
          "lat": 40.7856000,
          "lng": -74.2187299
        },
        "northeast": {
          "lat": 40.8290019,
          "lng": -74.1915980
        }
      }
    }
  } ]
}
