{
  "status": "OK",
  "results": [ {
    "types": [ "locality", "political" ],
    "formatted_address": "Hackensack, NJ, USA",
    "address_components": [ {
      "long_name": "Hackensack",
      "short_name": "Hackensack",
      "types": [ "locality", "political" ]
    }, {
      "long_name": "Bergen",
      "short_name": "Bergen",
      "types": [ "administrative_area_level_2", "political" ]
    }, {
      "long_name": "New Jersey",
      "short_name": "NJ",
      "types": [ "administrative_area_level_1", "political" ]
    }, {
      "long_name": "United States",
      "short_name": "US",
      "types": [ "country", "political" ]
    } ],
    "geometry": {
      "location": {
        "lat": 40.8859325,
        "lng": -74.0434736
      },
      "location_type": "APPROXIMATE",
      "viewport": {
        "southwest": {
          "lat": 40.8690592,
          "lng": -74.0754884
        },
        "northeast": {
          "lat": 40.9028015,
          "lng": -74.0114588
        }
      },
      "bounds": {
        "southwest": {
          "lat": 40.8586979,
          "lng": -74.0683849
        },
        "northeast": {
          "lat": 40.9132849,
          "lng": -74.0247370
        }
      }
    }
  } ]
}
