{
  "status": "OK",
  "results": [ {
    "types": [ "locality", "political" ],
    "formatted_address": "Harrington Park, NJ, USA",
    "address_components": [ {
      "long_name": "Harrington Park",
      "short_name": "Harrington Park",
      "types": [ "locality", "political" ]
    }, {
      "long_name": "Bergen",
      "short_name": "Bergen",
      "types": [ "administrative_area_level_2", "political" ]
    }, {
      "long_name": "New Jersey",
      "short_name": "NJ",
      "types": [ "administrative_area_level_1", "political" ]
    }, {
      "long_name": "United States",
      "short_name": "US",
      "types": [ "country", "political" ]
    } ],
    "geometry": {
      "location": {
        "lat": 40.9837089,
        "lng": -73.9798601
      },
      "location_type": "APPROXIMATE",
      "viewport": {
        "southwest": {
          "lat": 40.9668605,
          "lng": -74.0118749
        },
        "northeast": {
          "lat": 41.0005530,
          "lng": -73.9478453
        }
      },
      "bounds": {
        "southwest": {
          "lat": 40.9743360,
          "lng": -73.9979360
        },
        "northeast": {
          "lat": 41.0067890,
          "lng": -73.9633960
        }
      }
    }
  } ]
}
