{
  "status": "OK",
  "results": [ {
    "types": [ "locality", "political" ],
    "formatted_address": "Harvey Cedars, NJ, USA",
    "address_components": [ {
      "long_name": "Harvey Cedars",
      "short_name": "Harvey Cedars",
      "types": [ "locality", "political" ]
    }, {
      "long_name": "Ocean",
      "short_name": "Ocean",
      "types": [ "administrative_area_level_2", "political" ]
    }, {
      "long_name": "New Jersey",
      "short_name": "NJ",
      "types": [ "administrative_area_level_1", "political" ]
    }, {
      "long_name": "United States",
      "short_name": "US",
      "types": [ "country", "political" ]
    } ],
    "geometry": {
      "location": {
        "lat": 39.7062310,
        "lng": -74.1340253
      },
      "location_type": "APPROXIMATE",
      "viewport": {
        "southwest": {
          "lat": 39.6890605,
          "lng": -74.1660401
        },
        "northeast": {
          "lat": 39.7233972,
          "lng": -74.1020105
        }
      },
      "bounds": {
        "southwest": {
          "lat": 39.6849739,
          "lng": -74.1594020
        },
        "northeast": {
          "lat": 39.7150490,
          "lng": -74.1293170
        }
      }
    }
  } ]
}
