{
  "status": "OK",
  "results": [ {
    "types": [ "locality", "political" ],
    "formatted_address": "Helmetta, NJ, USA",
    "address_components": [ {
      "long_name": "Helmetta",
      "short_name": "Helmetta",
      "types": [ "locality", "political" ]
    }, {
      "long_name": "Middlesex",
      "short_name": "Middlesex",
      "types": [ "administrative_area_level_2", "political" ]
    }, {
      "long_name": "New Jersey",
      "short_name": "NJ",
      "types": [ "administrative_area_level_1", "political" ]
    }, {
      "long_name": "United States",
      "short_name": "US",
      "types": [ "country", "political" ]
    } ],
    "geometry": {
      "location": {
        "lat": 40.3767741,
        "lng": -74.4245952
      },
      "location_type": "APPROXIMATE",
      "viewport": {
        "southwest": {
          "lat": 40.3682734,
          "lng": -74.4406026
        },
        "northeast": {
          "lat": 40.3852737,
          "lng": -74.4085878
        }
      },
      "bounds": {
        "southwest": {
          "lat": 40.3664239,
          "lng": -74.4385949
        },
        "northeast": {
          "lat": 40.3864100,
          "lng": -74.4098159
        }
      }
    }
  } ]
}
