{
  "status": "OK",
  "results": [ {
    "types": [ "locality", "political" ],
    "formatted_address": "Highlands, NJ, USA",
    "address_components": [ {
      "long_name": "Highlands",
      "short_name": "Highlands",
      "types": [ "locality", "political" ]
    }, {
      "long_name": "Monmouth",
      "short_name": "Monmouth",
      "types": [ "administrative_area_level_2", "political" ]
    }, {
      "long_name": "New Jersey",
      "short_name": "NJ",
      "types": [ "administrative_area_level_1", "political" ]
    }, {
      "long_name": "United States",
      "short_name": "US",
      "types": [ "country", "political" ]
    } ],
    "geometry": {
      "location": {
        "lat": 40.4037200,
        "lng": -73.9915270
      },
      "location_type": "APPROXIMATE",
      "viewport": {
        "southwest": {
          "lat": 40.3952227,
          "lng": -74.0075344
        },
        "northeast": {
          "lat": 40.4122162,
          "lng": -73.9755196
        }
      },
      "bounds": {
        "southwest": {
          "lat": 40.3889159,
          "lng": -74.0047130
        },
        "northeast": {
          "lat": 40.4226139,
          "lng": -73.9778800
        }
      }
    }
  } ]
}
