{
  "status": "OK",
  "results": [ {
    "types": [ "locality", "political" ],
    "formatted_address": "Hoboken, NJ, USA",
    "address_components": [ {
      "long_name": "Hoboken",
      "short_name": "Hoboken",
      "types": [ "locality", "political" ]
    }, {
      "long_name": "Hudson",
      "short_name": "Hudson",
      "types": [ "administrative_area_level_2", "political" ]
    }, {
      "long_name": "New Jersey",
      "short_name": "NJ",
      "types": [ "administrative_area_level_1", "political" ]
    }, {
      "long_name": "United States",
      "short_name": "US",
      "types": [ "country", "political" ]
    } ],
    "geometry": {
      "location": {
        "lat": 40.7439905,
        "lng": -74.0323626
      },
      "location_type": "APPROXIMATE",
      "viewport": {
        "southwest": {
          "lat": 40.7355363,
          "lng": -74.0483700
        },
        "northeast": {
          "lat": 40.7524436,
          "lng": -74.0163552
        }
      },
      "bounds": {
        "southwest": {
          "lat": 40.7303209,
          "lng": -74.0441170
        },
        "northeast": {
          "lat": 40.7590990,
          "lng": -74.0137840
        }
      }
    }
  } ]
}
