{
  "status": "OK",
  "results": [ {
    "types": [ "locality", "political" ],
    "formatted_address": "Jamesburg, NJ, USA",
    "address_components": [ {
      "long_name": "Jamesburg",
      "short_name": "Jamesburg",
      "types": [ "locality", "political" ]
    }, {
      "long_name": "Middlesex",
      "short_name": "Middlesex",
      "types": [ "administrative_area_level_2", "political" ]
    }, {
      "long_name": "New Jersey",
      "short_name": "NJ",
      "types": [ "administrative_area_level_1", "political" ]
    }, {
      "long_name": "United States",
      "short_name": "US",
      "types": [ "country", "political" ]
    } ],
    "geometry": {
      "location": {
        "lat": 40.3526079,
        "lng": -74.4401513
      },
      "location_type": "APPROXIMATE",
      "viewport": {
        "southwest": {
          "lat": 40.3441041,
          "lng": -74.4561587
        },
        "northeast": {
          "lat": 40.3611106,
          "lng": -74.4241439
        }
      },
      "bounds": {
        "southwest": {
          "lat": 40.3422190,
          "lng": -74.4541419
        },
        "northeast": {
          "lat": 40.3609809,
          "lng": -74.4231580
        }
      }
    }
  } ]
}
