{
  "status": "OK",
  "results": [ {
    "types": [ "locality", "political" ],
    "formatted_address": "Kearny, NJ, USA",
    "address_components": [ {
      "long_name": "Kearny",
      "short_name": "Kearny",
      "types": [ "locality", "political" ]
    }, {
      "long_name": "Hudson",
      "short_name": "Hudson",
      "types": [ "administrative_area_level_2", "political" ]
    }, {
      "long_name": "New Jersey",
      "short_name": "NJ",
      "types": [ "administrative_area_level_1", "political" ]
    }, {
      "long_name": "United States",
      "short_name": "US",
      "types": [ "country", "political" ]
    } ],
    "geometry": {
      "location": {
        "lat": 40.7684342,
        "lng": -74.1454214
      },
      "location_type": "APPROXIMATE",
      "viewport": {
        "southwest": {
          "lat": 40.7346234,
          "lng": -74.2094511
        },
        "northeast": {
          "lat": 40.8022278,
          "lng": -74.0813917
        }
      },
      "bounds": {
        "southwest": {
          "lat": 40.7103810,
          "lng": -74.1647990
        },
        "northeast": {
          "lat": 40.7864910,
          "lng": -74.0752019
        }
      }
    }
  } ]
}
