{
  "status": "OK",
  "results": [ {
    "types": [ "locality", "political" ],
    "formatted_address": "Kinnelon, NJ, USA",
    "address_components": [ {
      "long_name": "Kinnelon",
      "short_name": "Kinnelon",
      "types": [ "locality", "political" ]
    }, {
      "long_name": "Morris",
      "short_name": "Morris",
      "types": [ "administrative_area_level_2", "political" ]
    }, {
      "long_name": "New Jersey",
      "short_name": "NJ",
      "types": [ "administrative_area_level_1", "political" ]
    }, {
      "long_name": "United States",
      "short_name": "US",
      "types": [ "country", "political" ]
    } ],
    "geometry": {
      "location": {
        "lat": 41.0017644,
        "lng": -74.3670960
      },
      "location_type": "APPROXIMATE",
      "viewport": {
        "southwest": {
          "lat": 40.9680725,
          "lng": -74.4311257
        },
        "northeast": {
          "lat": 41.0354391,
          "lng": -74.3030663
        }
      },
      "bounds": {
        "southwest": {
          "lat": 40.9462980,
          "lng": -74.4296420
        },
        "northeast": {
          "lat": 41.0287590,
          "lng": -74.3297939
        }
      }
    }
  } ]
}
