{
  "status": "OK",
  "results": [ {
    "types": [ "locality", "political" ],
    "formatted_address": "Linden, NJ, USA",
    "address_components": [ {
      "long_name": "Linden",
      "short_name": "Linden",
      "types": [ "locality", "political" ]
    }, {
      "long_name": "Union",
      "short_name": "Union",
      "types": [ "administrative_area_level_2", "political" ]
    }, {
      "long_name": "New Jersey",
      "short_name": "NJ",
      "types": [ "administrative_area_level_1", "political" ]
    }, {
      "long_name": "United States",
      "short_name": "US",
      "types": [ "country", "political" ]
    } ],
    "geometry": {
      "location": {
        "lat": 40.6220478,
        "lng": -74.2445902
      },
      "location_type": "APPROXIMATE",
      "viewport": {
        "southwest": {
          "lat": 40.5881626,
          "lng": -74.3086199
        },
        "northeast": {
          "lat": 40.6559158,
          "lng": -74.1805605
        }
      },
      "bounds": {
        "southwest": {
          "lat": 40.5926909,
          "lng": -74.2906990
        },
        "northeast": {
          "lat": 40.6549270,
          "lng": -74.1994079
        }
      }
    }
  } ]
}
