{
  "status": "OK",
  "results": [ {
    "types": [ "locality", "political" ],
    "formatted_address": "Little Ferry, NJ, USA",
    "address_components": [ {
      "long_name": "Little Ferry",
      "short_name": "Little Ferry",
      "types": [ "locality", "political" ]
    }, {
      "long_name": "Bergen",
      "short_name": "Bergen",
      "types": [ "administrative_area_level_2", "political" ]
    }, {
      "long_name": "New Jersey",
      "short_name": "NJ",
      "types": [ "administrative_area_level_1", "political" ]
    }, {
      "long_name": "United States",
      "short_name": "US",
      "types": [ "country", "political" ]
    } ],
    "geometry": {
      "location": {
        "lat": 40.8528777,
        "lng": -74.0420848
      },
      "location_type": "APPROXIMATE",
      "viewport": {
        "southwest": {
          "lat": 40.8359959,
          "lng": -74.0740996
        },
        "northeast": {
          "lat": 40.8697552,
          "lng": -74.0100700
        }
      },
      "bounds": {
        "southwest": {
          "lat": 40.8285500,
          "lng": -74.0539809
        },
        "northeast": {
          "lat": 40.8591900,
          "lng": -74.0284180
        }
      }
    }
  } ]
}
