{
  "status": "OK",
  "results": [ {
    "types": [ "administrative_area_level_3", "political" ],
    "formatted_address": "Livingston Township, NJ, USA",
    "address_components": [ {
      "long_name": "Livingston Township",
      "short_name": "Livingston Township",
      "types": [ "administrative_area_level_3", "political" ]
    }, {
      "long_name": "Essex",
      "short_name": "Essex",
      "types": [ "administrative_area_level_2", "political" ]
    }, {
      "long_name": "New Jersey",
      "short_name": "NJ",
      "types": [ "administrative_area_level_1", "political" ]
    }, {
      "long_name": "United States",
      "short_name": "US",
      "types": [ "country", "political" ]
    } ],
    "geometry": {
      "location": {
        "lat": 40.7930239,
        "lng": -74.3235539
      },
      "location_type": "APPROXIMATE",
      "viewport": {
        "southwest": {
          "lat": 40.7592256,
          "lng": -74.3875836
        },
        "northeast": {
          "lat": 40.8268050,
          "lng": -74.2595242
        }
      },
      "bounds": {
        "southwest": {
          "lat": 40.7575960,
          "lng": -74.3775170
        },
        "northeast": {
          "lat": 40.8184160,
          "lng": -74.2805920
        }
      }
    }
  } ]
}
