{
  "status": "OK",
  "results": [ {
    "types": [ "administrative_area_level_3", "political" ],
    "formatted_address": "Lower, NJ, USA",
    "address_components": [ {
      "long_name": "Lower",
      "short_name": "Lower",
      "types": [ "administrative_area_level_3", "political" ]
    }, {
      "long_name": "Cape May",
      "short_name": "Cape May",
      "types": [ "administrative_area_level_2", "political" ]
    }, {
      "long_name": "New Jersey",
      "short_name": "NJ",
      "types": [ "administrative_area_level_1", "political" ]
    }, {
      "long_name": "United States",
      "short_name": "US",
      "types": [ "country", "political" ]
    } ],
    "geometry": {
      "location": {
        "lat": 38.9842645,
        "lng": -74.9091853
      },
      "location_type": "APPROXIMATE",
      "viewport": {
        "southwest": {
          "lat": 38.9495627,
          "lng": -74.9732150
        },
        "northeast": {
          "lat": 39.0189493,
          "lng": -74.8451556
        }
      },
      "bounds": {
        "southwest": {
          "lat": 38.9310350,
          "lng": -74.9719949
        },
        "northeast": {
          "lat": 39.0390100,
          "lng": -74.8308689
        }
      }
    }
  } ]
}
