{
  "status": "OK",
  "results": [ {
    "types": [ "locality", "political" ],
    "formatted_address": "Manchester Township, NJ, USA",
    "address_components": [ {
      "long_name": "Manchester Township",
      "short_name": "Manchester Township",
      "types": [ "locality", "political" ]
    }, {
      "long_name": "Ocean",
      "short_name": "Ocean",
      "types": [ "administrative_area_level_2", "political" ]
    }, {
      "long_name": "New Jersey",
      "short_name": "NJ",
      "types": [ "administrative_area_level_1", "political" ]
    }, {
      "long_name": "United States",
      "short_name": "US",
      "types": [ "country", "political" ]
    } ],
    "geometry": {
      "location": {
        "lat": 39.9712589,
        "lng": -74.3425336
      },
      "location_type": "APPROXIMATE",
      "viewport": {
        "southwest": {
          "lat": 39.6970759,
          "lng": -74.8547712
        },
        "northeast": {
          "lat": 40.2443465,
          "lng": -73.8302960
        }
      },
      "bounds": {
        "southwest": {
          "lat": 39.8570340,
          "lng": -74.5203540
        },
        "northeast": {
          "lat": 40.5065774,
          "lng": -74.1007805
        }
      }
    }
  } ]
}
