{
  "status": "OK",
  "results": [ {
    "types": [ "locality", "political" ],
    "formatted_address": "Mantoloking, NJ, USA",
    "address_components": [ {
      "long_name": "Mantoloking",
      "short_name": "Mantoloking",
      "types": [ "locality", "political" ]
    }, {
      "long_name": "Ocean",
      "short_name": "Ocean",
      "types": [ "administrative_area_level_2", "political" ]
    }, {
      "long_name": "New Jersey",
      "short_name": "NJ",
      "types": [ "administrative_area_level_1", "political" ]
    }, {
      "long_name": "United States",
      "short_name": "US",
      "types": [ "country", "political" ]
    } ],
    "geometry": {
      "location": {
        "lat": 40.0392835,
        "lng": -74.0498585
      },
      "location_type": "APPROXIMATE",
      "viewport": {
        "southwest": {
          "lat": 40.0307404,
          "lng": -74.0658659
        },
        "northeast": {
          "lat": 40.0478256,
          "lng": -74.0338511
        }
      },
      "bounds": {
        "southwest": {
          "lat": 40.0266469,
          "lng": -74.0576930
        },
        "northeast": {
          "lat": 40.0590149,
          "lng": -74.0443799
        }
      }
    }
  } ]
}
