{
  "status": "OK",
  "results": [ {
    "types": [ "locality", "political" ],
    "formatted_address": "Margate City, NJ, USA",
    "address_components": [ {
      "long_name": "Margate City",
      "short_name": "Margate City",
      "types": [ "locality", "political" ]
    }, {
      "long_name": "Atlantic",
      "short_name": "Atlantic",
      "types": [ "administrative_area_level_2", "political" ]
    }, {
      "long_name": "New Jersey",
      "short_name": "NJ",
      "types": [ "administrative_area_level_1", "political" ]
    }, {
      "long_name": "United States",
      "short_name": "US",
      "types": [ "country", "political" ]
    } ],
    "geometry": {
      "location": {
        "lat": 39.3278940,
        "lng": -74.5034858
      },
      "location_type": "APPROXIMATE",
      "viewport": {
        "southwest": {
          "lat": 39.3192624,
          "lng": -74.5194932
        },
        "northeast": {
          "lat": 39.3365245,
          "lng": -74.4874784
        }
      },
      "bounds": {
        "southwest": {
          "lat": 39.3170710,
          "lng": -74.5229470
        },
        "northeast": {
          "lat": 39.3448859,
          "lng": -74.4906330
        }
      }
    }
  } ]
}
