{
  "status": "OK",
  "results": [ {
    "types": [ "administrative_area_level_3", "political" ],
    "formatted_address": "Monroe Township, NJ, USA",
    "address_components": [ {
      "long_name": "Monroe Township",
      "short_name": "Monroe Township",
      "types": [ "administrative_area_level_3", "political" ]
    }, {
      "long_name": "Middlesex County",
      "short_name": "Middlesex County",
      "types": [ "administrative_area_level_2", "political" ]
    }, {
      "long_name": "New Jersey",
      "short_name": "NJ",
      "types": [ "administrative_area_level_1", "political" ]
    }, {
      "long_name": "United States",
      "short_name": "US",
      "types": [ "country", "political" ]
    } ],
    "geometry": {
      "location": {
        "lat": 40.3128944,
        "lng": -74.4408385
      },
      "location_type": "APPROXIMATE",
      "viewport": {
        "southwest": {
          "lat": 40.2447943,
          "lng": -74.5688979
        },
        "northeast": {
          "lat": 40.3809259,
          "lng": -74.3127791
        }
      },
      "bounds": {
        "southwest": {
          "lat": 40.2511219,
          "lng": -74.4914510
        },
        "northeast": {
          "lat": 40.3856059,
          "lng": -74.3569260
        }
      }
    }
  } ]
}
