{
  "status": "OK",
  "results": [ {
    "types": [ "administrative_area_level_3", "political" ],
    "formatted_address": "Monroe Township, NJ, USA",
    "address_components": [ {
      "long_name": "Monroe Township",
      "short_name": "Monroe Township",
      "types": [ "administrative_area_level_3", "political" ]
    }, {
      "long_name": "Gloucester County",
      "short_name": "Gloucester County",
      "types": [ "administrative_area_level_2", "political" ]
    }, {
      "long_name": "New Jersey",
      "short_name": "NJ",
      "types": [ "administrative_area_level_1", "political" ]
    }, {
      "long_name": "United States",
      "short_name": "US",
      "types": [ "country", "political" ]
    } ],
    "geometry": {
      "location": {
        "lat": 39.6747922,
        "lng": -74.9910112
      },
      "location_type": "APPROXIMATE",
      "viewport": {
        "southwest": {
          "lat": 39.6060533,
          "lng": -75.1190706
        },
        "northeast": {
          "lat": 39.7434627,
          "lng": -74.8629518
        }
      },
      "bounds": {
        "southwest": {
          "lat": 39.5786200,
          "lng": -75.0916869
        },
        "northeast": {
          "lat": 39.7264080,
          "lng": -74.8771890
        }
      }
    }
  } ]
}
