{
  "status": "OK",
  "results": [ {
    "types": [ "administrative_area_level_3", "political" ],
    "formatted_address": "Montville Township, NJ, USA",
    "address_components": [ {
      "long_name": "Montville Township",
      "short_name": "Montville Township",
      "types": [ "administrative_area_level_3", "political" ]
    }, {
      "long_name": "Morris",
      "short_name": "Morris",
      "types": [ "administrative_area_level_2", "political" ]
    }, {
      "long_name": "New Jersey",
      "short_name": "NJ",
      "types": [ "administrative_area_level_1", "political" ]
    }, {
      "long_name": "United States",
      "short_name": "US",
      "types": [ "country", "political" ]
    } ],
    "geometry": {
      "location": {
        "lat": 40.9147675,
        "lng": -74.3470170
      },
      "location_type": "APPROXIMATE",
      "viewport": {
        "southwest": {
          "lat": 40.8810312,
          "lng": -74.4110467
        },
        "northeast": {
          "lat": 40.9484866,
          "lng": -74.2829873
        }
      },
      "bounds": {
        "southwest": {
          "lat": 40.8439679,
          "lng": -74.4040529
        },
        "northeast": {
          "lat": 40.9598290,
          "lng": -74.3173939
        }
      }
    }
  } ]
}
