{
  "status": "OK",
  "results": [ {
    "types": [ "locality", "political" ],
    "formatted_address": "Mount Olive, NJ, USA",
    "address_components": [ {
      "long_name": "Mount Olive",
      "short_name": "Mount Olive",
      "types": [ "locality", "political" ]
    }, {
      "long_name": "Morris",
      "short_name": "Morris",
      "types": [ "administrative_area_level_2", "political" ]
    }, {
      "long_name": "New Jersey",
      "short_name": "NJ",
      "types": [ "administrative_area_level_1", "political" ]
    }, {
      "long_name": "United States",
      "short_name": "US",
      "types": [ "country", "political" ]
    } ],
    "geometry": {
      "location": {
        "lat": 40.8514881,
        "lng": -74.7329411
      },
      "location_type": "APPROXIMATE",
      "viewport": {
        "southwest": {
          "lat": 40.8177195,
          "lng": -74.7969708
        },
        "northeast": {
          "lat": 40.8852395,
          "lng": -74.6689114
        }
      },
      "bounds": {
        "southwest": {
          "lat": 40.8513890,
          "lng": -74.7363331
        },
        "northeast": {
          "lat": 40.8972390,
          "lng": -74.6996870
        }
      }
    }
  } ]
}
