{
  "status": "OK",
  "results": [ {
    "types": [ "locality", "political" ],
    "formatted_address": "Neptune City, NJ, USA",
    "address_components": [ {
      "long_name": "Neptune City",
      "short_name": "Neptune City",
      "types": [ "locality", "political" ]
    }, {
      "long_name": "Monmouth",
      "short_name": "Monmouth",
      "types": [ "administrative_area_level_2", "political" ]
    }, {
      "long_name": "New Jersey",
      "short_name": "NJ",
      "types": [ "administrative_area_level_1", "political" ]
    }, {
      "long_name": "United States",
      "short_name": "US",
      "types": [ "country", "political" ]
    } ],
    "geometry": {
      "location": {
        "lat": 40.2005472,
        "lng": -74.0314165
      },
      "location_type": "APPROXIMATE",
      "viewport": {
        "southwest": {
          "lat": 40.1920243,
          "lng": -74.0474239
        },
        "northeast": {
          "lat": 40.2090690,
          "lng": -74.0154091
        }
      },
      "bounds": {
        "southwest": {
          "lat": 40.1909829,
          "lng": -74.0517859
        },
        "northeast": {
          "lat": 40.2074099,
          "lng": -74.0197390
        }
      }
    }
  } ]
}
