{
  "status": "OK",
  "results": [ {
    "types": [ "locality", "political" ],
    "formatted_address": "New Providence, NJ, USA",
    "address_components": [ {
      "long_name": "New Providence",
      "short_name": "New Providence",
      "types": [ "locality", "political" ]
    }, {
      "long_name": "Union",
      "short_name": "Union",
      "types": [ "administrative_area_level_2", "political" ]
    }, {
      "long_name": "New Jersey",
      "short_name": "NJ",
      "types": [ "administrative_area_level_1", "political" ]
    }, {
      "long_name": "United States",
      "short_name": "US",
      "types": [ "country", "political" ]
    } ],
    "geometry": {
      "location": {
        "lat": 40.6984348,
        "lng": -74.4015405
      },
      "location_type": "APPROXIMATE",
      "viewport": {
        "southwest": {
          "lat": 40.6815137,
          "lng": -74.4335553
        },
        "northeast": {
          "lat": 40.7153516,
          "lng": -74.3695257
        }
      },
      "bounds": {
        "southwest": {
          "lat": 40.6792279,
          "lng": -74.4290230
        },
        "northeast": {
          "lat": 40.7180849,
          "lng": -74.3817370
        }
      }
    }
  } ]
}
