{
  "status": "OK",
  "results": [ {
    "types": [ "locality", "political" ],
    "formatted_address": "North Caldwell, NJ, USA",
    "address_components": [ {
      "long_name": "North Caldwell",
      "short_name": "North Caldwell",
      "types": [ "locality", "political" ]
    }, {
      "long_name": "Essex",
      "short_name": "Essex",
      "types": [ "administrative_area_level_2", "political" ]
    }, {
      "long_name": "New Jersey",
      "short_name": "NJ",
      "types": [ "administrative_area_level_1", "political" ]
    }, {
      "long_name": "United States",
      "short_name": "US",
      "types": [ "country", "political" ]
    } ],
    "geometry": {
      "location": {
        "lat": 40.8648215,
        "lng": -74.2582027
      },
      "location_type": "APPROXIMATE",
      "viewport": {
        "southwest": {
          "lat": 40.8479428,
          "lng": -74.2902175
        },
        "northeast": {
          "lat": 40.8816959,
          "lng": -74.2261879
        }
      },
      "bounds": {
        "southwest": {
          "lat": 40.8348760,
          "lng": -74.2730950
        },
        "northeast": {
          "lat": 40.8830979,
          "lng": -74.2420949
        }
      }
    }
  } ]
}
