{
  "status": "OK",
  "results": [ {
    "types": [ "administrative_area_level_3", "political" ],
    "formatted_address": "North Bergen Township, NJ, USA",
    "address_components": [ {
      "long_name": "North Bergen Township",
      "short_name": "North Bergen Township",
      "types": [ "administrative_area_level_3", "political" ]
    }, {
      "long_name": "Hudson",
      "short_name": "Hudson",
      "types": [ "administrative_area_level_2", "political" ]
    }, {
      "long_name": "New Jersey",
      "short_name": "NJ",
      "types": [ "administrative_area_level_1", "political" ]
    }, {
      "long_name": "United States",
      "short_name": "US",
      "types": [ "country", "political" ]
    } ],
    "geometry": {
      "location": {
        "lat": 40.8053731,
        "lng": -74.0241367
      },
      "location_type": "APPROXIMATE",
      "viewport": {
        "southwest": {
          "lat": 40.7715811,
          "lng": -74.0881664
        },
        "northeast": {
          "lat": 40.8391479,
          "lng": -73.9601070
        }
      },
      "bounds": {
        "southwest": {
          "lat": 40.7573700,
          "lng": -74.0568950
        },
        "northeast": {
          "lat": 40.8235690,
          "lng": -73.9848830
        }
      }
    }
  } ]
}
