{
  "status": "OK",
  "results": [ {
    "types": [ "locality", "political" ],
    "formatted_address": "Nutley, NJ, USA",
    "address_components": [ {
      "long_name": "Nutley",
      "short_name": "Nutley",
      "types": [ "locality", "political" ]
    }, {
      "long_name": "Essex",
      "short_name": "Essex",
      "types": [ "administrative_area_level_2", "political" ]
    }, {
      "long_name": "New Jersey",
      "short_name": "NJ",
      "types": [ "administrative_area_level_1", "political" ]
    }, {
      "long_name": "United States",
      "short_name": "US",
      "types": [ "country", "political" ]
    } ],
    "geometry": {
      "location": {
        "lat": 40.8223223,
        "lng": -74.1598663
      },
      "location_type": "APPROXIMATE",
      "viewport": {
        "southwest": {
          "lat": 40.8054327,
          "lng": -74.1918811
        },
        "northeast": {
          "lat": 40.8392076,
          "lng": -74.1278515
        }
      },
      "bounds": {
        "southwest": {
          "lat": 40.8056399,
          "lng": -74.1838360
        },
        "northeast": {
          "lat": 40.8378690,
          "lng": -74.1300310
        }
      }
    }
  } ]
}
