{
  "status": "OK",
  "results": [ {
    "types": [ "locality", "political" ],
    "formatted_address": "Old Bridge, NJ, USA",
    "address_components": [ {
      "long_name": "Old Bridge",
      "short_name": "Old Bridge",
      "types": [ "locality", "political" ]
    }, {
      "long_name": "Middlesex",
      "short_name": "Middlesex",
      "types": [ "administrative_area_level_2", "political" ]
    }, {
      "long_name": "New Jersey",
      "short_name": "NJ",
      "types": [ "administrative_area_level_1", "political" ]
    }, {
      "long_name": "United States",
      "short_name": "US",
      "types": [ "country", "political" ]
    } ],
    "geometry": {
      "location": {
        "lat": 40.3929500,
        "lng": -74.3300350
      },
      "location_type": "APPROXIMATE",
      "viewport": {
        "southwest": {
          "lat": 40.3589489,
          "lng": -74.3940647
        },
        "northeast": {
          "lat": 40.4269339,
          "lng": -74.2660053
        }
      },
      "bounds": {
        "southwest": {
          "lat": 40.3764720,
          "lng": -74.3831450
        },
        "northeast": {
          "lat": 40.4213340,
          "lng": -74.2738480
        }
      }
    }
  } ]
}
