{
  "status": "OK",
  "results": [ {
    "types": [ "locality", "political" ],
    "formatted_address": "Paterson, NJ, USA",
    "address_components": [ {
      "long_name": "Paterson",
      "short_name": "Paterson",
      "types": [ "locality", "political" ]
    }, {
      "long_name": "Passaic",
      "short_name": "Passaic",
      "types": [ "administrative_area_level_2", "political" ]
    }, {
      "long_name": "New Jersey",
      "short_name": "NJ",
      "types": [ "administrative_area_level_1", "political" ]
    }, {
      "long_name": "United States",
      "short_name": "US",
      "types": [ "country", "political" ]
    } ],
    "geometry": {
      "location": {
        "lat": 40.9167654,
        "lng": -74.1718110
      },
      "location_type": "APPROXIMATE",
      "viewport": {
        "southwest": {
          "lat": 40.8998999,
          "lng": -74.2038258
        },
        "northeast": {
          "lat": 40.9336266,
          "lng": -74.1397962
        }
      },
      "bounds": {
        "southwest": {
          "lat": 40.8886819,
          "lng": -74.2061970
        },
        "northeast": {
          "lat": 40.9415900,
          "lng": -74.1292330
        }
      }
    }
  } ]
}
