{
  "status": "OK",
  "results": [ {
    "types": [ "locality", "political" ],
    "formatted_address": "Pennsville, NJ, USA",
    "address_components": [ {
      "long_name": "Pennsville",
      "short_name": "Pennsville",
      "types": [ "locality", "political" ]
    }, {
      "long_name": "Salem",
      "short_name": "Salem",
      "types": [ "administrative_area_level_2", "political" ]
    }, {
      "long_name": "New Jersey",
      "short_name": "NJ",
      "types": [ "administrative_area_level_1", "political" ]
    }, {
      "long_name": "United States",
      "short_name": "US",
      "types": [ "country", "political" ]
    } ],
    "geometry": {
      "location": {
        "lat": 39.6534464,
        "lng": -75.5165881
      },
      "location_type": "APPROXIMATE",
      "viewport": {
        "southwest": {
          "lat": 39.6190749,
          "lng": -75.5806178
        },
        "northeast": {
          "lat": 39.6878008,
          "lng": -75.4525584
        }
      },
      "bounds": {
        "southwest": {
          "lat": 39.6023050,
          "lng": -75.5480360
        },
        "northeast": {
          "lat": 39.6988130,
          "lng": -75.4703030
        }
      }
    }
  } ]
}
