{
  "status": "OK",
  "results": [ {
    "types": [ "locality", "political" ],
    "formatted_address": "Pompton Lakes, NJ, USA",
    "address_components": [ {
      "long_name": "Pompton Lakes",
      "short_name": "Pompton Lakes",
      "types": [ "locality", "political" ]
    }, {
      "long_name": "Passaic",
      "short_name": "Passaic",
      "types": [ "administrative_area_level_2", "political" ]
    }, {
      "long_name": "New Jersey",
      "short_name": "NJ",
      "types": [ "administrative_area_level_1", "political" ]
    }, {
      "long_name": "United States",
      "short_name": "US",
      "types": [ "country", "political" ]
    } ],
    "geometry": {
      "location": {
        "lat": 41.0053753,
        "lng": -74.2907041
      },
      "location_type": "APPROXIMATE",
      "viewport": {
        "southwest": {
          "lat": 40.9885324,
          "lng": -74.3227189
        },
        "northeast": {
          "lat": 41.0222139,
          "lng": -74.2586893
        }
      },
      "bounds": {
        "southwest": {
          "lat": 40.9788000,
          "lng": -74.3029930
        },
        "northeast": {
          "lat": 41.0251729,
          "lng": -74.2667130
        }
      }
    }
  } ]
}
