{
  "status": "OK",
  "results": [ {
    "types": [ "locality", "political" ],
    "formatted_address": "River Edge, NJ, USA",
    "address_components": [ {
      "long_name": "River Edge",
      "short_name": "River Edge",
      "types": [ "locality", "political" ]
    }, {
      "long_name": "Bergen",
      "short_name": "Bergen",
      "types": [ "administrative_area_level_2", "political" ]
    }, {
      "long_name": "New Jersey",
      "short_name": "NJ",
      "types": [ "administrative_area_level_1", "political" ]
    }, {
      "long_name": "United States",
      "short_name": "US",
      "types": [ "country", "political" ]
    } ],
    "geometry": {
      "location": {
        "lat": 40.9287098,
        "lng": -74.0398622
      },
      "location_type": "APPROXIMATE",
      "viewport": {
        "southwest": {
          "lat": 40.9118474,
          "lng": -74.0718770
        },
        "northeast": {
          "lat": 40.9455679,
          "lng": -74.0078474
        }
      },
      "bounds": {
        "southwest": {
          "lat": 40.9088930,
          "lng": -74.0506410
        },
        "northeast": {
          "lat": 40.9436890,
          "lng": -74.0256940
        }
      }
    }
  } ]
}
