{
  "status": "OK",
  "results": [ {
    "types": [ "administrative_area_level_3", "political" ],
    "formatted_address": "Rochelle Park Township, NJ, USA",
    "address_components": [ {
      "long_name": "Rochelle Park Township",
      "short_name": "Rochelle Park Township",
      "types": [ "administrative_area_level_3", "political" ]
    }, {
      "long_name": "Bergen",
      "short_name": "Bergen",
      "types": [ "administrative_area_level_2", "political" ]
    }, {
      "long_name": "New Jersey",
      "short_name": "NJ",
      "types": [ "administrative_area_level_1", "political" ]
    }, {
      "long_name": "United States",
      "short_name": "US",
      "types": [ "country", "political" ]
    } ],
    "geometry": {
      "location": {
        "lat": 40.9094443,
        "lng": -74.0799469
      },
      "location_type": "APPROXIMATE",
      "viewport": {
        "southwest": {
          "lat": 40.9010112,
          "lng": -74.0959543
        },
        "northeast": {
          "lat": 40.9178764,
          "lng": -74.0639395
        }
      },
      "bounds": {
        "southwest": {
          "lat": 40.8917710,
          "lng": -74.0912379
        },
        "northeast": {
          "lat": 40.9196440,
          "lng": -74.0689089
        }
      }
    }
  } ]
}
