{
  "status": "OK",
  "results": [ {
    "types": [ "locality", "political" ],
    "formatted_address": "Roselle Park, NJ, USA",
    "address_components": [ {
      "long_name": "Roselle Park",
      "short_name": "Roselle Park",
      "types": [ "locality", "political" ]
    }, {
      "long_name": "Union",
      "short_name": "Union",
      "types": [ "administrative_area_level_2", "political" ]
    }, {
      "long_name": "New Jersey",
      "short_name": "NJ",
      "types": [ "administrative_area_level_1", "political" ]
    }, {
      "long_name": "United States",
      "short_name": "US",
      "types": [ "country", "political" ]
    } ],
    "geometry": {
      "location": {
        "lat": 40.6645469,
        "lng": -74.2643133
      },
      "location_type": "APPROXIMATE",
      "viewport": {
        "southwest": {
          "lat": 40.6560826,
          "lng": -74.2803207
        },
        "northeast": {
          "lat": 40.6730101,
          "lng": -74.2483059
        }
      },
      "bounds": {
        "southwest": {
          "lat": 40.6580749,
          "lng": -74.2856659
        },
        "northeast": {
          "lat": 40.6724490,
          "lng": -74.2466520
        }
      }
    }
  } ]
}
