{
  "status": "OK",
  "results": [ {
    "types": [ "locality", "political" ],
    "formatted_address": "Saddle Brook, NJ, USA",
    "address_components": [ {
      "long_name": "Saddle Brook",
      "short_name": "Saddle Brook",
      "types": [ "locality", "political" ]
    }, {
      "long_name": "Bergen",
      "short_name": "Bergen",
      "types": [ "administrative_area_level_2", "political" ]
    }, {
      "long_name": "New Jersey",
      "short_name": "NJ",
      "types": [ "administrative_area_level_1", "political" ]
    }, {
      "long_name": "United States",
      "short_name": "US",
      "types": [ "country", "political" ]
    } ],
    "geometry": {
      "location": {
        "lat": 40.8989880,
        "lng": -74.0926418
      },
      "location_type": "APPROXIMATE",
      "viewport": {
        "southwest": {
          "lat": 40.8821180,
          "lng": -74.1246566
        },
        "northeast": {
          "lat": 40.9158537,
          "lng": -74.0606270
        }
      },
      "bounds": {
        "southwest": {
          "lat": 40.8844370,
          "lng": -74.1133739
        },
        "northeast": {
          "lat": 40.9210980,
          "lng": -74.0789230
        }
      }
    }
  } ]
}
