{
  "status": "OK",
  "results": [ {
    "types": [ "locality", "political" ],
    "formatted_address": "Sea Girt, NJ, USA",
    "address_components": [ {
      "long_name": "Sea Girt",
      "short_name": "Sea Girt",
      "types": [ "locality", "political" ]
    }, {
      "long_name": "Monmouth",
      "short_name": "Monmouth",
      "types": [ "administrative_area_level_2", "political" ]
    }, {
      "long_name": "New Jersey",
      "short_name": "NJ",
      "types": [ "administrative_area_level_1", "political" ]
    }, {
      "long_name": "United States",
      "short_name": "US",
      "types": [ "country", "political" ]
    } ],
    "geometry": {
      "location": {
        "lat": 40.1320592,
        "lng": -74.0345813
      },
      "location_type": "APPROXIMATE",
      "viewport": {
        "southwest": {
          "lat": 40.1235277,
          "lng": -74.0505887
        },
        "northeast": {
          "lat": 40.1405896,
          "lng": -74.0185739
        }
      },
      "bounds": {
        "southwest": {
          "lat": 40.1174150,
          "lng": -74.0463240
        },
        "northeast": {
          "lat": 40.1407960,
          "lng": -74.0214800
        }
      }
    }
  } ]
}
