{
  "status": "OK",
  "results": [ {
    "types": [ "locality", "political" ],
    "formatted_address": "Sea Bright, NJ, USA",
    "address_components": [ {
      "long_name": "Sea Bright",
      "short_name": "Sea Bright",
      "types": [ "locality", "political" ]
    }, {
      "long_name": "Monmouth",
      "short_name": "Monmouth",
      "types": [ "administrative_area_level_2", "political" ]
    }, {
      "long_name": "New Jersey",
      "short_name": "NJ",
      "types": [ "administrative_area_level_1", "political" ]
    }, {
      "long_name": "United States",
      "short_name": "US",
      "types": [ "country", "political" ]
    } ],
    "geometry": {
      "location": {
        "lat": 40.3614987,
        "lng": -73.9740262
      },
      "location_type": "APPROXIMATE",
      "viewport": {
        "southwest": {
          "lat": 40.3444924,
          "lng": -74.0060410
        },
        "northeast": {
          "lat": 40.3785007,
          "lng": -73.9420114
        }
      },
      "bounds": {
        "southwest": {
          "lat": 40.3457170,
          "lng": -73.9920480
        },
        "northeast": {
          "lat": 40.3994870,
          "lng": -73.9709810
        }
      }
    }
  } ]
}
