{
  "status": "OK",
  "results": [ {
    "types": [ "locality", "political" ],
    "formatted_address": "Somerville, NJ, USA",
    "address_components": [ {
      "long_name": "Somerville",
      "short_name": "Somerville",
      "types": [ "locality", "political" ]
    }, {
      "long_name": "Somerset",
      "short_name": "Somerset",
      "types": [ "administrative_area_level_2", "political" ]
    }, {
      "long_name": "New Jersey",
      "short_name": "NJ",
      "types": [ "administrative_area_level_1", "political" ]
    }, {
      "long_name": "United States",
      "short_name": "US",
      "types": [ "country", "political" ]
    } ],
    "geometry": {
      "location": {
        "lat": 40.5742696,
        "lng": -74.6098800
      },
      "location_type": "APPROXIMATE",
      "viewport": {
        "southwest": {
          "lat": 40.5573170,
          "lng": -74.6418948
        },
        "northeast": {
          "lat": 40.5912179,
          "lng": -74.5778652
        }
      },
      "bounds": {
        "southwest": {
          "lat": 40.5560339,
          "lng": -74.6263950
        },
        "northeast": {
          "lat": 40.5816970,
          "lng": -74.5862590
        }
      }
    }
  } ]
}
