{
  "status": "OK",
  "results": [ {
    "types": [ "locality", "political" ],
    "formatted_address": "South River, NJ, USA",
    "address_components": [ {
      "long_name": "South River",
      "short_name": "South River",
      "types": [ "locality", "political" ]
    }, {
      "long_name": "Middlesex",
      "short_name": "Middlesex",
      "types": [ "administrative_area_level_2", "political" ]
    }, {
      "long_name": "New Jersey",
      "short_name": "NJ",
      "types": [ "administrative_area_level_1", "political" ]
    }, {
      "long_name": "United States",
      "short_name": "US",
      "types": [ "country", "political" ]
    } ],
    "geometry": {
      "location": {
        "lat": 40.4464950,
        "lng": -74.3859831
      },
      "location_type": "APPROXIMATE",
      "viewport": {
        "southwest": {
          "lat": 40.4295101,
          "lng": -74.4179979
        },
        "northeast": {
          "lat": 40.4634756,
          "lng": -74.3539683
        }
      },
      "bounds": {
        "southwest": {
          "lat": 40.4289459,
          "lng": -74.4035430
        },
        "northeast": {
          "lat": 40.4638780,
          "lng": -74.3535850
        }
      }
    }
  } ]
}
