{
  "status": "OK",
  "results": [ {
    "types": [ "administrative_area_level_3", "political" ],
    "formatted_address": "Teaneck Township, NJ, USA",
    "address_components": [ {
      "long_name": "Teaneck Township",
      "short_name": "Teaneck Township",
      "types": [ "administrative_area_level_3", "political" ]
    }, {
      "long_name": "Bergen",
      "short_name": "Bergen",
      "types": [ "administrative_area_level_2", "political" ]
    }, {
      "long_name": "New Jersey",
      "short_name": "NJ",
      "types": [ "administrative_area_level_1", "political" ]
    }, {
      "long_name": "United States",
      "short_name": "US",
      "types": [ "country", "political" ]
    } ],
    "geometry": {
      "location": {
        "lat": 40.8924932,
        "lng": -74.0123851
      },
      "location_type": "APPROXIMATE",
      "viewport": {
        "southwest": {
          "lat": 40.8756215,
          "lng": -74.0443999
        },
        "northeast": {
          "lat": 40.9093606,
          "lng": -73.9803703
        }
      },
      "bounds": {
        "southwest": {
          "lat": 40.8598990,
          "lng": -74.0373879
        },
        "northeast": {
          "lat": 40.9170790,
          "lng": -73.9873899
        }
      }
    }
  } ]
}
