{
  "status": "OK",
  "results": [ {
    "types": [ "locality", "political" ],
    "formatted_address": "Tenafly, NJ, USA",
    "address_components": [ {
      "long_name": "Tenafly",
      "short_name": "Tenafly",
      "types": [ "locality", "political" ]
    }, {
      "long_name": "Bergen",
      "short_name": "Bergen",
      "types": [ "administrative_area_level_2", "political" ]
    }, {
      "long_name": "New Jersey",
      "short_name": "NJ",
      "types": [ "administrative_area_level_1", "political" ]
    }, {
      "long_name": "United States",
      "short_name": "US",
      "types": [ "country", "political" ]
    } ],
    "geometry": {
      "location": {
        "lat": 40.9253766,
        "lng": -73.9629154
      },
      "location_type": "APPROXIMATE",
      "viewport": {
        "southwest": {
          "lat": 40.9085133,
          "lng": -73.9949302
        },
        "northeast": {
          "lat": 40.9422356,
          "lng": -73.9309006
        }
      },
      "bounds": {
        "southwest": {
          "lat": 40.8954960,
          "lng": -73.9844330
        },
        "northeast": {
          "lat": 40.9379050,
          "lng": -73.9198980
        }
      }
    }
  } ]
}
