{
  "status": "OK",
  "results": [ {
    "types": [ "locality", "political" ],
    "formatted_address": "Toms River, NJ, USA",
    "address_components": [ {
      "long_name": "Toms River",
      "short_name": "Toms River",
      "types": [ "locality", "political" ]
    }, {
      "long_name": "Ocean",
      "short_name": "Ocean",
      "types": [ "administrative_area_level_2", "political" ]
    }, {
      "long_name": "New Jersey",
      "short_name": "NJ",
      "types": [ "administrative_area_level_1", "political" ]
    }, {
      "long_name": "United States",
      "short_name": "US",
      "types": [ "country", "political" ]
    } ],
    "geometry": {
      "location": {
        "lat": 39.9537290,
        "lng": -74.1979192
      },
      "location_type": "APPROXIMATE",
      "viewport": {
        "southwest": {
          "lat": 39.8852683,
          "lng": -74.3259786
        },
        "northeast": {
          "lat": 40.0221212,
          "lng": -74.0698598
        }
      },
      "bounds": {
        "southwest": {
          "lat": 39.9411179,
          "lng": -74.2706510
        },
        "northeast": {
          "lat": 40.0587159,
          "lng": -74.0928069
        }
      }
    }
  } ]
}
