{
  "status": "OK",
  "results": [ {
    "types": [ "locality", "political" ],
    "formatted_address": "Waldwick, NJ, USA",
    "address_components": [ {
      "long_name": "Waldwick",
      "short_name": "Waldwick",
      "types": [ "locality", "political" ]
    }, {
      "long_name": "Bergen",
      "short_name": "Bergen",
      "types": [ "administrative_area_level_2", "political" ]
    }, {
      "long_name": "New Jersey",
      "short_name": "NJ",
      "types": [ "administrative_area_level_1", "political" ]
    }, {
      "long_name": "United States",
      "short_name": "US",
      "types": [ "country", "political" ]
    } ],
    "geometry": {
      "location": {
        "lat": 41.0106528,
        "lng": -74.1179203
      },
      "location_type": "APPROXIMATE",
      "viewport": {
        "southwest": {
          "lat": 40.9938113,
          "lng": -74.1499351
        },
        "northeast": {
          "lat": 41.0274900,
          "lng": -74.0859055
        }
      },
      "bounds": {
        "southwest": {
          "lat": 41.0052630,
          "lng": -74.1520840
        },
        "northeast": {
          "lat": 41.0223690,
          "lng": -74.0938760
        }
      }
    }
  } ]
}
