{
  "status": "OK",
  "results": [ {
    "types": [ "administrative_area_level_3", "political" ],
    "formatted_address": "Wall, NJ, USA",
    "address_components": [ {
      "long_name": "Wall",
      "short_name": "Wall",
      "types": [ "administrative_area_level_3", "political" ]
    }, {
      "long_name": "Monmouth",
      "short_name": "Monmouth",
      "types": [ "administrative_area_level_2", "political" ]
    }, {
      "long_name": "New Jersey",
      "short_name": "NJ",
      "types": [ "administrative_area_level_1", "political" ]
    }, {
      "long_name": "United States",
      "short_name": "US",
      "types": [ "country", "political" ]
    } ],
    "geometry": {
      "location": {
        "lat": 40.1642213,
        "lng": -74.0887576
      },
      "location_type": "APPROXIMATE",
      "viewport": {
        "southwest": {
          "lat": 40.0959716,
          "lng": -74.2168170
        },
        "northeast": {
          "lat": 40.2324024,
          "lng": -73.9606982
        }
      },
      "bounds": {
        "southwest": {
          "lat": 40.0979699,
          "lng": -74.1418159
        },
        "northeast": {
          "lat": 40.2489110,
          "lng": -74.0294710
        }
      }
    }
  } ]
}
