{
  "status": "OK",
  "results": [ {
    "types": [ "administrative_area_level_3", "political" ],
    "formatted_address": "Waterford, NJ, USA",
    "address_components": [ {
      "long_name": "Waterford",
      "short_name": "Waterford",
      "types": [ "administrative_area_level_3", "political" ]
    }, {
      "long_name": "Camden",
      "short_name": "Camden",
      "types": [ "administrative_area_level_2", "political" ]
    }, {
      "long_name": "New Jersey",
      "short_name": "NJ",
      "types": [ "administrative_area_level_1", "political" ]
    }, {
      "long_name": "United States",
      "short_name": "US",
      "types": [ "country", "political" ]
    } ],
    "geometry": {
      "location": {
        "lat": 39.7306466,
        "lng": -74.8039205
      },
      "location_type": "APPROXIMATE",
      "viewport": {
        "southwest": {
          "lat": 39.6619633,
          "lng": -74.9319799
        },
        "northeast": {
          "lat": 39.7992615,
          "lng": -74.6758611
        }
      },
      "bounds": {
        "southwest": {
          "lat": 39.6741020,
          "lng": -74.9133049
        },
        "northeast": {
          "lat": 39.7907970,
          "lng": -74.7363089
        }
      }
    }
  } ]
}
