{
  "status": "OK",
  "results": [ {
    "types": [ "locality", "political" ],
    "formatted_address": "West Milford, NJ, USA",
    "address_components": [ {
      "long_name": "West Milford",
      "short_name": "West Milford",
      "types": [ "locality", "political" ]
    }, {
      "long_name": "Passaic",
      "short_name": "Passaic",
      "types": [ "administrative_area_level_2", "political" ]
    }, {
      "long_name": "New Jersey",
      "short_name": "NJ",
      "types": [ "administrative_area_level_1", "political" ]
    }, {
      "long_name": "United States",
      "short_name": "US",
      "types": [ "country", "political" ]
    } ],
    "geometry": {
      "location": {
        "lat": 41.1312069,
        "lng": -74.3673747
      },
      "location_type": "APPROXIMATE",
      "viewport": {
        "southwest": {
          "lat": 41.0639384,
          "lng": -74.4954341
        },
        "northeast": {
          "lat": 41.1984065,
          "lng": -74.2393153
        }
      },
      "bounds": {
        "southwest": {
          "lat": 41.0112589,
          "lng": -74.5028920
        },
        "northeast": {
          "lat": 41.2028940,
          "lng": -74.2799529
        }
      }
    }
  } ]
}
