{
  "status": "OK",
  "results": [ {
    "types": [ "administrative_area_level_3", "political" ],
    "formatted_address": "West Caldwell Township, NJ, USA",
    "address_components": [ {
      "long_name": "West Caldwell Township",
      "short_name": "West Caldwell Township",
      "types": [ "administrative_area_level_3", "political" ]
    }, {
      "long_name": "Essex",
      "short_name": "Essex",
      "types": [ "administrative_area_level_2", "political" ]
    }, {
      "long_name": "New Jersey",
      "short_name": "NJ",
      "types": [ "administrative_area_level_1", "political" ]
    }, {
      "long_name": "United States",
      "short_name": "US",
      "types": [ "country", "political" ]
    } ],
    "geometry": {
      "location": {
        "lat": 40.8531576,
        "lng": -74.2942208
      },
      "location_type": "APPROXIMATE",
      "viewport": {
        "southwest": {
          "lat": 40.8362759,
          "lng": -74.3262356
        },
        "northeast": {
          "lat": 40.8700350,
          "lng": -74.2622060
        }
      },
      "bounds": {
        "southwest": {
          "lat": 40.8268009,
          "lng": -74.3293170
        },
        "northeast": {
          "lat": 40.8694130,
          "lng": -74.2598830
        }
      }
    }
  } ]
}
