{
  "status": "OK",
  "results": [ {
    "types": [ "locality", "political" ],
    "formatted_address": "Wharton, NJ, USA",
    "address_components": [ {
      "long_name": "Wharton",
      "short_name": "Wharton",
      "types": [ "locality", "political" ]
    }, {
      "long_name": "Morris",
      "short_name": "Morris",
      "types": [ "administrative_area_level_2", "political" ]
    }, {
      "long_name": "New Jersey",
      "short_name": "NJ",
      "types": [ "administrative_area_level_1", "political" ]
    }, {
      "long_name": "United States",
      "short_name": "US",
      "types": [ "country", "political" ]
    } ],
    "geometry": {
      "location": {
        "lat": 40.8931546,
        "lng": -74.5818254
      },
      "location_type": "APPROXIMATE",
      "viewport": {
        "southwest": {
          "lat": 40.8847194,
          "lng": -74.5978328
        },
        "northeast": {
          "lat": 40.9015887,
          "lng": -74.5658180
        }
      },
      "bounds": {
        "southwest": {
          "lat": 40.8859840,
          "lng": -74.5990860
        },
        "northeast": {
          "lat": 40.9152500,
          "lng": -74.5659589
        }
      }
    }
  } ]
}
