{
  "status": "OK",
  "results": [ {
    "types": [ "locality", "political" ],
    "formatted_address": "Wood-Ridge, NJ, USA",
    "address_components": [ {
      "long_name": "Wood-Ridge",
      "short_name": "Wood-Ridge",
      "types": [ "locality", "political" ]
    }, {
      "long_name": "Bergen",
      "short_name": "Bergen",
      "types": [ "administrative_area_level_2", "political" ]
    }, {
      "long_name": "New Jersey",
      "short_name": "NJ",
      "types": [ "administrative_area_level_1", "political" ]
    }, {
      "long_name": "United States",
      "short_name": "US",
      "types": [ "country", "political" ]
    } ],
    "geometry": {
      "location": {
        "lat": 40.8456555,
        "lng": -74.0879195
      },
      "location_type": "APPROXIMATE",
      "viewport": {
        "southwest": {
          "lat": 40.8372142,
          "lng": -74.1039269
        },
        "northeast": {
          "lat": 40.8540957,
          "lng": -74.0719121
        }
      },
      "bounds": {
        "southwest": {
          "lat": 40.8375930,
          "lng": -74.0989230
        },
        "northeast": {
          "lat": 40.8650960,
          "lng": -74.0748930
        }
      }
    }
  } ]
}
