{
  "status": "OK",
  "results": [ {
    "types": [ "administrative_area_level_3", "political" ],
    "formatted_address": "Woolwich, NJ, USA",
    "address_components": [ {
      "long_name": "Woolwich",
      "short_name": "Woolwich",
      "types": [ "administrative_area_level_3", "political" ]
    }, {
      "long_name": "Gloucester",
      "short_name": "Gloucester",
      "types": [ "administrative_area_level_2", "political" ]
    }, {
      "long_name": "New Jersey",
      "short_name": "NJ",
      "types": [ "administrative_area_level_1", "political" ]
    }, {
      "long_name": "United States",
      "short_name": "US",
      "types": [ "country", "political" ]
    } ],
    "geometry": {
      "location": {
        "lat": 39.7319672,
        "lng": -75.3528779
      },
      "location_type": "APPROXIMATE",
      "viewport": {
        "southwest": {
          "lat": 39.6976348,
          "lng": -75.4169076
        },
        "northeast": {
          "lat": 39.7662825,
          "lng": -75.2888482
        }
      },
      "bounds": {
        "southwest": {
          "lat": 39.6894870,
          "lng": -75.3782820
        },
        "northeast": {
          "lat": 39.7927950,
          "lng": -75.2619280
        }
      }
    }
  } ]
}
