{
  "status": "OK",
  "results": [ {
    "types": [ "locality", "political" ],
    "formatted_address": "Apopka, FL, USA",
    "address_components": [ {
      "long_name": "Apopka",
      "short_name": "Apopka",
      "types": [ "locality", "political" ]
    }, {
      "long_name": "Orange",
      "short_name": "Orange",
      "types": [ "administrative_area_level_2", "political" ]
    }, {
      "long_name": "Florida",
      "short_name": "FL",
      "types": [ "administrative_area_level_1", "political" ]
    }, {
      "long_name": "United States",
      "short_name": "US",
      "types": [ "country", "political" ]
    } ],
    "geometry": {
      "location": {
        "lat": 28.6867500,
        "lng": -81.5132760
      },
      "location_type": "APPROXIMATE",
      "viewport": {
        "southwest": {
          "lat": 28.6084133,
          "lng": -81.6413354
        },
        "northeast": {
          "lat": 28.7650281,
          "lng": -81.3852166
        }
      },
      "bounds": {
        "southwest": {
          "lat": 28.6216400,
          "lng": -81.5883630
        },
        "northeast": {
          "lat": 28.7860889,
          "lng": -81.4595260
        }
      }
    }
  } ]
}
