{
  "status": "OK",
  "results": [ {
    "types": [ "locality", "political" ],
    "formatted_address": "Avon Park, FL, USA",
    "address_components": [ {
      "long_name": "Avon Park",
      "short_name": "Avon Park",
      "types": [ "locality", "political" ]
    }, {
      "long_name": "Highlands",
      "short_name": "Highlands",
      "types": [ "administrative_area_level_2", "political" ]
    }, {
      "long_name": "Florida",
      "short_name": "FL",
      "types": [ "administrative_area_level_1", "political" ]
    }, {
      "long_name": "United States",
      "short_name": "US",
      "types": [ "country", "political" ]
    } ],
    "geometry": {
      "location": {
        "lat": 27.5958672,
        "lng": -81.5061862
      },
      "location_type": "APPROXIMATE",
      "viewport": {
        "southwest": {
          "lat": 27.5760882,
          "lng": -81.5382010
        },
        "northeast": {
          "lat": 27.6156427,
          "lng": -81.4741714
        }
      },
      "bounds": {
        "southwest": {
          "lat": 27.5723700,
          "lng": -81.5392289
        },
        "northeast": {
          "lat": 27.6331580,
          "lng": -81.4728650
        }
      }
    }
  } ]
}
