{
  "status": "OK",
  "results": [ {
    "types": [ "locality", "political" ],
    "formatted_address": "Bushnell, FL, USA",
    "address_components": [ {
      "long_name": "Bushnell",
      "short_name": "Bushnell",
      "types": [ "locality", "political" ]
    }, {
      "long_name": "Sumter",
      "short_name": "Sumter",
      "types": [ "administrative_area_level_2", "political" ]
    }, {
      "long_name": "Florida",
      "short_name": "FL",
      "types": [ "administrative_area_level_1", "political" ]
    }, {
      "long_name": "United States",
      "short_name": "US",
      "types": [ "country", "political" ]
    } ],
    "geometry": {
      "location": {
        "lat": 28.6649924,
        "lng": -82.1128629
      },
      "location_type": "APPROXIMATE",
      "viewport": {
        "southwest": {
          "lat": 28.6454097,
          "lng": -82.1448777
        },
        "northeast": {
          "lat": 28.6845715,
          "lng": -82.0808481
        }
      },
      "bounds": {
        "southwest": {
          "lat": 28.6468100,
          "lng": -82.1420480
        },
        "northeast": {
          "lat": 28.6831210,
          "lng": -82.0965559
        }
      }
    }
  } ]
}
