{
  "status": "OK",
  "results": [ {
    "types": [ "locality", "political" ],
    "formatted_address": "Carrabelle, FL, USA",
    "address_components": [ {
      "long_name": "Carrabelle",
      "short_name": "Carrabelle",
      "types": [ "locality", "political" ]
    }, {
      "long_name": "Franklin",
      "short_name": "Franklin",
      "types": [ "administrative_area_level_2", "political" ]
    }, {
      "long_name": "Florida",
      "short_name": "FL",
      "types": [ "administrative_area_level_1", "political" ]
    }, {
      "long_name": "United States",
      "short_name": "US",
      "types": [ "country", "political" ]
    } ],
    "geometry": {
      "location": {
        "lat": 29.8532645,
        "lng": -84.6643480
      },
      "location_type": "APPROXIMATE",
      "viewport": {
        "southwest": {
          "lat": 29.8339079,
          "lng": -84.6963628
        },
        "northeast": {
          "lat": 29.8726173,
          "lng": -84.6323332
        }
      },
      "bounds": {
        "southwest": {
          "lat": 29.8317470,
          "lng": -84.7077709
        },
        "northeast": {
          "lat": 29.8847189,
          "lng": -84.6433400
        }
      }
    }
  } ]
}
