{
  "status": "OK",
  "results": [ {
    "types": [ "locality", "political" ],
    "formatted_address": "Chiefland, FL, USA",
    "address_components": [ {
      "long_name": "Chiefland",
      "short_name": "Chiefland",
      "types": [ "locality", "political" ]
    }, {
      "long_name": "Levy",
      "short_name": "Levy",
      "types": [ "administrative_area_level_2", "political" ]
    }, {
      "long_name": "Florida",
      "short_name": "FL",
      "types": [ "administrative_area_level_1", "political" ]
    }, {
      "long_name": "United States",
      "short_name": "US",
      "types": [ "country", "political" ]
    } ],
    "geometry": {
      "location": {
        "lat": 29.4749621,
        "lng": -82.8598421
      },
      "location_type": "APPROXIMATE",
      "viewport": {
        "southwest": {
          "lat": 29.4555326,
          "lng": -82.8918569
        },
        "northeast": {
          "lat": 29.4943879,
          "lng": -82.8278273
        }
      },
      "bounds": {
        "southwest": {
          "lat": 29.4604330,
          "lng": -82.8797720
        },
        "northeast": {
          "lat": 29.5083440,
          "lng": -82.8392899
        }
      }
    }
  } ]
}
