{
  "status": "OK",
  "results": [ {
    "types": [ "locality", "political" ],
    "formatted_address": "Chipley, FL, USA",
    "address_components": [ {
      "long_name": "Chipley",
      "short_name": "Chipley",
      "types": [ "locality", "political" ]
    }, {
      "long_name": "Washington",
      "short_name": "Washington",
      "types": [ "administrative_area_level_2", "political" ]
    }, {
      "long_name": "Florida",
      "short_name": "FL",
      "types": [ "administrative_area_level_1", "political" ]
    }, {
      "long_name": "United States",
      "short_name": "US",
      "types": [ "country", "political" ]
    } ],
    "geometry": {
      "location": {
        "lat": 30.7818584,
        "lng": -85.5385410
      },
      "location_type": "APPROXIMATE",
      "viewport": {
        "southwest": {
          "lat": 30.7626843,
          "lng": -85.5705558
        },
        "northeast": {
          "lat": 30.8010286,
          "lng": -85.5065262
        }
      },
      "bounds": {
        "southwest": {
          "lat": 30.7463710,
          "lng": -85.5588920
        },
        "northeast": {
          "lat": 30.8011010,
          "lng": -85.5151320
        }
      }
    }
  } ]
}
