{
  "status": "OK",
  "results": [ {
    "types": [ "locality", "political" ],
    "formatted_address": "Clearwater, FL, USA",
    "address_components": [ {
      "long_name": "Clearwater",
      "short_name": "Clearwater",
      "types": [ "locality", "political" ]
    }, {
      "long_name": "Pinellas",
      "short_name": "Pinellas",
      "types": [ "administrative_area_level_2", "political" ]
    }, {
      "long_name": "Florida",
      "short_name": "FL",
      "types": [ "administrative_area_level_1", "political" ]
    }, {
      "long_name": "United States",
      "short_name": "US",
      "types": [ "country", "political" ]
    } ],
    "geometry": {
      "location": {
        "lat": 27.9658533,
        "lng": -82.8001026
      },
      "location_type": "APPROXIMATE",
      "viewport": {
        "southwest": {
          "lat": 27.8869842,
          "lng": -82.9281620
        },
        "northeast": {
          "lat": 28.0446648,
          "lng": -82.6720432
        }
      },
      "bounds": {
        "southwest": {
          "lat": 27.9351150,
          "lng": -82.8461890
        },
        "northeast": {
          "lat": 28.0500860,
          "lng": -82.6486080
        }
      }
    }
  } ]
}
