{
  "status": "OK",
  "results": [ {
    "types": [ "locality", "political" ],
    "formatted_address": "Clewiston, FL, USA",
    "address_components": [ {
      "long_name": "Clewiston",
      "short_name": "Clewiston",
      "types": [ "locality", "political" ]
    }, {
      "long_name": "Hendry",
      "short_name": "Hendry",
      "types": [ "administrative_area_level_2", "political" ]
    }, {
      "long_name": "Florida",
      "short_name": "FL",
      "types": [ "administrative_area_level_1", "political" ]
    }, {
      "long_name": "United States",
      "short_name": "US",
      "types": [ "country", "political" ]
    } ],
    "geometry": {
      "location": {
        "lat": 26.7542312,
        "lng": -80.9336753
      },
      "location_type": "APPROXIMATE",
      "viewport": {
        "southwest": {
          "lat": 26.7442673,
          "lng": -80.9496827
        },
        "northeast": {
          "lat": 26.7641942,
          "lng": -80.9176679
        }
      },
      "bounds": {
        "southwest": {
          "lat": 26.7394060,
          "lng": -80.9597600
        },
        "northeast": {
          "lat": 26.7689500,
          "lng": -80.9176470
        }
      }
    }
  } ]
}
