{
  "status": "OK",
  "results": [ {
    "types": [ "locality", "political" ],
    "formatted_address": "Coconut Creek, FL, USA",
    "address_components": [ {
      "long_name": "Coconut Creek",
      "short_name": "Coconut Creek",
      "types": [ "locality", "political" ]
    }, {
      "long_name": "Broward",
      "short_name": "Broward",
      "types": [ "administrative_area_level_2", "political" ]
    }, {
      "long_name": "Florida",
      "short_name": "FL",
      "types": [ "administrative_area_level_1", "political" ]
    }, {
      "long_name": "United States",
      "short_name": "US",
      "types": [ "country", "political" ]
    } ],
    "geometry": {
      "location": {
        "lat": 26.2517482,
        "lng": -80.1789351
      },
      "location_type": "APPROXIMATE",
      "viewport": {
        "southwest": {
          "lat": 26.2117127,
          "lng": -80.2429648
        },
        "northeast": {
          "lat": 26.2917699,
          "lng": -80.1149054
        }
      },
      "bounds": {
        "southwest": {
          "lat": 26.2142810,
          "lng": -80.2029359
        },
        "northeast": {
          "lat": 26.3278580,
          "lng": -80.1665680
        }
      }
    }
  } ]
}
