{
  "status": "OK",
  "results": [ {
    "types": [ "locality", "political" ],
    "formatted_address": "Crescent City, FL, USA",
    "address_components": [ {
      "long_name": "Crescent City",
      "short_name": "Crescent City",
      "types": [ "locality", "political" ]
    }, {
      "long_name": "Putnam",
      "short_name": "Putnam",
      "types": [ "administrative_area_level_2", "political" ]
    }, {
      "long_name": "Florida",
      "short_name": "FL",
      "types": [ "administrative_area_level_1", "political" ]
    }, {
      "long_name": "United States",
      "short_name": "US",
      "types": [ "country", "political" ]
    } ],
    "geometry": {
      "location": {
        "lat": 29.4302514,
        "lng": -81.5106288
      },
      "location_type": "APPROXIMATE",
      "viewport": {
        "southwest": {
          "lat": 29.4108133,
          "lng": -81.5426436
        },
        "northeast": {
          "lat": 29.4496857,
          "lng": -81.4786140
        }
      },
      "bounds": {
        "southwest": {
          "lat": 29.4139840,
          "lng": -81.5318870
        },
        "northeast": {
          "lat": 29.4555010,
          "lng": -81.5054959
        }
      }
    }
  } ]
}
