{
  "status": "OK",
  "results": [ {
    "types": [ "locality", "political" ],
    "formatted_address": "Dade City, FL, USA",
    "address_components": [ {
      "long_name": "Dade City",
      "short_name": "Dade City",
      "types": [ "locality", "political" ]
    }, {
      "long_name": "Pasco",
      "short_name": "Pasco",
      "types": [ "administrative_area_level_2", "political" ]
    }, {
      "long_name": "Florida",
      "short_name": "FL",
      "types": [ "administrative_area_level_1", "political" ]
    }, {
      "long_name": "United States",
      "short_name": "US",
      "types": [ "country", "political" ]
    } ],
    "geometry": {
      "location": {
        "lat": 28.3647248,
        "lng": -82.1959178
      },
      "location_type": "APPROXIMATE",
      "viewport": {
        "southwest": {
          "lat": 28.3450862,
          "lng": -82.2279326
        },
        "northeast": {
          "lat": 28.3843597,
          "lng": -82.1639030
        }
      },
      "bounds": {
        "southwest": {
          "lat": 28.3242120,
          "lng": -82.2406180
        },
        "northeast": {
          "lat": 28.3834840,
          "lng": -82.1661020
        }
      }
    }
  } ]
}
