{
  "status": "OK",
  "results": [ {
    "types": [ "locality", "political" ],
    "formatted_address": "Davenport, FL, USA",
    "address_components": [ {
      "long_name": "Davenport",
      "short_name": "Davenport",
      "types": [ "locality", "political" ]
    }, {
      "long_name": "Polk",
      "short_name": "Polk",
      "types": [ "administrative_area_level_2", "political" ]
    }, {
      "long_name": "Florida",
      "short_name": "FL",
      "types": [ "administrative_area_level_1", "political" ]
    }, {
      "long_name": "United States",
      "short_name": "US",
      "types": [ "country", "political" ]
    } ],
    "geometry": {
      "location": {
        "lat": 28.1614046,
        "lng": -81.6017417
      },
      "location_type": "APPROXIMATE",
      "viewport": {
        "southwest": {
          "lat": 28.1515670,
          "lng": -81.6177491
        },
        "northeast": {
          "lat": 28.1712413,
          "lng": -81.5857343
        }
      },
      "bounds": {
        "southwest": {
          "lat": 28.1520770,
          "lng": -81.6233980
        },
        "northeast": {
          "lat": 28.1732020,
          "lng": -81.5903230
        }
      }
    }
  } ]
}
