{
  "status": "OK",
  "results": [ {
    "types": [ "locality", "political" ],
    "formatted_address": "Davie, FL, USA",
    "address_components": [ {
      "long_name": "Davie",
      "short_name": "Davie",
      "types": [ "locality", "political" ]
    }, {
      "long_name": "Broward",
      "short_name": "Broward",
      "types": [ "administrative_area_level_2", "political" ]
    }, {
      "long_name": "Florida",
      "short_name": "FL",
      "types": [ "administrative_area_level_1", "political" ]
    }, {
      "long_name": "United States",
      "short_name": "US",
      "types": [ "country", "political" ]
    } ],
    "geometry": {
      "location": {
        "lat": 26.0628664,
        "lng": -80.2331038
      },
      "location_type": "APPROXIMATE",
      "viewport": {
        "southwest": {
          "lat": 25.9826521,
          "lng": -80.3611632
        },
        "northeast": {
          "lat": 26.1430258,
          "lng": -80.1050444
        }
      },
      "bounds": {
        "southwest": {
          "lat": 26.0292669,
          "lng": -80.3690750
        },
        "northeast": {
          "lat": 26.1229640,
          "lng": -80.1836620
        }
      }
    }
  } ]
}
