{
  "status": "OK",
  "results": [ {
    "types": [ "locality", "political" ],
    "formatted_address": "Deerfield Beach, FL, USA",
    "address_components": [ {
      "long_name": "Deerfield Beach",
      "short_name": "Deerfield Beach",
      "types": [ "locality", "political" ]
    }, {
      "long_name": "Broward",
      "short_name": "Broward",
      "types": [ "administrative_area_level_2", "political" ]
    }, {
      "long_name": "Florida",
      "short_name": "FL",
      "types": [ "administrative_area_level_1", "political" ]
    }, {
      "long_name": "United States",
      "short_name": "US",
      "types": [ "country", "political" ]
    } ],
    "geometry": {
      "location": {
        "lat": 26.3184123,
        "lng": -80.0997657
      },
      "location_type": "APPROXIMATE",
      "viewport": {
        "southwest": {
          "lat": 26.2783998,
          "lng": -80.1637954
        },
        "northeast": {
          "lat": 26.3584110,
          "lng": -80.0357360
        }
      },
      "bounds": {
        "southwest": {
          "lat": 26.2744019,
          "lng": -80.1699249
        },
        "northeast": {
          "lat": 26.3278561,
          "lng": -80.0748639
        }
      }
    }
  } ]
}
