{
  "status": "OK",
  "results": [ {
    "types": [ "locality", "political" ],
    "formatted_address": "De Land, FL, USA",
    "address_components": [ {
      "long_name": "De Land",
      "short_name": "De Land",
      "types": [ "locality", "political" ]
    }, {
      "long_name": "Volusia",
      "short_name": "Volusia",
      "types": [ "administrative_area_level_2", "political" ]
    }, {
      "long_name": "Florida",
      "short_name": "FL",
      "types": [ "administrative_area_level_1", "political" ]
    }, {
      "long_name": "United States",
      "short_name": "US",
      "types": [ "country", "political" ]
    } ],
    "geometry": {
      "location": {
        "lat": 29.0283180,
        "lng": -81.3031179
      },
      "location_type": "APPROXIMATE",
      "viewport": {
        "southwest": {
          "lat": 28.9892853,
          "lng": -81.3671476
        },
        "northeast": {
          "lat": 29.0673359,
          "lng": -81.2390882
        }
      },
      "bounds": {
        "southwest": {
          "lat": 28.9554280,
          "lng": -81.3409690
        },
        "northeast": {
          "lat": 29.0833561,
          "lng": -81.2350539
        }
      }
    }
  } ]
}
