{
  "status": "OK",
  "results": [ {
    "types": [ "locality", "political" ],
    "formatted_address": "Dundee, FL, USA",
    "address_components": [ {
      "long_name": "Dundee",
      "short_name": "Dundee",
      "types": [ "locality", "political" ]
    }, {
      "long_name": "Polk",
      "short_name": "Polk",
      "types": [ "administrative_area_level_2", "political" ]
    }, {
      "long_name": "Florida",
      "short_name": "FL",
      "types": [ "administrative_area_level_1", "political" ]
    }, {
      "long_name": "United States",
      "short_name": "US",
      "types": [ "country", "political" ]
    } ],
    "geometry": {
      "location": {
        "lat": 28.0225206,
        "lng": -81.6192432
      },
      "location_type": "APPROXIMATE",
      "viewport": {
        "southwest": {
          "lat": 28.0028191,
          "lng": -81.6512580
        },
        "northeast": {
          "lat": 28.0422185,
          "lng": -81.5872284
        }
      },
      "bounds": {
        "southwest": {
          "lat": 27.9976960,
          "lng": -81.6389119
        },
        "northeast": {
          "lat": 28.0333850,
          "lng": -81.5950240
        }
      }
    }
  } ]
}
