{
  "status": "OK",
  "results": [ {
    "types": [ "locality", "political" ],
    "formatted_address": "Fort Lauderdale, FL, USA",
    "address_components": [ {
      "long_name": "Fort Lauderdale",
      "short_name": "Fort Lauderdale",
      "types": [ "locality", "political" ]
    }, {
      "long_name": "Broward",
      "short_name": "Broward",
      "types": [ "administrative_area_level_2", "political" ]
    }, {
      "long_name": "Florida",
      "short_name": "FL",
      "types": [ "administrative_area_level_1", "political" ]
    }, {
      "long_name": "United States",
      "short_name": "US",
      "types": [ "country", "political" ]
    } ],
    "geometry": {
      "location": {
        "lat": 26.1223084,
        "lng": -80.1433786
      },
      "location_type": "APPROXIMATE",
      "viewport": {
        "southwest": {
          "lat": 26.0822284,
          "lng": -80.2074083
        },
        "northeast": {
          "lat": 26.1623746,
          "lng": -80.0793489
        }
      },
      "bounds": {
        "southwest": {
          "lat": 26.0703650,
          "lng": -80.2039690
        },
        "northeast": {
          "lat": 26.2118599,
          "lng": -80.0871650
        }
      }
    }
  } ]
}
