{
  "status": "OK",
  "results": [ {
    "types": [ "locality", "political" ],
    "formatted_address": "Green Cove Springs, FL, USA",
    "address_components": [ {
      "long_name": "Green Cove Springs",
      "short_name": "Green Cove Springs",
      "types": [ "locality", "political" ]
    }, {
      "long_name": "Clay",
      "short_name": "Clay",
      "types": [ "administrative_area_level_2", "political" ]
    }, {
      "long_name": "Florida",
      "short_name": "FL",
      "types": [ "administrative_area_level_1", "political" ]
    }, {
      "long_name": "United States",
      "short_name": "US",
      "types": [ "country", "political" ]
    } ],
    "geometry": {
      "location": {
        "lat": 29.9919085,
        "lng": -81.6781467
      },
      "location_type": "APPROXIMATE",
      "viewport": {
        "southwest": {
          "lat": 29.9532454,
          "lng": -81.7421764
        },
        "northeast": {
          "lat": 30.0305565,
          "lng": -81.6141170
        }
      },
      "bounds": {
        "southwest": {
          "lat": 29.9537750,
          "lng": -81.7315510
        },
        "northeast": {
          "lat": 30.0152770,
          "lng": -81.6298570
        }
      }
    }
  } ]
}
