{
  "status": "OK",
  "results": [ {
    "types": [ "locality", "political" ],
    "formatted_address": "Gulf Breeze, FL, USA",
    "address_components": [ {
      "long_name": "Gulf Breeze",
      "short_name": "Gulf Breeze",
      "types": [ "locality", "political" ]
    }, {
      "long_name": "Santa Rosa",
      "short_name": "Santa Rosa",
      "types": [ "administrative_area_level_2", "political" ]
    }, {
      "long_name": "Florida",
      "short_name": "FL",
      "types": [ "administrative_area_level_1", "political" ]
    }, {
      "long_name": "United States",
      "short_name": "US",
      "types": [ "country", "political" ]
    } ],
    "geometry": {
      "location": {
        "lat": 30.3571438,
        "lng": -87.1638574
      },
      "location_type": "APPROXIMATE",
      "viewport": {
        "southwest": {
          "lat": 30.3378856,
          "lng": -87.1958722
        },
        "northeast": {
          "lat": 30.3763982,
          "lng": -87.1318426
        }
      },
      "bounds": {
        "southwest": {
          "lat": 30.3407850,
          "lng": -87.2069509
        },
        "northeast": {
          "lat": 30.3818140,
          "lng": -87.1167289
        }
      }
    }
  } ]
}
