{
  "status": "OK",
  "results": [ {
    "types": [ "locality", "political" ],
    "formatted_address": "Hillsboro Beach, FL, USA",
    "address_components": [ {
      "long_name": "Hillsboro Beach",
      "short_name": "Hillsboro Beach",
      "types": [ "locality", "political" ]
    }, {
      "long_name": "Broward",
      "short_name": "Broward",
      "types": [ "administrative_area_level_2", "political" ]
    }, {
      "long_name": "Florida",
      "short_name": "FL",
      "types": [ "administrative_area_level_1", "political" ]
    }, {
      "long_name": "United States",
      "short_name": "US",
      "types": [ "country", "political" ]
    } ],
    "geometry": {
      "location": {
        "lat": 26.2939687,
        "lng": -80.0789318
      },
      "location_type": "APPROXIMATE",
      "viewport": {
        "southwest": {
          "lat": 26.2739600,
          "lng": -80.1109466
        },
        "northeast": {
          "lat": 26.3139740,
          "lng": -80.0469170
        }
      },
      "bounds": {
        "southwest": {
          "lat": 26.2535590,
          "lng": -80.0837650
        },
        "northeast": {
          "lat": 26.3052569,
          "lng": -80.0730640
        }
      }
    }
  } ]
}
