{
  "status": "OK",
  "results": [ {
    "types": [ "locality", "political" ],
    "formatted_address": "Indian Rocks Beach, FL, USA",
    "address_components": [ {
      "long_name": "Indian Rocks Beach",
      "short_name": "Indian Rocks Beach",
      "types": [ "locality", "political" ]
    }, {
      "long_name": "Pinellas",
      "short_name": "Pinellas",
      "types": [ "administrative_area_level_2", "political" ]
    }, {
      "long_name": "Florida",
      "short_name": "FL",
      "types": [ "administrative_area_level_1", "political" ]
    }, {
      "long_name": "United States",
      "short_name": "US",
      "types": [ "country", "political" ]
    } ],
    "geometry": {
      "location": {
        "lat": 27.8977330,
        "lng": -82.8443080
      },
      "location_type": "APPROXIMATE",
      "viewport": {
        "southwest": {
          "lat": 27.8878713,
          "lng": -82.8603154
        },
        "northeast": {
          "lat": 27.9075938,
          "lng": -82.8283006
        }
      },
      "bounds": {
        "southwest": {
          "lat": 27.8722940,
          "lng": -82.8514890
        },
        "northeast": {
          "lat": 27.9102990,
          "lng": -82.8332250
        }
      }
    }
  } ]
}
