{
  "status": "OK",
  "results": [ {
    "types": [ "locality", "political" ],
    "formatted_address": "Indialantic, FL, USA",
    "address_components": [ {
      "long_name": "Indialantic",
      "short_name": "Indialantic",
      "types": [ "locality", "political" ]
    }, {
      "long_name": "Brevard",
      "short_name": "Brevard",
      "types": [ "administrative_area_level_2", "political" ]
    }, {
      "long_name": "Florida",
      "short_name": "FL",
      "types": [ "administrative_area_level_1", "political" ]
    }, {
      "long_name": "United States",
      "short_name": "US",
      "types": [ "country", "political" ]
    } ],
    "geometry": {
      "location": {
        "lat": 28.0894599,
        "lng": -80.5656079
      },
      "location_type": "APPROXIMATE",
      "viewport": {
        "southwest": {
          "lat": 28.0796157,
          "lng": -80.5816153
        },
        "northeast": {
          "lat": 28.0993032,
          "lng": -80.5496005
        }
      },
      "bounds": {
        "southwest": {
          "lat": 28.0764940,
          "lng": -80.5798000
        },
        "northeast": {
          "lat": 28.0985930,
          "lng": -80.5576750
        }
      }
    }
  } ]
}
