{
  "status": "OK",
  "results": [ {
    "types": [ "locality", "political" ],
    "formatted_address": "Indian Shores, FL, USA",
    "address_components": [ {
      "long_name": "Indian Shores",
      "short_name": "Indian Shores",
      "types": [ "locality", "political" ]
    }, {
      "long_name": "Pinellas",
      "short_name": "Pinellas",
      "types": [ "administrative_area_level_2", "political" ]
    }, {
      "long_name": "Florida",
      "short_name": "FL",
      "types": [ "administrative_area_level_1", "political" ]
    }, {
      "long_name": "United States",
      "short_name": "US",
      "types": [ "country", "political" ]
    } ],
    "geometry": {
      "location": {
        "lat": 27.8628010,
        "lng": -82.8484373
      },
      "location_type": "APPROXIMATE",
      "viewport": {
        "southwest": {
          "lat": 27.8529361,
          "lng": -82.8644447
        },
        "northeast": {
          "lat": 27.8726650,
          "lng": -82.8324299
        }
      },
      "bounds": {
        "southwest": {
          "lat": 27.8363160,
          "lng": -82.8531610
        },
        "northeast": {
          "lat": 27.8724000,
          "lng": -82.8344779
        }
      }
    }
  } ]
}
