{
  "status": "OK",
  "results": [ {
    "types": [ "locality", "political" ],
    "formatted_address": "Jacksonville, FL, USA",
    "address_components": [ {
      "long_name": "Jacksonville",
      "short_name": "Jacksonville",
      "types": [ "locality", "political" ]
    }, {
      "long_name": "Duval",
      "short_name": "Duval",
      "types": [ "administrative_area_level_2", "political" ]
    }, {
      "long_name": "Florida",
      "short_name": "FL",
      "types": [ "administrative_area_level_1", "political" ]
    }, {
      "long_name": "United States",
      "short_name": "US",
      "types": [ "country", "political" ]
    } ],
    "geometry": {
      "location": {
        "lat": 30.3321838,
        "lng": -81.6556510
      },
      "location_type": "APPROXIMATE",
      "viewport": {
        "southwest": {
          "lat": 30.0235208,
          "lng": -82.1678886
        },
        "northeast": {
          "lat": 30.6398769,
          "lng": -81.1434134
        }
      },
      "bounds": {
        "southwest": {
          "lat": 30.1037480,
          "lng": -82.0495019
        },
        "northeast": {
          "lat": 30.5862320,
          "lng": -81.3167120
        }
      }
    }
  } ]
}
