{
  "status": "OK",
  "results": [ {
    "types": [ "locality", "political" ],
    "formatted_address": "Jasper, FL, USA",
    "address_components": [ {
      "long_name": "Jasper",
      "short_name": "Jasper",
      "types": [ "locality", "political" ]
    }, {
      "long_name": "Hamilton",
      "short_name": "Hamilton",
      "types": [ "administrative_area_level_2", "political" ]
    }, {
      "long_name": "Florida",
      "short_name": "FL",
      "types": [ "administrative_area_level_1", "political" ]
    }, {
      "long_name": "United States",
      "short_name": "US",
      "types": [ "country", "political" ]
    } ],
    "geometry": {
      "location": {
        "lat": 30.5182727,
        "lng": -82.9481900
      },
      "location_type": "APPROXIMATE",
      "viewport": {
        "southwest": {
          "lat": 30.4990463,
          "lng": -82.9802048
        },
        "northeast": {
          "lat": 30.5374953,
          "lng": -82.9161752
        }
      },
      "bounds": {
        "southwest": {
          "lat": 30.4949120,
          "lng": -82.9807550
        },
        "northeast": {
          "lat": 30.5372690,
          "lng": -82.9398080
        }
      }
    }
  } ]
}
