{
  "status": "OK",
  "results": [ {
    "types": [ "locality", "political" ],
    "formatted_address": "Jupiter Inlet Colony, FL, USA",
    "address_components": [ {
      "long_name": "Jupiter Inlet Colony",
      "short_name": "Jupiter Inlet Colony",
      "types": [ "locality", "political" ]
    }, {
      "long_name": "Palm Beach",
      "short_name": "Palm Beach",
      "types": [ "administrative_area_level_2", "political" ]
    }, {
      "long_name": "Florida",
      "short_name": "FL",
      "types": [ "administrative_area_level_1", "political" ]
    }, {
      "long_name": "United States",
      "short_name": "US",
      "types": [ "country", "political" ]
    } ],
    "geometry": {
      "location": {
        "lat": 26.9478500,
        "lng": -80.0749990
      },
      "location_type": "APPROXIMATE",
      "viewport": {
        "southwest": {
          "lat": 26.9379031,
          "lng": -80.0910064
        },
        "northeast": {
          "lat": 26.9577960,
          "lng": -80.0589916
        }
      },
      "bounds": {
        "southwest": {
          "lat": 26.9439660,
          "lng": -80.0799080
        },
        "northeast": {
          "lat": 26.9526960,
          "lng": -80.0698890
        }
      }
    }
  } ]
}
