{
  "status": "OK",
  "results": [ {
    "types": [ "locality", "political" ],
    "formatted_address": "Lady Lake, FL, USA",
    "address_components": [ {
      "long_name": "Lady Lake",
      "short_name": "Lady Lake",
      "types": [ "locality", "political" ]
    }, {
      "long_name": "Lake",
      "short_name": "Lake",
      "types": [ "administrative_area_level_2", "political" ]
    }, {
      "long_name": "Florida",
      "short_name": "FL",
      "types": [ "administrative_area_level_1", "political" ]
    }, {
      "long_name": "United States",
      "short_name": "US",
      "types": [ "country", "political" ]
    } ],
    "geometry": {
      "location": {
        "lat": 28.9174855,
        "lng": -81.9228604
      },
      "location_type": "APPROXIMATE",
      "viewport": {
        "southwest": {
          "lat": 28.8979501,
          "lng": -81.9548752
        },
        "northeast": {
          "lat": 28.9370172,
          "lng": -81.8908456
        }
      },
      "bounds": {
        "southwest": {
          "lat": 28.8831510,
          "lng": -81.9541799
        },
        "northeast": {
          "lat": 28.9602460,
          "lng": -81.9035789
        }
      }
    }
  } ]
}
