{
  "status": "OK",
  "results": [ {
    "types": [ "locality", "political" ],
    "formatted_address": "Lakeland, FL, USA",
    "address_components": [ {
      "long_name": "Lakeland",
      "short_name": "Lakeland",
      "types": [ "locality", "political" ]
    }, {
      "long_name": "Polk",
      "short_name": "Polk",
      "types": [ "administrative_area_level_2", "political" ]
    }, {
      "long_name": "Florida",
      "short_name": "FL",
      "types": [ "administrative_area_level_1", "political" ]
    }, {
      "long_name": "United States",
      "short_name": "US",
      "types": [ "country", "political" ]
    } ],
    "geometry": {
      "location": {
        "lat": 28.0394654,
        "lng": -81.9498042
      },
      "location_type": "APPROXIMATE",
      "viewport": {
        "southwest": {
          "lat": 27.9606501,
          "lng": -82.0778636
        },
        "northeast": {
          "lat": 28.1182230,
          "lng": -81.8217448
        }
      },
      "bounds": {
        "southwest": {
          "lat": 27.9525820,
          "lng": -82.0559339
        },
        "northeast": {
          "lat": 28.1722890,
          "lng": -81.8387850
        }
      }
    }
  } ]
}
