{
  "status": "OK",
  "results": [ {
    "types": [ "locality", "political" ],
    "formatted_address": "Lantana, FL, USA",
    "address_components": [ {
      "long_name": "Lantana",
      "short_name": "Lantana",
      "types": [ "locality", "political" ]
    }, {
      "long_name": "Palm Beach",
      "short_name": "Palm Beach",
      "types": [ "administrative_area_level_2", "political" ]
    }, {
      "long_name": "Florida",
      "short_name": "FL",
      "types": [ "administrative_area_level_1", "political" ]
    }, {
      "long_name": "United States",
      "short_name": "US",
      "types": [ "country", "political" ]
    } ],
    "geometry": {
      "location": {
        "lat": 26.5867358,
        "lng": -80.0519859
      },
      "location_type": "APPROXIMATE",
      "viewport": {
        "southwest": {
          "lat": 26.5767572,
          "lng": -80.0679933
        },
        "northeast": {
          "lat": 26.5967135,
          "lng": -80.0359785
        }
      },
      "bounds": {
        "southwest": {
          "lat": 26.5692910,
          "lng": -80.0736750
        },
        "northeast": {
          "lat": 26.5962730,
          "lng": -80.0310630
        }
      }
    }
  } ]
}
