{
  "status": "OK",
  "results": [ {
    "types": [ "locality", "political" ],
    "formatted_address": "Lauderdale-by-the-Sea, FL, USA",
    "address_components": [ {
      "long_name": "Lauderdale-by-the-Sea",
      "short_name": "Lauderdale-by-the-Sea",
      "types": [ "locality", "political" ]
    }, {
      "long_name": "Broward",
      "short_name": "Broward",
      "types": [ "administrative_area_level_2", "political" ]
    }, {
      "long_name": "Florida",
      "short_name": "FL",
      "types": [ "administrative_area_level_1", "political" ]
    }, {
      "long_name": "United States",
      "short_name": "US",
      "types": [ "country", "political" ]
    } ],
    "geometry": {
      "location": {
        "lat": 26.1920280,
        "lng": -80.0964326
      },
      "location_type": "APPROXIMATE",
      "viewport": {
        "southwest": {
          "lat": 26.1820153,
          "lng": -80.1124400
        },
        "northeast": {
          "lat": 26.2020399,
          "lng": -80.0804252
        }
      },
      "bounds": {
        "southwest": {
          "lat": 26.1816609,
          "lng": -80.1031660
        },
        "northeast": {
          "lat": 26.2196599,
          "lng": -80.0843649
        }
      }
    }
  } ]
}
