{
  "status": "OK",
  "results": [ {
    "types": [ "locality", "political" ],
    "formatted_address": "Longboat Key, FL, USA",
    "address_components": [ {
      "long_name": "Longboat Key",
      "short_name": "Longboat Key",
      "types": [ "locality", "political" ]
    }, {
      "long_name": "Manatee",
      "short_name": "Manatee",
      "types": [ "administrative_area_level_2", "political" ]
    }, {
      "long_name": "Florida",
      "short_name": "FL",
      "types": [ "administrative_area_level_1", "political" ]
    }, {
      "long_name": "United States",
      "short_name": "US",
      "types": [ "country", "political" ]
    } ],
    "geometry": {
      "location": {
        "lat": 27.4125417,
        "lng": -82.6589881
      },
      "location_type": "APPROXIMATE",
      "viewport": {
        "southwest": {
          "lat": 27.3729142,
          "lng": -82.7230178
        },
        "northeast": {
          "lat": 27.4521550,
          "lng": -82.5949584
        }
      },
      "bounds": {
        "southwest": {
          "lat": 27.3211640,
          "lng": -82.7044770
        },
        "northeast": {
          "lat": 27.4535170,
          "lng": -82.5792740
        }
      }
    }
  } ]
}
