{
  "status": "OK",
  "results": [ {
    "types": [ "locality", "political" ],
    "formatted_address": "Madeira Beach, FL, USA",
    "address_components": [ {
      "long_name": "Madeira Beach",
      "short_name": "Madeira Beach",
      "types": [ "locality", "political" ]
    }, {
      "long_name": "Pinellas",
      "short_name": "Pinellas",
      "types": [ "administrative_area_level_2", "political" ]
    }, {
      "long_name": "Florida",
      "short_name": "FL",
      "types": [ "administrative_area_level_1", "political" ]
    }, {
      "long_name": "United States",
      "short_name": "US",
      "types": [ "country", "political" ]
    } ],
    "geometry": {
      "location": {
        "lat": 27.7980814,
        "lng": -82.7973247
      },
      "location_type": "APPROXIMATE",
      "viewport": {
        "southwest": {
          "lat": 27.7783390,
          "lng": -82.8293395
        },
        "northeast": {
          "lat": 27.8178202,
          "lng": -82.7653099
        }
      },
      "bounds": {
        "southwest": {
          "lat": 27.7784800,
          "lng": -82.8132650
        },
        "northeast": {
          "lat": 27.8126270,
          "lng": -82.7727860
        }
      }
    }
  } ]
}
