{
  "status": "OK",
  "results": [ {
    "types": [ "locality", "political" ],
    "formatted_address": "Manalapan, FL, USA",
    "address_components": [ {
      "long_name": "Manalapan",
      "short_name": "Manalapan",
      "types": [ "locality", "political" ]
    }, {
      "long_name": "Palm Beach",
      "short_name": "Palm Beach",
      "types": [ "administrative_area_level_2", "political" ]
    }, {
      "long_name": "Florida",
      "short_name": "FL",
      "types": [ "administrative_area_level_1", "political" ]
    }, {
      "long_name": "United States",
      "short_name": "US",
      "types": [ "country", "political" ]
    } ],
    "geometry": {
      "location": {
        "lat": 26.5692364,
        "lng": -80.0447635
      },
      "location_type": "APPROXIMATE",
      "viewport": {
        "southwest": {
          "lat": 26.5492754,
          "lng": -80.0767783
        },
        "northeast": {
          "lat": 26.5891939,
          "lng": -80.0127487
        }
      },
      "bounds": {
        "southwest": {
          "lat": 26.5441480,
          "lng": -80.0500630
        },
        "northeast": {
          "lat": 26.5841070,
          "lng": -80.0310630
        }
      }
    }
  } ]
}
