{
  "status": "OK",
  "results": [ {
    "types": [ "locality", "political" ],
    "formatted_address": "Marco Island, FL, USA",
    "address_components": [ {
      "long_name": "Marco Island",
      "short_name": "Marco Island",
      "types": [ "locality", "political" ]
    }, {
      "long_name": "Collier",
      "short_name": "Collier",
      "types": [ "administrative_area_level_2", "political" ]
    }, {
      "long_name": "Florida",
      "short_name": "FL",
      "types": [ "administrative_area_level_1", "political" ]
    }, {
      "long_name": "United States",
      "short_name": "US",
      "types": [ "country", "political" ]
    } ],
    "geometry": {
      "location": {
        "lat": 25.9405556,
        "lng": -81.7147222
      },
      "location_type": "APPROXIMATE",
      "viewport": {
        "southwest": {
          "lat": 25.9004135,
          "lng": -81.7787519
        },
        "northeast": {
          "lat": 25.9806840,
          "lng": -81.6506925
        }
      },
      "bounds": {
        "southwest": {
          "lat": 25.8952290,
          "lng": -81.7571870
        },
        "northeast": {
          "lat": 25.9752990,
          "lng": -81.6482240
        }
      }
    }
  } ]
}
