{
  "status": "OK",
  "results": [ {
    "types": [ "locality", "political" ],
    "formatted_address": "Margate, FL, USA",
    "address_components": [ {
      "long_name": "Margate",
      "short_name": "Margate",
      "types": [ "locality", "political" ]
    }, {
      "long_name": "Broward",
      "short_name": "Broward",
      "types": [ "administrative_area_level_2", "political" ]
    }, {
      "long_name": "Florida",
      "short_name": "FL",
      "types": [ "administrative_area_level_1", "political" ]
    }, {
      "long_name": "United States",
      "short_name": "US",
      "types": [ "country", "political" ]
    } ],
    "geometry": {
      "location": {
        "lat": 26.2445263,
        "lng": -80.2064360
      },
      "location_type": "APPROXIMATE",
      "viewport": {
        "southwest": {
          "lat": 26.2245090,
          "lng": -80.2384508
        },
        "northeast": {
          "lat": 26.2645401,
          "lng": -80.1744212
        }
      },
      "bounds": {
        "southwest": {
          "lat": 26.2105140,
          "lng": -80.2336680
        },
        "northeast": {
          "lat": 26.2741580,
          "lng": -80.1901390
        }
      }
    }
  } ]
}
