{
  "status": "OK",
  "results": [ {
    "types": [ "locality", "political" ],
    "formatted_address": "Miami Gardens, FL, USA",
    "address_components": [ {
      "long_name": "Miami Gardens",
      "short_name": "Miami Gardens",
      "types": [ "locality", "political" ]
    }, {
      "long_name": "Miami-Dade",
      "short_name": "Miami-Dade",
      "types": [ "administrative_area_level_2", "political" ]
    }, {
      "long_name": "Florida",
      "short_name": "FL",
      "types": [ "administrative_area_level_1", "political" ]
    }, {
      "long_name": "United States",
      "short_name": "US",
      "types": [ "country", "political" ]
    } ],
    "geometry": {
      "location": {
        "lat": 25.9420377,
        "lng": -80.2456045
      },
      "location_type": "APPROXIMATE",
      "viewport": {
        "southwest": {
          "lat": 25.9018962,
          "lng": -80.3096342
        },
        "northeast": {
          "lat": 25.9821656,
          "lng": -80.1815748
        }
      },
      "bounds": {
        "southwest": {
          "lat": 25.9112710,
          "lng": -80.2931399
        },
        "northeast": {
          "lat": 25.9730159,
          "lng": -80.1976749
        }
      }
    }
  } ]
}
