{
  "status": "OK",
  "results": [ {
    "types": [ "locality", "political" ],
    "formatted_address": "Miami, FL, USA",
    "address_components": [ {
      "long_name": "Miami",
      "short_name": "Miami",
      "types": [ "locality", "political" ]
    }, {
      "long_name": "Miami-Dade",
      "short_name": "Miami-Dade",
      "types": [ "administrative_area_level_2", "political" ]
    }, {
      "long_name": "Florida",
      "short_name": "FL",
      "types": [ "administrative_area_level_1", "political" ]
    }, {
      "long_name": "United States",
      "short_name": "US",
      "types": [ "country", "political" ]
    } ],
    "geometry": {
      "location": {
        "lat": 25.7742657,
        "lng": -80.1936589
      },
      "location_type": "APPROXIMATE",
      "viewport": {
        "southwest": {
          "lat": 25.6938551,
          "lng": -80.3217183
        },
        "northeast": {
          "lat": 25.8546219,
          "lng": -80.0655995
        }
      },
      "bounds": {
        "southwest": {
          "lat": 25.7090420,
          "lng": -80.3197600
        },
        "northeast": {
          "lat": 25.8557730,
          "lng": -80.1391570
        }
      }
    }
  } ]
}
