{
  "status": "OK",
  "results": [ {
    "types": [ "locality", "political" ],
    "formatted_address": "Milton, FL, USA",
    "address_components": [ {
      "long_name": "Milton",
      "short_name": "Milton",
      "types": [ "locality", "political" ]
    }, {
      "long_name": "Santa Rosa",
      "short_name": "Santa Rosa",
      "types": [ "administrative_area_level_2", "political" ]
    }, {
      "long_name": "Florida",
      "short_name": "FL",
      "types": [ "administrative_area_level_1", "political" ]
    }, {
      "long_name": "United States",
      "short_name": "US",
      "types": [ "country", "political" ]
    } ],
    "geometry": {
      "location": {
        "lat": 30.6324149,
        "lng": -87.0396881
      },
      "location_type": "APPROXIMATE",
      "viewport": {
        "southwest": {
          "lat": 30.6132111,
          "lng": -87.0717029
        },
        "northeast": {
          "lat": 30.6516149,
          "lng": -87.0076733
        }
      },
      "bounds": {
        "southwest": {
          "lat": 30.6021720,
          "lng": -87.0772789
        },
        "northeast": {
          "lat": 30.6544030,
          "lng": -87.0293720
        }
      }
    }
  } ]
}
