{
  "status": "OK",
  "results": [ {
    "types": [ "locality", "political" ],
    "formatted_address": "Mulberry, FL, USA",
    "address_components": [ {
      "long_name": "Mulberry",
      "short_name": "Mulberry",
      "types": [ "locality", "political" ]
    }, {
      "long_name": "Polk",
      "short_name": "Polk",
      "types": [ "administrative_area_level_2", "political" ]
    }, {
      "long_name": "Florida",
      "short_name": "FL",
      "types": [ "administrative_area_level_1", "political" ]
    }, {
      "long_name": "United States",
      "short_name": "US",
      "types": [ "country", "political" ]
    } ],
    "geometry": {
      "location": {
        "lat": 27.8953038,
        "lng": -81.9734172
      },
      "location_type": "APPROXIMATE",
      "viewport": {
        "southwest": {
          "lat": 27.8558507,
          "lng": -82.0374469
        },
        "northeast": {
          "lat": 27.9347425,
          "lng": -81.9093875
        }
      },
      "bounds": {
        "southwest": {
          "lat": 27.8887510,
          "lng": -82.0183270
        },
        "northeast": {
          "lat": 27.9384560,
          "lng": -81.9451189
        }
      }
    }
  } ]
}
