{
  "status": "OK",
  "results": [ {
    "types": [ "locality", "political" ],
    "formatted_address": "North Redington Beach, FL, USA",
    "address_components": [ {
      "long_name": "North Redington Beach",
      "short_name": "North Redington Beach",
      "types": [ "locality", "political" ]
    }, {
      "long_name": "Pinellas",
      "short_name": "Pinellas",
      "types": [ "administrative_area_level_2", "political" ]
    }, {
      "long_name": "Florida",
      "short_name": "FL",
      "types": [ "administrative_area_level_1", "political" ]
    }, {
      "long_name": "United States",
      "short_name": "US",
      "types": [ "country", "political" ]
    } ],
    "geometry": {
      "location": {
        "lat": 27.8161361,
        "lng": -82.8206587
      },
      "location_type": "APPROXIMATE",
      "viewport": {
        "southwest": {
          "lat": 27.8062670,
          "lng": -82.8366661
        },
        "northeast": {
          "lat": 27.8260043,
          "lng": -82.8046513
        }
      },
      "bounds": {
        "southwest": {
          "lat": 27.8088630,
          "lng": -82.8360809
        },
        "northeast": {
          "lat": 27.8289060,
          "lng": -82.8097250
        }
      }
    }
  } ]
}
