{
  "status": "OK",
  "results": [ {
    "types": [ "locality", "political" ],
    "formatted_address": "Oak Hill, FL, USA",
    "address_components": [ {
      "long_name": "Oak Hill",
      "short_name": "Oak Hill",
      "types": [ "locality", "political" ]
    }, {
      "long_name": "Volusia",
      "short_name": "Volusia",
      "types": [ "administrative_area_level_2", "political" ]
    }, {
      "long_name": "Florida",
      "short_name": "FL",
      "types": [ "administrative_area_level_1", "political" ]
    }, {
      "long_name": "United States",
      "short_name": "US",
      "types": [ "country", "political" ]
    } ],
    "geometry": {
      "location": {
        "lat": 28.8644338,
        "lng": -80.8544974
      },
      "location_type": "APPROXIMATE",
      "viewport": {
        "southwest": {
          "lat": 28.8253394,
          "lng": -80.9185271
        },
        "northeast": {
          "lat": 28.9035135,
          "lng": -80.7904677
        }
      },
      "bounds": {
        "southwest": {
          "lat": 28.8270700,
          "lng": -80.8811449
        },
        "northeast": {
          "lat": 28.9077460,
          "lng": -80.7815080
        }
      }
    }
  } ]
}
