{
  "status": "OK",
  "results": [ {
    "types": [ "locality", "political" ],
    "formatted_address": "Oakland, FL, USA",
    "address_components": [ {
      "long_name": "Oakland",
      "short_name": "Oakland",
      "types": [ "locality", "political" ]
    }, {
      "long_name": "Orange",
      "short_name": "Orange",
      "types": [ "administrative_area_level_2", "political" ]
    }, {
      "long_name": "Florida",
      "short_name": "FL",
      "types": [ "administrative_area_level_1", "political" ]
    }, {
      "long_name": "United States",
      "short_name": "US",
      "types": [ "country", "political" ]
    } ],
    "geometry": {
      "location": {
        "lat": 28.5550010,
        "lng": -81.6331299
      },
      "location_type": "APPROXIMATE",
      "viewport": {
        "southwest": {
          "lat": 28.5451998,
          "lng": -81.6491373
        },
        "northeast": {
          "lat": 28.5648013,
          "lng": -81.6171225
        }
      },
      "bounds": {
        "southwest": {
          "lat": 28.5419360,
          "lng": -81.6520960
        },
        "northeast": {
          "lat": 28.5640780,
          "lng": -81.6154679
        }
      }
    }
  } ]
}
