{
  "status": "OK",
  "results": [ {
    "types": [ "locality", "political" ],
    "formatted_address": "Opa-locka, FL, USA",
    "address_components": [ {
      "long_name": "Opa-locka",
      "short_name": "Opa-locka",
      "types": [ "locality", "political" ]
    }, {
      "long_name": "Miami-Dade",
      "short_name": "Miami-Dade",
      "types": [ "administrative_area_level_2", "political" ]
    }, {
      "long_name": "Florida",
      "short_name": "FL",
      "types": [ "administrative_area_level_1", "political" ]
    }, {
      "long_name": "United States",
      "short_name": "US",
      "types": [ "country", "political" ]
    } ],
    "geometry": {
      "location": {
        "lat": 25.9023168,
        "lng": -80.2503271
      },
      "location_type": "APPROXIMATE",
      "viewport": {
        "southwest": {
          "lat": 25.8822410,
          "lng": -80.2823419
        },
        "northeast": {
          "lat": 25.9223892,
          "lng": -80.2183123
        }
      },
      "bounds": {
        "southwest": {
          "lat": 25.8816369,
          "lng": -80.2761750
        },
        "northeast": {
          "lat": 25.9122479,
          "lng": -80.2273720
        }
      }
    }
  } ]
}
