{
  "status": "OK",
  "results": [ {
    "types": [ "locality", "political" ],
    "formatted_address": "Ormond Beach, FL, USA",
    "address_components": [ {
      "long_name": "Ormond Beach",
      "short_name": "Ormond Beach",
      "types": [ "locality", "political" ]
    }, {
      "long_name": "Volusia",
      "short_name": "Volusia",
      "types": [ "administrative_area_level_2", "political" ]
    }, {
      "long_name": "Florida",
      "short_name": "FL",
      "types": [ "administrative_area_level_1", "political" ]
    }, {
      "long_name": "United States",
      "short_name": "US",
      "types": [ "country", "political" ]
    } ],
    "geometry": {
      "location": {
        "lat": 29.2858129,
        "lng": -81.0558894
      },
      "location_type": "APPROXIMATE",
      "viewport": {
        "southwest": {
          "lat": 29.2079281,
          "lng": -81.1839488
        },
        "northeast": {
          "lat": 29.3636384,
          "lng": -80.9278300
        }
      },
      "bounds": {
        "southwest": {
          "lat": 29.2445709,
          "lng": -81.1953580
        },
        "northeast": {
          "lat": 29.3703550,
          "lng": -81.0272770
        }
      }
    }
  } ]
}
