{
  "status": "OK",
  "results": [ {
    "types": [ "locality", "political" ],
    "formatted_address": "Palatka, FL, USA",
    "address_components": [ {
      "long_name": "Palatka",
      "short_name": "Palatka",
      "types": [ "locality", "political" ]
    }, {
      "long_name": "Putnam",
      "short_name": "Putnam",
      "types": [ "administrative_area_level_2", "political" ]
    }, {
      "long_name": "Florida",
      "short_name": "FL",
      "types": [ "administrative_area_level_1", "political" ]
    }, {
      "long_name": "United States",
      "short_name": "US",
      "types": [ "country", "political" ]
    } ],
    "geometry": {
      "location": {
        "lat": 29.6485801,
        "lng": -81.6375819
      },
      "location_type": "APPROXIMATE",
      "viewport": {
        "southwest": {
          "lat": 29.6097841,
          "lng": -81.7016116
        },
        "northeast": {
          "lat": 29.6873612,
          "lng": -81.5735522
        }
      },
      "bounds": {
        "southwest": {
          "lat": 29.6078060,
          "lng": -81.7128649
        },
        "northeast": {
          "lat": 29.6826960,
          "lng": -81.6251090
        }
      }
    }
  } ]
}
