{
  "status": "OK",
  "results": [ {
    "types": [ "locality", "political" ],
    "formatted_address": "Palm Springs, FL, USA",
    "address_components": [ {
      "long_name": "Palm Springs",
      "short_name": "Palm Springs",
      "types": [ "locality", "political" ]
    }, {
      "long_name": "Palm Beach",
      "short_name": "Palm Beach",
      "types": [ "administrative_area_level_2", "political" ]
    }, {
      "long_name": "Florida",
      "short_name": "FL",
      "types": [ "administrative_area_level_1", "political" ]
    }, {
      "long_name": "United States",
      "short_name": "US",
      "types": [ "country", "political" ]
    } ],
    "geometry": {
      "location": {
        "lat": 26.6359009,
        "lng": -80.0961538
      },
      "location_type": "APPROXIMATE",
      "viewport": {
        "southwest": {
          "lat": 26.6159515,
          "lng": -80.1281686
        },
        "northeast": {
          "lat": 26.6558468,
          "lng": -80.0641390
        }
      },
      "bounds": {
        "southwest": {
          "lat": 26.6147579,
          "lng": -80.1130079
        },
        "northeast": {
          "lat": 26.6645540,
          "lng": -80.0811540
        }
      }
    }
  } ]
}
