{
  "status": "OK",
  "results": [ {
    "types": [ "locality", "political" ],
    "formatted_address": "Pembroke Pines, FL, USA",
    "address_components": [ {
      "long_name": "Pembroke Pines",
      "short_name": "Pembroke Pines",
      "types": [ "locality", "political" ]
    }, {
      "long_name": "Broward",
      "short_name": "Broward",
      "types": [ "administrative_area_level_2", "political" ]
    }, {
      "long_name": "Florida",
      "short_name": "FL",
      "types": [ "administrative_area_level_1", "political" ]
    }, {
      "long_name": "United States",
      "short_name": "US",
      "types": [ "country", "political" ]
    } ],
    "geometry": {
      "location": {
        "lat": 26.0031465,
        "lng": -80.2239370
      },
      "location_type": "APPROXIMATE",
      "viewport": {
        "southwest": {
          "lat": 25.9228914,
          "lng": -80.3519964
        },
        "northeast": {
          "lat": 26.0833468,
          "lng": -80.0958776
        }
      },
      "bounds": {
        "southwest": {
          "lat": 25.9921690,
          "lng": -80.4422089
        },
        "northeast": {
          "lat": 26.0610210,
          "lng": -80.2133690
        }
      }
    }
  } ]
}
