{
  "status": "OK",
  "results": [ {
    "types": [ "locality", "political" ],
    "formatted_address": "Pompano Beach, FL, USA",
    "address_components": [ {
      "long_name": "Pompano Beach",
      "short_name": "Pompano Beach",
      "types": [ "locality", "political" ]
    }, {
      "long_name": "Broward",
      "short_name": "Broward",
      "types": [ "administrative_area_level_2", "political" ]
    }, {
      "long_name": "Florida",
      "short_name": "FL",
      "types": [ "administrative_area_level_1", "political" ]
    }, {
      "long_name": "United States",
      "short_name": "US",
      "types": [ "country", "political" ]
    } ],
    "geometry": {
      "location": {
        "lat": 26.2378597,
        "lng": -80.1247667
      },
      "location_type": "APPROXIMATE",
      "viewport": {
        "southwest": {
          "lat": 26.1978194,
          "lng": -80.1887964
        },
        "northeast": {
          "lat": 26.2778862,
          "lng": -80.0607370
        }
      },
      "bounds": {
        "southwest": {
          "lat": 26.2058599,
          "lng": -80.1955689
        },
        "northeast": {
          "lat": 26.2976259,
          "lng": -80.0786650
        }
      }
    }
  } ]
}
