{
  "status": "OK",
  "results": [ {
    "types": [ "locality", "political" ],
    "formatted_address": "Port Orange, FL, USA",
    "address_components": [ {
      "long_name": "Port Orange",
      "short_name": "Port Orange",
      "types": [ "locality", "political" ]
    }, {
      "long_name": "Volusia",
      "short_name": "Volusia",
      "types": [ "administrative_area_level_2", "political" ]
    }, {
      "long_name": "Florida",
      "short_name": "FL",
      "types": [ "administrative_area_level_1", "political" ]
    }, {
      "long_name": "United States",
      "short_name": "US",
      "types": [ "country", "political" ]
    } ],
    "geometry": {
      "location": {
        "lat": 29.1383165,
        "lng": -80.9956105
      },
      "location_type": "APPROXIMATE",
      "viewport": {
        "southwest": {
          "lat": 29.0603197,
          "lng": -81.1236699
        },
        "northeast": {
          "lat": 29.2162542,
          "lng": -80.8675511
        }
      },
      "bounds": {
        "southwest": {
          "lat": 29.0451230,
          "lng": -81.0724489
        },
        "northeast": {
          "lat": 29.1572310,
          "lng": -80.9602759
        }
      }
    }
  } ]
}
