{
  "status": "OK",
  "results": [ {
    "types": [ "locality", "political" ],
    "formatted_address": "St. Augustine Beach, FL, USA",
    "address_components": [ {
      "long_name": "St. Augustine Beach",
      "short_name": "St. Augustine Beach",
      "types": [ "locality", "political" ]
    }, {
      "long_name": "St. Johns",
      "short_name": "St. Johns",
      "types": [ "administrative_area_level_2", "political" ]
    }, {
      "long_name": "Florida",
      "short_name": "FL",
      "types": [ "administrative_area_level_1", "political" ]
    }, {
      "long_name": "United States",
      "short_name": "US",
      "types": [ "country", "political" ]
    } ],
    "geometry": {
      "location": {
        "lat": 29.8420920,
        "lng": -81.2710670
      },
      "location_type": "APPROXIMATE",
      "viewport": {
        "southwest": {
          "lat": 29.8227332,
          "lng": -81.3030818
        },
        "northeast": {
          "lat": 29.8614470,
          "lng": -81.2390522
        }
      },
      "bounds": {
        "southwest": {
          "lat": 29.8194480,
          "lng": -81.2834759
        },
        "northeast": {
          "lat": 29.8595510,
          "lng": -81.2621590
        }
      }
    }
  } ]
}
