{
  "status": "OK",
  "results": [ {
    "types": [ "locality", "political" ],
    "formatted_address": "Sanford, FL, USA",
    "address_components": [ {
      "long_name": "Sanford",
      "short_name": "Sanford",
      "types": [ "locality", "political" ]
    }, {
      "long_name": "Seminole",
      "short_name": "Seminole",
      "types": [ "administrative_area_level_2", "political" ]
    }, {
      "long_name": "Florida",
      "short_name": "FL",
      "types": [ "administrative_area_level_1", "political" ]
    }, {
      "long_name": "United States",
      "short_name": "US",
      "types": [ "country", "political" ]
    } ],
    "geometry": {
      "location": {
        "lat": 28.7932700,
        "lng": -81.2765610
      },
      "location_type": "APPROXIMATE",
      "viewport": {
        "southwest": {
          "lat": 28.7541489,
          "lng": -81.3405907
        },
        "northeast": {
          "lat": 28.8323765,
          "lng": -81.2125313
        }
      },
      "bounds": {
        "southwest": {
          "lat": 28.7392710,
          "lng": -81.3474859
        },
        "northeast": {
          "lat": 28.8345640,
          "lng": -81.2018830
        }
      }
    }
  } ]
}
