{
  "status": "OK",
  "results": [ {
    "types": [ "locality", "political" ],
    "formatted_address": "Satellite Beach, FL, USA",
    "address_components": [ {
      "long_name": "Satellite Beach",
      "short_name": "Satellite Beach",
      "types": [ "locality", "political" ]
    }, {
      "long_name": "Brevard",
      "short_name": "Brevard",
      "types": [ "administrative_area_level_2", "political" ]
    }, {
      "long_name": "Florida",
      "short_name": "FL",
      "types": [ "administrative_area_level_1", "political" ]
    }, {
      "long_name": "United States",
      "short_name": "US",
      "types": [ "country", "political" ]
    } ],
    "geometry": {
      "location": {
        "lat": 28.1761233,
        "lng": -80.5900519
      },
      "location_type": "APPROXIMATE",
      "viewport": {
        "southwest": {
          "lat": 28.1564499,
          "lng": -80.6220667
        },
        "northeast": {
          "lat": 28.1957930,
          "lng": -80.5580371
        }
      },
      "bounds": {
        "southwest": {
          "lat": 28.1575910,
          "lng": -80.6247750
        },
        "northeast": {
          "lat": 28.1979160,
          "lng": -80.5816749
        }
      }
    }
  } ]
}
