{
  "status": "OK",
  "results": [ {
    "types": [ "locality", "political" ],
    "formatted_address": "Sebring, FL, USA",
    "address_components": [ {
      "long_name": "Sebring",
      "short_name": "Sebring",
      "types": [ "locality", "political" ]
    }, {
      "long_name": "Highlands",
      "short_name": "Highlands",
      "types": [ "administrative_area_level_2", "political" ]
    }, {
      "long_name": "Florida",
      "short_name": "FL",
      "types": [ "administrative_area_level_1", "political" ]
    }, {
      "long_name": "United States",
      "short_name": "US",
      "types": [ "country", "political" ]
    } ],
    "geometry": {
      "location": {
        "lat": 27.4955920,
        "lng": -81.4409070
      },
      "location_type": "APPROXIMATE",
      "viewport": {
        "southwest": {
          "lat": 27.4559943,
          "lng": -81.5049367
        },
        "northeast": {
          "lat": 27.5351755,
          "lng": -81.3768773
        }
      },
      "bounds": {
        "southwest": {
          "lat": 27.4124460,
          "lng": -81.4998880
        },
        "northeast": {
          "lat": 27.5282990,
          "lng": -81.4130030
        }
      }
    }
  } ]
}
