{
  "status": "OK",
  "results": [ {
    "types": [ "locality", "political" ],
    "formatted_address": "Tequesta, FL, USA",
    "address_components": [ {
      "long_name": "Tequesta",
      "short_name": "Tequesta",
      "types": [ "locality", "political" ]
    }, {
      "long_name": "Palm Beach",
      "short_name": "Palm Beach",
      "types": [ "administrative_area_level_2", "political" ]
    }, {
      "long_name": "Florida",
      "short_name": "FL",
      "types": [ "administrative_area_level_1", "political" ]
    }, {
      "long_name": "United States",
      "short_name": "US",
      "types": [ "country", "political" ]
    } ],
    "geometry": {
      "location": {
        "lat": 26.9607840,
        "lng": -80.0973660
      },
      "location_type": "APPROXIMATE",
      "viewport": {
        "southwest": {
          "lat": 26.9508383,
          "lng": -80.1133734
        },
        "northeast": {
          "lat": 26.9707289,
          "lng": -80.0813586
        }
      },
      "bounds": {
        "southwest": {
          "lat": 26.9507050,
          "lng": -80.1262649
        },
        "northeast": {
          "lat": 26.9709340,
          "lng": -80.0742530
        }
      }
    }
  } ]
}
