{
  "status": "OK",
  "results": [ {
    "types": [ "locality", "political" ],
    "formatted_address": "Trenton, FL, USA",
    "address_components": [ {
      "long_name": "Trenton",
      "short_name": "Trenton",
      "types": [ "locality", "political" ]
    }, {
      "long_name": "Gilchrist",
      "short_name": "Gilchrist",
      "types": [ "administrative_area_level_2", "political" ]
    }, {
      "long_name": "Florida",
      "short_name": "FL",
      "types": [ "administrative_area_level_1", "political" ]
    }, {
      "long_name": "United States",
      "short_name": "US",
      "types": [ "country", "political" ]
    } ],
    "geometry": {
      "location": {
        "lat": 29.6132942,
        "lng": -82.8176203
      },
      "location_type": "APPROXIMATE",
      "viewport": {
        "southwest": {
          "lat": 29.5938913,
          "lng": -82.8496351
        },
        "northeast": {
          "lat": 29.6326934,
          "lng": -82.7856055
        }
      },
      "bounds": {
        "southwest": {
          "lat": 29.5905040,
          "lng": -82.8316660
        },
        "northeast": {
          "lat": 29.6298850,
          "lng": -82.7940660
        }
      }
    }
  } ]
}
