{
  "status": "OK",
  "results": [ {
    "types": [ "locality", "political" ],
    "formatted_address": "White Springs, FL, USA",
    "address_components": [ {
      "long_name": "White Springs",
      "short_name": "White Springs",
      "types": [ "locality", "political" ]
    }, {
      "long_name": "Hamilton",
      "short_name": "Hamilton",
      "types": [ "administrative_area_level_2", "political" ]
    }, {
      "long_name": "Florida",
      "short_name": "FL",
      "types": [ "administrative_area_level_1", "political" ]
    }, {
      "long_name": "United States",
      "short_name": "US",
      "types": [ "country", "political" ]
    } ],
    "geometry": {
      "location": {
        "lat": 30.3296697,
        "lng": -82.7590165
      },
      "location_type": "APPROXIMATE",
      "viewport": {
        "southwest": {
          "lat": 30.3200384,
          "lng": -82.7750239
        },
        "northeast": {
          "lat": 30.3393001,
          "lng": -82.7430091
        }
      },
      "bounds": {
        "southwest": {
          "lat": 30.3188740,
          "lng": -82.7717770
        },
        "northeast": {
          "lat": 30.3407300,
          "lng": -82.7372500
        }
      }
    }
  } ]
}
