{
  "status": "OK",
  "results": [ {
    "types": [ "locality", "political" ],
    "formatted_address": "Windermere, FL, USA",
    "address_components": [ {
      "long_name": "Windermere",
      "short_name": "Windermere",
      "types": [ "locality", "political" ]
    }, {
      "long_name": "Orange",
      "short_name": "Orange",
      "types": [ "administrative_area_level_2", "political" ]
    }, {
      "long_name": "Florida",
      "short_name": "FL",
      "types": [ "administrative_area_level_1", "political" ]
    }, {
      "long_name": "United States",
      "short_name": "US",
      "types": [ "country", "political" ]
    } ],
    "geometry": {
      "location": {
        "lat": 28.4955593,
        "lng": -81.5347952
      },
      "location_type": "APPROXIMATE",
      "viewport": {
        "southwest": {
          "lat": 28.4857526,
          "lng": -81.5508026
        },
        "northeast": {
          "lat": 28.5053651,
          "lng": -81.5187878
        }
      },
      "bounds": {
        "southwest": {
          "lat": 28.4858530,
          "lng": -81.5497950
        },
        "northeast": {
          "lat": 28.5152800,
          "lng": -81.5120980
        }
      }
    }
  } ]
}
