{
  "status": "OK",
  "results": [ {
    "types": [ "locality", "political" ],
    "formatted_address": "Winter Park, FL, USA",
    "address_components": [ {
      "long_name": "Winter Park",
      "short_name": "Winter Park",
      "types": [ "locality", "political" ]
    }, {
      "long_name": "Orange",
      "short_name": "Orange",
      "types": [ "administrative_area_level_2", "political" ]
    }, {
      "long_name": "Florida",
      "short_name": "FL",
      "types": [ "administrative_area_level_1", "political" ]
    }, {
      "long_name": "United States",
      "short_name": "US",
      "types": [ "country", "political" ]
    } ],
    "geometry": {
      "location": {
        "lat": 28.5999998,
        "lng": -81.3392352
      },
      "location_type": "APPROXIMATE",
      "viewport": {
        "southwest": {
          "lat": 28.5608064,
          "lng": -81.4032649
        },
        "northeast": {
          "lat": 28.6391786,
          "lng": -81.2752055
        }
      },
      "bounds": {
        "southwest": {
          "lat": 28.5678480,
          "lng": -81.3865880
        },
        "northeast": {
          "lat": 28.6324759,
          "lng": -81.3079899
        }
      }
    }
  } ]
}
