{
  "status": "OK",
  "results": [ {
    "types": [ "locality", "political" ],
    "formatted_address": "Zephyrhills, FL, USA",
    "address_components": [ {
      "long_name": "Zephyrhills",
      "short_name": "Zephyrhills",
      "types": [ "locality", "political" ]
    }, {
      "long_name": "Pasco",
      "short_name": "Pasco",
      "types": [ "administrative_area_level_2", "political" ]
    }, {
      "long_name": "Florida",
      "short_name": "FL",
      "types": [ "administrative_area_level_1", "political" ]
    }, {
      "long_name": "United States",
      "short_name": "US",
      "types": [ "country", "political" ]
    } ],
    "geometry": {
      "location": {
        "lat": 28.2336196,
        "lng": -82.1811947
      },
      "location_type": "APPROXIMATE",
      "viewport": {
        "southwest": {
          "lat": 28.1942904,
          "lng": -82.2452244
        },
        "northeast": {
          "lat": 28.2729343,
          "lng": -82.1171650
        }
      },
      "bounds": {
        "southwest": {
          "lat": 28.1974410,
          "lng": -82.2289330
        },
        "northeast": {
          "lat": 28.2857810,
          "lng": -82.1446409
        }
      }
    }
  } ]
}
