{
  "status": "OK",
  "results": [ {
    "types": [ "locality", "political" ],
    "formatted_address": "Beattyville, KY, USA",
    "address_components": [ {
      "long_name": "Beattyville",
      "short_name": "Beattyville",
      "types": [ "locality", "political" ]
    }, {
      "long_name": "Lee",
      "short_name": "Lee",
      "types": [ "administrative_area_level_2", "political" ]
    }, {
      "long_name": "Kentucky",
      "short_name": "KY",
      "types": [ "administrative_area_level_1", "political" ]
    }, {
      "long_name": "United States",
      "short_name": "US",
      "types": [ "country", "political" ]
    } ],
    "geometry": {
      "location": {
        "lat": 37.5717532,
        "lng": -83.7068597
      },
      "location_type": "APPROXIMATE",
      "viewport": {
        "southwest": {
          "lat": 37.5540637,
          "lng": -83.7388745
        },
        "northeast": {
          "lat": 37.5894385,
          "lng": -83.6748449
        }
      },
      "bounds": {
        "southwest": {
          "lat": 37.5660240,
          "lng": -83.7245119
        },
        "northeast": {
          "lat": 37.6021760,
          "lng": -83.6929730
        }
      }
    }
  } ]
}
