{
  "status": "OK",
  "results": [ {
    "types": [ "locality", "political" ],
    "formatted_address": "Bellefonte, KY, USA",
    "address_components": [ {
      "long_name": "Bellefonte",
      "short_name": "Bellefonte",
      "types": [ "locality", "political" ]
    }, {
      "long_name": "Greenup",
      "short_name": "Greenup",
      "types": [ "administrative_area_level_2", "political" ]
    }, {
      "long_name": "Kentucky",
      "short_name": "KY",
      "types": [ "administrative_area_level_1", "political" ]
    }, {
      "long_name": "United States",
      "short_name": "US",
      "types": [ "country", "political" ]
    } ],
    "geometry": {
      "location": {
        "lat": 38.4925809,
        "lng": -82.6901625
      },
      "location_type": "APPROXIMATE",
      "viewport": {
        "southwest": {
          "lat": 38.4838471,
          "lng": -82.7061699
        },
        "northeast": {
          "lat": 38.5013136,
          "lng": -82.6741551
        }
      },
      "bounds": {
        "southwest": {
          "lat": 38.4885600,
          "lng": -82.6997870
        },
        "northeast": {
          "lat": 38.5039869,
          "lng": -82.6784440
        }
      }
    }
  } ]
}
