{
  "status": "OK",
  "results": [ {
    "types": [ "locality", "political" ],
    "formatted_address": "Benham, KY, USA",
    "address_components": [ {
      "long_name": "Benham",
      "short_name": "Benham",
      "types": [ "locality", "political" ]
    }, {
      "long_name": "Harlan",
      "short_name": "Harlan",
      "types": [ "administrative_area_level_2", "political" ]
    }, {
      "long_name": "Kentucky",
      "short_name": "KY",
      "types": [ "administrative_area_level_1", "political" ]
    }, {
      "long_name": "United States",
      "short_name": "US",
      "types": [ "country", "political" ]
    } ],
    "geometry": {
      "location": {
        "lat": 36.9648148,
        "lng": -82.9484954
      },
      "location_type": "APPROXIMATE",
      "viewport": {
        "southwest": {
          "lat": 36.9558990,
          "lng": -82.9645028
        },
        "northeast": {
          "lat": 36.9737296,
          "lng": -82.9324880
        }
      },
      "bounds": {
        "southwest": {
          "lat": 36.9567140,
          "lng": -82.9681330
        },
        "northeast": {
          "lat": 36.9709710,
          "lng": -82.9355180
        }
      }
    }
  } ]
}
