{
  "status": "OK",
  "results": [ {
    "types": [ "locality", "political" ],
    "formatted_address": "Bowling Green, KY, USA",
    "address_components": [ {
      "long_name": "Bowling Green",
      "short_name": "Bowling Green",
      "types": [ "locality", "political" ]
    }, {
      "long_name": "Warren",
      "short_name": "Warren",
      "types": [ "administrative_area_level_2", "political" ]
    }, {
      "long_name": "Kentucky",
      "short_name": "KY",
      "types": [ "administrative_area_level_1", "political" ]
    }, {
      "long_name": "United States",
      "short_name": "US",
      "types": [ "country", "political" ]
    } ],
    "geometry": {
      "location": {
        "lat": 36.9903199,
        "lng": -86.4436018
      },
      "location_type": "APPROXIMATE",
      "viewport": {
        "southwest": {
          "lat": 36.9189881,
          "lng": -86.5716612
        },
        "northeast": {
          "lat": 37.0615849,
          "lng": -86.3155424
        }
      },
      "bounds": {
        "southwest": {
          "lat": 36.8988469,
          "lng": -86.5332069
        },
        "northeast": {
          "lat": 37.0466520,
          "lng": -86.3067190
        }
      }
    }
  } ]
}
