{
  "status": "OK",
  "results": [ {
    "types": [ "locality", "political" ],
    "formatted_address": "Brownsville, KY 42210, USA",
    "address_components": [ {
      "long_name": "Brownsville",
      "short_name": "Brownsville",
      "types": [ "locality", "political" ]
    }, {
      "long_name": "Edmonson",
      "short_name": "Edmonson",
      "types": [ "administrative_area_level_2", "political" ]
    }, {
      "long_name": "Kentucky",
      "short_name": "KY",
      "types": [ "administrative_area_level_1", "political" ]
    }, {
      "long_name": "United States",
      "short_name": "US",
      "types": [ "country", "political" ]
    }, {
      "long_name": "42210",
      "short_name": "42210",
      "types": [ "postal_code" ]
    } ],
    "geometry": {
      "location": {
        "lat": 37.1925472,
        "lng": -86.2677545
      },
      "location_type": "APPROXIMATE",
      "viewport": {
        "southwest": {
          "lat": 37.1747680,
          "lng": -86.2997693
        },
        "northeast": {
          "lat": 37.2103222,
          "lng": -86.2357397
        }
      },
      "bounds": {
        "southwest": {
          "lat": 37.1793670,
          "lng": -86.2961620
        },
        "northeast": {
          "lat": 37.2166560,
          "lng": -86.2344239
        }
      }
    }
  } ]
}
