{
  "status": "OK",
  "results": [ {
    "types": [ "locality", "political" ],
    "formatted_address": "Burkesville, KY, USA",
    "address_components": [ {
      "long_name": "Burkesville",
      "short_name": "Burkesville",
      "types": [ "locality", "political" ]
    }, {
      "long_name": "Cumberland",
      "short_name": "Cumberland",
      "types": [ "administrative_area_level_2", "political" ]
    }, {
      "long_name": "Kentucky",
      "short_name": "KY",
      "types": [ "administrative_area_level_1", "political" ]
    }, {
      "long_name": "United States",
      "short_name": "US",
      "types": [ "country", "political" ]
    } ],
    "geometry": {
      "location": {
        "lat": 36.7903399,
        "lng": -85.3705186
      },
      "location_type": "APPROXIMATE",
      "viewport": {
        "southwest": {
          "lat": 36.7724665,
          "lng": -85.4025334
        },
        "northeast": {
          "lat": 36.8082092,
          "lng": -85.3385038
        }
      },
      "bounds": {
        "southwest": {
          "lat": 36.7688909,
          "lng": -85.3841010
        },
        "northeast": {
          "lat": 36.8078740,
          "lng": -85.3505859
        }
      }
    }
  } ]
}
