{
  "status": "OK",
  "results": [ {
    "types": [ "locality", "political" ],
    "formatted_address": "Caneyville, KY, USA",
    "address_components": [ {
      "long_name": "Caneyville",
      "short_name": "Caneyville",
      "types": [ "locality", "political" ]
    }, {
      "long_name": "Grayson",
      "short_name": "Grayson",
      "types": [ "administrative_area_level_2", "political" ]
    }, {
      "long_name": "Kentucky",
      "short_name": "KY",
      "types": [ "administrative_area_level_1", "political" ]
    }, {
      "long_name": "United States",
      "short_name": "US",
      "types": [ "country", "political" ]
    } ],
    "geometry": {
      "location": {
        "lat": 37.4242184,
        "lng": -86.4883148
      },
      "location_type": "APPROXIMATE",
      "viewport": {
        "southwest": {
          "lat": 37.4064939,
          "lng": -86.5203296
        },
        "northeast": {
          "lat": 37.4419387,
          "lng": -86.4563000
        }
      },
      "bounds": {
        "southwest": {
          "lat": 37.4113860,
          "lng": -86.5121389
        },
        "northeast": {
          "lat": 37.4454960,
          "lng": -86.4710090
        }
      }
    }
  } ]
}
