{
  "status": "OK",
  "results": [ {
    "types": [ "locality", "political" ],
    "formatted_address": "Cynthiana, KY, USA",
    "address_components": [ {
      "long_name": "Cynthiana",
      "short_name": "Cynthiana",
      "types": [ "locality", "political" ]
    }, {
      "long_name": "Harrison",
      "short_name": "Harrison",
      "types": [ "administrative_area_level_2", "political" ]
    }, {
      "long_name": "Kentucky",
      "short_name": "KY",
      "types": [ "administrative_area_level_1", "political" ]
    }, {
      "long_name": "United States",
      "short_name": "US",
      "types": [ "country", "political" ]
    } ],
    "geometry": {
      "location": {
        "lat": 38.3903526,
        "lng": -84.2941013
      },
      "location_type": "APPROXIMATE",
      "viewport": {
        "southwest": {
          "lat": 38.3728593,
          "lng": -84.3261161
        },
        "northeast": {
          "lat": 38.4078417,
          "lng": -84.2620865
        }
      },
      "bounds": {
        "southwest": {
          "lat": 38.3550470,
          "lng": -84.3396059
        },
        "northeast": {
          "lat": 38.4090659,
          "lng": -84.2663910
        }
      }
    }
  } ]
}
