{
  "status": "OK",
  "results": [ {
    "types": [ "locality", "political" ],
    "formatted_address": "Edmonton, KY, USA",
    "address_components": [ {
      "long_name": "Edmonton",
      "short_name": "Edmonton",
      "types": [ "locality", "political" ]
    }, {
      "long_name": "Metcalfe",
      "short_name": "Metcalfe",
      "types": [ "administrative_area_level_2", "political" ]
    }, {
      "long_name": "Kentucky",
      "short_name": "KY",
      "types": [ "administrative_area_level_1", "political" ]
    }, {
      "long_name": "United States",
      "short_name": "US",
      "types": [ "country", "political" ]
    } ],
    "geometry": {
      "location": {
        "lat": 36.9800563,
        "lng": -85.6121906
      },
      "location_type": "APPROXIMATE",
      "viewport": {
        "southwest": {
          "lat": 36.9622272,
          "lng": -85.6442054
        },
        "northeast": {
          "lat": 36.9978812,
          "lng": -85.5801758
        }
      },
      "bounds": {
        "southwest": {
          "lat": 36.9644590,
          "lng": -85.6551669
        },
        "northeast": {
          "lat": 37.0039839,
          "lng": -85.5998779
        }
      }
    }
  } ]
}
