{
  "status": "OK",
  "results": [ {
    "types": [ "locality", "political" ],
    "formatted_address": "Elkhorn City, KY, USA",
    "address_components": [ {
      "long_name": "Elkhorn City",
      "short_name": "Elkhorn City",
      "types": [ "locality", "political" ]
    }, {
      "long_name": "Pike",
      "short_name": "Pike",
      "types": [ "administrative_area_level_2", "political" ]
    }, {
      "long_name": "Kentucky",
      "short_name": "KY",
      "types": [ "administrative_area_level_1", "political" ]
    }, {
      "long_name": "United States",
      "short_name": "US",
      "types": [ "country", "political" ]
    } ],
    "geometry": {
      "location": {
        "lat": 37.3039970,
        "lng": -82.3509794
      },
      "location_type": "APPROXIMATE",
      "viewport": {
        "southwest": {
          "lat": 37.2951211,
          "lng": -82.3669868
        },
        "northeast": {
          "lat": 37.3128719,
          "lng": -82.3349720
        }
      },
      "bounds": {
        "southwest": {
          "lat": 37.2890010,
          "lng": -82.3637080
        },
        "northeast": {
          "lat": 37.3125360,
          "lng": -82.3250429
        }
      }
    }
  } ]
}
