{
  "status": "OK",
  "results": [ {
    "types": [ "locality", "political" ],
    "formatted_address": "Evarts, KY, USA",
    "address_components": [ {
      "long_name": "Evarts",
      "short_name": "Evarts",
      "types": [ "locality", "political" ]
    }, {
      "long_name": "Harlan",
      "short_name": "Harlan",
      "types": [ "administrative_area_level_2", "political" ]
    }, {
      "long_name": "Kentucky",
      "short_name": "KY",
      "types": [ "administrative_area_level_1", "political" ]
    }, {
      "long_name": "United States",
      "short_name": "US",
      "types": [ "country", "political" ]
    } ],
    "geometry": {
      "location": {
        "lat": 36.8636920,
        "lng": -83.1976530
      },
      "location_type": "APPROXIMATE",
      "viewport": {
        "southwest": {
          "lat": 36.8547644,
          "lng": -83.2136604
        },
        "northeast": {
          "lat": 36.8726186,
          "lng": -83.1816456
        }
      },
      "bounds": {
        "southwest": {
          "lat": 36.8576890,
          "lng": -83.2127000
        },
        "northeast": {
          "lat": 36.8733239,
          "lng": -83.1818590
        }
      }
    }
  } ]
}
