{
  "status": "OK",
  "results": [ {
    "types": [ "locality", "political" ],
    "formatted_address": "Falmouth, KY, USA",
    "address_components": [ {
      "long_name": "Falmouth",
      "short_name": "Falmouth",
      "types": [ "locality", "political" ]
    }, {
      "long_name": "Pendleton",
      "short_name": "Pendleton",
      "types": [ "administrative_area_level_2", "political" ]
    }, {
      "long_name": "Kentucky",
      "short_name": "KY",
      "types": [ "administrative_area_level_1", "political" ]
    }, {
      "long_name": "United States",
      "short_name": "US",
      "types": [ "country", "political" ]
    } ],
    "geometry": {
      "location": {
        "lat": 38.6767372,
        "lng": -84.3302142
      },
      "location_type": "APPROXIMATE",
      "viewport": {
        "southwest": {
          "lat": 38.6680258,
          "lng": -84.3462216
        },
        "northeast": {
          "lat": 38.6854475,
          "lng": -84.3142068
        }
      },
      "bounds": {
        "southwest": {
          "lat": 38.6542180,
          "lng": -84.3467130
        },
        "northeast": {
          "lat": 38.6827900,
          "lng": -84.3210290
        }
      }
    }
  } ]
}
