{
  "status": "OK",
  "results": [ {
    "types": [ "locality", "political" ],
    "formatted_address": "Fleming-Neon, KY, USA",
    "address_components": [ {
      "long_name": "Fleming-Neon",
      "short_name": "Fleming-Neon",
      "types": [ "locality", "political" ]
    }, {
      "long_name": "Letcher",
      "short_name": "Letcher",
      "types": [ "administrative_area_level_2", "political" ]
    }, {
      "long_name": "Kentucky",
      "short_name": "KY",
      "types": [ "administrative_area_level_1", "political" ]
    }, {
      "long_name": "United States",
      "short_name": "US",
      "types": [ "country", "political" ]
    } ],
    "geometry": {
      "location": {
        "lat": 37.1923249,
        "lng": -82.7057126
      },
      "location_type": "APPROXIMATE",
      "viewport": {
        "southwest": {
          "lat": 37.1745457,
          "lng": -82.7377274
        },
        "northeast": {
          "lat": 37.2101000,
          "lng": -82.6736978
        }
      },
      "bounds": {
        "southwest": {
          "lat": 37.1814380,
          "lng": -82.7219360
        },
        "northeast": {
          "lat": 37.2104609,
          "lng": -82.6749770
        }
      }
    }
  } ]
}
