{
  "status": "OK",
  "results": [ {
    "types": [ "locality", "political" ],
    "formatted_address": "Fort Wright, KY, USA",
    "address_components": [ {
      "long_name": "Fort Wright",
      "short_name": "Fort Wright",
      "types": [ "locality", "political" ]
    }, {
      "long_name": "Kenton",
      "short_name": "Kenton",
      "types": [ "administrative_area_level_2", "political" ]
    }, {
      "long_name": "Kentucky",
      "short_name": "KY",
      "types": [ "administrative_area_level_1", "political" ]
    }, {
      "long_name": "United States",
      "short_name": "US",
      "types": [ "country", "political" ]
    } ],
    "geometry": {
      "location": {
        "lat": 39.0517272,
        "lng": -84.5341095
      },
      "location_type": "APPROXIMATE",
      "viewport": {
        "southwest": {
          "lat": 39.0170585,
          "lng": -84.5981392
        },
        "northeast": {
          "lat": 39.0863789,
          "lng": -84.4700798
        }
      },
      "bounds": {
        "southwest": {
          "lat": 39.0070399,
          "lng": -84.5593090
        },
        "northeast": {
          "lat": 39.0804819,
          "lng": -84.5114969
        }
      }
    }
  } ]
}
