{
  "status": "OK",
  "results": [ {
    "types": [ "locality", "political" ],
    "formatted_address": "Franklin, KY, USA",
    "address_components": [ {
      "long_name": "Franklin",
      "short_name": "Franklin",
      "types": [ "locality", "political" ]
    }, {
      "long_name": "Simpson",
      "short_name": "Simpson",
      "types": [ "administrative_area_level_2", "political" ]
    }, {
      "long_name": "Kentucky",
      "short_name": "KY",
      "types": [ "administrative_area_level_1", "political" ]
    }, {
      "long_name": "United States",
      "short_name": "US",
      "types": [ "country", "political" ]
    } ],
    "geometry": {
      "location": {
        "lat": 36.7222630,
        "lng": -86.5772177
      },
      "location_type": "APPROXIMATE",
      "viewport": {
        "southwest": {
          "lat": 36.6864802,
          "lng": -86.6412474
        },
        "northeast": {
          "lat": 36.7580291,
          "lng": -86.5131880
        }
      },
      "bounds": {
        "southwest": {
          "lat": 36.6925920,
          "lng": -86.6024820
        },
        "northeast": {
          "lat": 36.8029120,
          "lng": -86.5119100
        }
      }
    }
  } ]
}
