{
  "status": "OK",
  "results": [ {
    "types": [ "locality", "political" ],
    "formatted_address": "Frankfort, KY, USA",
    "address_components": [ {
      "long_name": "Frankfort",
      "short_name": "Frankfort",
      "types": [ "locality", "political" ]
    }, {
      "long_name": "Franklin",
      "short_name": "Franklin",
      "types": [ "administrative_area_level_2", "political" ]
    }, {
      "long_name": "Kentucky",
      "short_name": "KY",
      "types": [ "administrative_area_level_1", "political" ]
    }, {
      "long_name": "United States",
      "short_name": "US",
      "types": [ "country", "political" ]
    } ],
    "geometry": {
      "location": {
        "lat": 38.2009055,
        "lng": -84.8732835
      },
      "location_type": "APPROXIMATE",
      "viewport": {
        "southwest": {
          "lat": 38.1658232,
          "lng": -84.9373132
        },
        "northeast": {
          "lat": 38.2359709,
          "lng": -84.8092538
        }
      },
      "bounds": {
        "southwest": {
          "lat": 38.1578410,
          "lng": -84.9236449
        },
        "northeast": {
          "lat": 38.2310499,
          "lng": -84.8096060
        }
      }
    }
  } ]
}
