{
  "status": "OK",
  "results": [ {
    "types": [ "locality", "political" ],
    "formatted_address": "Greensburg, KY, USA",
    "address_components": [ {
      "long_name": "Greensburg",
      "short_name": "Greensburg",
      "types": [ "locality", "political" ]
    }, {
      "long_name": "Green",
      "short_name": "Green",
      "types": [ "administrative_area_level_2", "political" ]
    }, {
      "long_name": "Kentucky",
      "short_name": "KY",
      "types": [ "administrative_area_level_1", "political" ]
    }, {
      "long_name": "United States",
      "short_name": "US",
      "types": [ "country", "political" ]
    } ],
    "geometry": {
      "location": {
        "lat": 37.2608936,
        "lng": -85.4988548
      },
      "location_type": "APPROXIMATE",
      "viewport": {
        "southwest": {
          "lat": 37.2520126,
          "lng": -85.5148622
        },
        "northeast": {
          "lat": 37.2697736,
          "lng": -85.4828474
        }
      },
      "bounds": {
        "southwest": {
          "lat": 37.2398000,
          "lng": -85.5120929
        },
        "northeast": {
          "lat": 37.2737410,
          "lng": -85.4829240
        }
      }
    }
  } ]
}
