{
  "status": "OK",
  "results": [ {
    "types": [ "locality", "political" ],
    "formatted_address": "Hickman, KY, USA",
    "address_components": [ {
      "long_name": "Hickman",
      "short_name": "Hickman",
      "types": [ "locality", "political" ]
    }, {
      "long_name": "Fulton",
      "short_name": "Fulton",
      "types": [ "administrative_area_level_2", "political" ]
    }, {
      "long_name": "Kentucky",
      "short_name": "KY",
      "types": [ "administrative_area_level_1", "political" ]
    }, {
      "long_name": "United States",
      "short_name": "US",
      "types": [ "country", "political" ]
    } ],
    "geometry": {
      "location": {
        "lat": 36.5711721,
        "lng": -89.1861791
      },
      "location_type": "APPROXIMATE",
      "viewport": {
        "southwest": {
          "lat": 36.5532477,
          "lng": -89.2181939
        },
        "northeast": {
          "lat": 36.5890924,
          "lng": -89.1541643
        }
      },
      "bounds": {
        "southwest": {
          "lat": 36.5420210,
          "lng": -89.2160919
        },
        "northeast": {
          "lat": 36.5798429,
          "lng": -89.1500590
        }
      }
    }
  } ]
}
