{
  "status": "OK",
  "results": [ {
    "types": [ "locality", "political" ],
    "formatted_address": "Horse Cave, KY, USA",
    "address_components": [ {
      "long_name": "Horse Cave",
      "short_name": "Horse Cave",
      "types": [ "locality", "political" ]
    }, {
      "long_name": "Hart",
      "short_name": "Hart",
      "types": [ "administrative_area_level_2", "political" ]
    }, {
      "long_name": "Kentucky",
      "short_name": "KY",
      "types": [ "administrative_area_level_1", "political" ]
    }, {
      "long_name": "United States",
      "short_name": "US",
      "types": [ "country", "political" ]
    } ],
    "geometry": {
      "location": {
        "lat": 37.1794960,
        "lng": -85.9069175
      },
      "location_type": "APPROXIMATE",
      "viewport": {
        "southwest": {
          "lat": 37.1617137,
          "lng": -85.9389323
        },
        "northeast": {
          "lat": 37.1972741,
          "lng": -85.8749027
        }
      },
      "bounds": {
        "southwest": {
          "lat": 37.1498000,
          "lng": -85.9403480
        },
        "northeast": {
          "lat": 37.1899940,
          "lng": -85.8832429
        }
      }
    }
  } ]
}
