{
  "status": "OK",
  "results": [ {
    "types": [ "locality", "political" ],
    "formatted_address": "Indian Hills, KY, USA",
    "address_components": [ {
      "long_name": "Indian Hills",
      "short_name": "Indian Hills",
      "types": [ "locality", "political" ]
    }, {
      "long_name": "Jefferson",
      "short_name": "Jefferson",
      "types": [ "administrative_area_level_2", "political" ]
    }, {
      "long_name": "Kentucky",
      "short_name": "KY",
      "types": [ "administrative_area_level_1", "political" ]
    }, {
      "long_name": "United States",
      "short_name": "US",
      "types": [ "country", "political" ]
    } ],
    "geometry": {
      "location": {
        "lat": 38.2725704,
        "lng": -85.6627394
      },
      "location_type": "APPROXIMATE",
      "viewport": {
        "southwest": {
          "lat": 38.2550486,
          "lng": -85.6947542
        },
        "northeast": {
          "lat": 38.2900880,
          "lng": -85.6307246
        }
      },
      "bounds": {
        "southwest": {
          "lat": 38.2652340,
          "lng": -85.6826119
        },
        "northeast": {
          "lat": 38.2960820,
          "lng": -85.6380470
        }
      }
    }
  } ]
}
