{
  "status": "OK",
  "results": [ {
    "types": [ "locality", "political" ],
    "formatted_address": "Irvine, KY, USA",
    "address_components": [ {
      "long_name": "Irvine",
      "short_name": "Irvine",
      "types": [ "locality", "political" ]
    }, {
      "long_name": "Estill",
      "short_name": "Estill",
      "types": [ "administrative_area_level_2", "political" ]
    }, {
      "long_name": "Kentucky",
      "short_name": "KY",
      "types": [ "administrative_area_level_1", "political" ]
    }, {
      "long_name": "United States",
      "short_name": "US",
      "types": [ "country", "political" ]
    } ],
    "geometry": {
      "location": {
        "lat": 37.7006380,
        "lng": -83.9738130
      },
      "location_type": "APPROXIMATE",
      "viewport": {
        "southwest": {
          "lat": 37.6829791,
          "lng": -84.0058278
        },
        "northeast": {
          "lat": 37.7182927,
          "lng": -83.9417982
        }
      },
      "bounds": {
        "southwest": {
          "lat": 37.6814070,
          "lng": -83.9814670
        },
        "northeast": {
          "lat": 37.7179540,
          "lng": -83.9550610
        }
      }
    }
  } ]
}
