{
  "status": "OK",
  "results": [ {
    "types": [ "locality", "political" ],
    "formatted_address": "Jeffersontown, KY, USA",
    "address_components": [ {
      "long_name": "Jeffersontown",
      "short_name": "Jeffersontown",
      "types": [ "locality", "political" ]
    }, {
      "long_name": "Jefferson",
      "short_name": "Jefferson",
      "types": [ "administrative_area_level_2", "political" ]
    }, {
      "long_name": "Kentucky",
      "short_name": "KY",
      "types": [ "administrative_area_level_1", "political" ]
    }, {
      "long_name": "United States",
      "short_name": "US",
      "types": [ "country", "political" ]
    } ],
    "geometry": {
      "location": {
        "lat": 38.1942356,
        "lng": -85.5644033
      },
      "location_type": "APPROXIMATE",
      "viewport": {
        "southwest": {
          "lat": 38.1591500,
          "lng": -85.6284330
        },
        "northeast": {
          "lat": 38.2293043,
          "lng": -85.5003736
        }
      },
      "bounds": {
        "southwest": {
          "lat": 38.1732079,
          "lng": -85.6059300
        },
        "northeast": {
          "lat": 38.2460300,
          "lng": -85.5293000
        }
      }
    }
  } ]
}
