{
  "status": "OK",
  "results": [ {
    "types": [ "locality", "political" ],
    "formatted_address": "Lakeside Park, KY, USA",
    "address_components": [ {
      "long_name": "Lakeside Park",
      "short_name": "Lakeside Park",
      "types": [ "locality", "political" ]
    }, {
      "long_name": "Kenton",
      "short_name": "Kenton",
      "types": [ "administrative_area_level_2", "political" ]
    }, {
      "long_name": "Kentucky",
      "short_name": "KY",
      "types": [ "administrative_area_level_1", "political" ]
    }, {
      "long_name": "United States",
      "short_name": "US",
      "types": [ "country", "political" ]
    } ],
    "geometry": {
      "location": {
        "lat": 39.0356162,
        "lng": -84.5691102
      },
      "location_type": "APPROXIMATE",
      "viewport": {
        "southwest": {
          "lat": 39.0269486,
          "lng": -84.5851176
        },
        "northeast": {
          "lat": 39.0442827,
          "lng": -84.5531028
        }
      },
      "bounds": {
        "southwest": {
          "lat": 39.0260000,
          "lng": -84.5791120
        },
        "northeast": {
          "lat": 39.0436960,
          "lng": -84.5541070
        }
      }
    }
  } ]
}
