{
  "status": "OK",
  "results": [ {
    "types": [ "locality", "political" ],
    "formatted_address": "Lebanon, KY, USA",
    "address_components": [ {
      "long_name": "Lebanon",
      "short_name": "Lebanon",
      "types": [ "locality", "political" ]
    }, {
      "long_name": "Marion",
      "short_name": "Marion",
      "types": [ "administrative_area_level_2", "political" ]
    }, {
      "long_name": "Kentucky",
      "short_name": "KY",
      "types": [ "administrative_area_level_1", "political" ]
    }, {
      "long_name": "United States",
      "short_name": "US",
      "types": [ "country", "political" ]
    } ],
    "geometry": {
      "location": {
        "lat": 37.5697868,
        "lng": -85.2527381
      },
      "location_type": "APPROXIMATE",
      "viewport": {
        "southwest": {
          "lat": 37.5520968,
          "lng": -85.2847529
        },
        "northeast": {
          "lat": 37.5874726,
          "lng": -85.2207233
        }
      },
      "bounds": {
        "southwest": {
          "lat": 37.5453980,
          "lng": -85.2809630
        },
        "northeast": {
          "lat": 37.5956149,
          "lng": -85.2208610
        }
      }
    }
  } ]
}
