{
  "status": "OK",
  "results": [ {
    "types": [ "locality", "political" ],
    "formatted_address": "Lewisport, KY, USA",
    "address_components": [ {
      "long_name": "Lewisport",
      "short_name": "Lewisport",
      "types": [ "locality", "political" ]
    }, {
      "long_name": "Hancock",
      "short_name": "Hancock",
      "types": [ "administrative_area_level_2", "political" ]
    }, {
      "long_name": "Kentucky",
      "short_name": "KY",
      "types": [ "administrative_area_level_1", "political" ]
    }, {
      "long_name": "United States",
      "short_name": "US",
      "types": [ "country", "political" ]
    } ],
    "geometry": {
      "location": {
        "lat": 37.9369974,
        "lng": -86.9022145
      },
      "location_type": "APPROXIMATE",
      "viewport": {
        "southwest": {
          "lat": 37.9193950,
          "lng": -86.9342293
        },
        "northeast": {
          "lat": 37.9545956,
          "lng": -86.8701997
        }
      },
      "bounds": {
        "southwest": {
          "lat": 37.9176320,
          "lng": -86.9212029
        },
        "northeast": {
          "lat": 37.9415459,
          "lng": -86.8845750
        }
      }
    }
  } ]
}
