{
  "status": "OK",
  "results": [ {
    "types": [ "locality", "political" ],
    "formatted_address": "London, KY, USA",
    "address_components": [ {
      "long_name": "London",
      "short_name": "London",
      "types": [ "locality", "political" ]
    }, {
      "long_name": "Laurel",
      "short_name": "Laurel",
      "types": [ "administrative_area_level_2", "political" ]
    }, {
      "long_name": "Kentucky",
      "short_name": "KY",
      "types": [ "administrative_area_level_1", "political" ]
    }, {
      "long_name": "United States",
      "short_name": "US",
      "types": [ "country", "political" ]
    } ],
    "geometry": {
      "location": {
        "lat": 37.1289771,
        "lng": -84.0832646
      },
      "location_type": "APPROXIMATE",
      "viewport": {
        "southwest": {
          "lat": 37.0933846,
          "lng": -84.1472943
        },
        "northeast": {
          "lat": 37.1645528,
          "lng": -84.0192349
        }
      },
      "bounds": {
        "southwest": {
          "lat": 37.0797589,
          "lng": -84.1262620
        },
        "northeast": {
          "lat": 37.1522600,
          "lng": -84.0359570
        }
      }
    }
  } ]
}
