{
  "status": "OK",
  "results": [ {
    "types": [ "locality", "political" ],
    "formatted_address": "Lone Oak, KY, USA",
    "address_components": [ {
      "long_name": "Lone Oak",
      "short_name": "Lone Oak",
      "types": [ "locality", "political" ]
    }, {
      "long_name": "McCracken",
      "short_name": "Mc Cracken",
      "types": [ "administrative_area_level_2", "political" ]
    }, {
      "long_name": "Kentucky",
      "short_name": "KY",
      "types": [ "administrative_area_level_1", "political" ]
    }, {
      "long_name": "United States",
      "short_name": "US",
      "types": [ "country", "political" ]
    } ],
    "geometry": {
      "location": {
        "lat": 37.0361667,
        "lng": -88.6647724
      },
      "location_type": "APPROXIMATE",
      "viewport": {
        "southwest": {
          "lat": 37.0272593,
          "lng": -88.6807798
        },
        "northeast": {
          "lat": 37.0450731,
          "lng": -88.6487650
        }
      },
      "bounds": {
        "southwest": {
          "lat": 37.0325140,
          "lng": -88.6702229
        },
        "northeast": {
          "lat": 37.0400459,
          "lng": -88.6607229
        }
      }
    }
  } ]
}
