{
  "status": "OK",
  "results": [ {
    "types": [ "locality", "political" ],
    "formatted_address": "Louisa, KY, USA",
    "address_components": [ {
      "long_name": "Louisa",
      "short_name": "Louisa",
      "types": [ "locality", "political" ]
    }, {
      "long_name": "Lawrence",
      "short_name": "Lawrence",
      "types": [ "administrative_area_level_2", "political" ]
    }, {
      "long_name": "Kentucky",
      "short_name": "KY",
      "types": [ "administrative_area_level_1", "political" ]
    }, {
      "long_name": "United States",
      "short_name": "US",
      "types": [ "country", "political" ]
    } ],
    "geometry": {
      "location": {
        "lat": 38.1142544,
        "lng": -82.6032119
      },
      "location_type": "APPROXIMATE",
      "viewport": {
        "southwest": {
          "lat": 38.0966945,
          "lng": -82.6352267
        },
        "northeast": {
          "lat": 38.1318101,
          "lng": -82.5711971
        }
      },
      "bounds": {
        "southwest": {
          "lat": 38.0883630,
          "lng": -82.6296629
        },
        "northeast": {
          "lat": 38.1279100,
          "lng": -82.5922399
        }
      }
    }
  } ]
}
