{
  "status": "OK",
  "results": [ {
    "types": [ "locality", "political" ],
    "formatted_address": "Manchester, KY, USA",
    "address_components": [ {
      "long_name": "Manchester",
      "short_name": "Manchester",
      "types": [ "locality", "political" ]
    }, {
      "long_name": "Clay",
      "short_name": "Clay",
      "types": [ "administrative_area_level_2", "political" ]
    }, {
      "long_name": "Kentucky",
      "short_name": "KY",
      "types": [ "administrative_area_level_1", "political" ]
    }, {
      "long_name": "United States",
      "short_name": "US",
      "types": [ "country", "political" ]
    } ],
    "geometry": {
      "location": {
        "lat": 37.1537007,
        "lng": -83.7618641
      },
      "location_type": "APPROXIMATE",
      "viewport": {
        "southwest": {
          "lat": 37.1359124,
          "lng": -83.7938789
        },
        "northeast": {
          "lat": 37.1714848,
          "lng": -83.7298493
        }
      },
      "bounds": {
        "southwest": {
          "lat": 37.1278030,
          "lng": -83.7824430
        },
        "northeast": {
          "lat": 37.1673830,
          "lng": -83.7543039
        }
      }
    }
  } ]
}
