{
  "status": "OK",
  "results": [ {
    "types": [ "locality", "political" ],
    "formatted_address": "Millersburg, KY, USA",
    "address_components": [ {
      "long_name": "Millersburg",
      "short_name": "Millersburg",
      "types": [ "locality", "political" ]
    }, {
      "long_name": "Bourbon",
      "short_name": "Bourbon",
      "types": [ "administrative_area_level_2", "political" ]
    }, {
      "long_name": "Kentucky",
      "short_name": "KY",
      "types": [ "administrative_area_level_1", "political" ]
    }, {
      "long_name": "United States",
      "short_name": "US",
      "types": [ "country", "political" ]
    } ],
    "geometry": {
      "location": {
        "lat": 38.3020200,
        "lng": -84.1474297
      },
      "location_type": "APPROXIMATE",
      "viewport": {
        "southwest": {
          "lat": 38.2932632,
          "lng": -84.1634371
        },
        "northeast": {
          "lat": 38.3107758,
          "lng": -84.1314223
        }
      },
      "bounds": {
        "southwest": {
          "lat": 38.2959050,
          "lng": -84.1529820
        },
        "northeast": {
          "lat": 38.3117430,
          "lng": -84.1348460
        }
      }
    }
  } ]
}
