{
  "status": "OK",
  "results": [ {
    "types": [ "locality", "political" ],
    "formatted_address": "Mount Sterling, KY, USA",
    "address_components": [ {
      "long_name": "Mount Sterling",
      "short_name": "Mount Sterling",
      "types": [ "locality", "political" ]
    }, {
      "long_name": "Montgomery",
      "short_name": "Montgomery",
      "types": [ "administrative_area_level_2", "political" ]
    }, {
      "long_name": "Kentucky",
      "short_name": "KY",
      "types": [ "administrative_area_level_1", "political" ]
    }, {
      "long_name": "United States",
      "short_name": "US",
      "types": [ "country", "political" ]
    } ],
    "geometry": {
      "location": {
        "lat": 38.0564679,
        "lng": -83.9432556
      },
      "location_type": "APPROXIMATE",
      "viewport": {
        "southwest": {
          "lat": 38.0388941,
          "lng": -83.9752704
        },
        "northeast": {
          "lat": 38.0740375,
          "lng": -83.9112408
        }
      },
      "bounds": {
        "southwest": {
          "lat": 38.0312939,
          "lng": -83.9782330
        },
        "northeast": {
          "lat": 38.0925150,
          "lng": -83.9145480
        }
      }
    }
  } ]
}
