{
  "status": "OK",
  "results": [ {
    "types": [ "locality", "political" ],
    "formatted_address": "Nortonville, KY, USA",
    "address_components": [ {
      "long_name": "Nortonville",
      "short_name": "Nortonville",
      "types": [ "locality", "political" ]
    }, {
      "long_name": "Hopkins",
      "short_name": "Hopkins",
      "types": [ "administrative_area_level_2", "political" ]
    }, {
      "long_name": "Kentucky",
      "short_name": "KY",
      "types": [ "administrative_area_level_1", "political" ]
    }, {
      "long_name": "United States",
      "short_name": "US",
      "types": [ "country", "political" ]
    } ],
    "geometry": {
      "location": {
        "lat": 37.1908777,
        "lng": -87.4527768
      },
      "location_type": "APPROXIMATE",
      "viewport": {
        "southwest": {
          "lat": 37.1819884,
          "lng": -87.4687842
        },
        "northeast": {
          "lat": 37.1997659,
          "lng": -87.4367694
        }
      },
      "bounds": {
        "southwest": {
          "lat": 37.1736800,
          "lng": -87.4667870
        },
        "northeast": {
          "lat": 37.1979190,
          "lng": -87.4451120
        }
      }
    }
  } ]
}
