{
  "status": "OK",
  "results": [ {
    "types": [ "locality", "political" ],
    "formatted_address": "Olive Hill, KY, USA",
    "address_components": [ {
      "long_name": "Olive Hill",
      "short_name": "Olive Hill",
      "types": [ "locality", "political" ]
    }, {
      "long_name": "Carter",
      "short_name": "Carter",
      "types": [ "administrative_area_level_2", "political" ]
    }, {
      "long_name": "Kentucky",
      "short_name": "KY",
      "types": [ "administrative_area_level_1", "political" ]
    }, {
      "long_name": "United States",
      "short_name": "US",
      "types": [ "country", "political" ]
    } ],
    "geometry": {
      "location": {
        "lat": 38.3000809,
        "lng": -83.1740654
      },
      "location_type": "APPROXIMATE",
      "viewport": {
        "southwest": {
          "lat": 38.2825658,
          "lng": -83.2060802
        },
        "northeast": {
          "lat": 38.3175918,
          "lng": -83.1420506
        }
      },
      "bounds": {
        "southwest": {
          "lat": 38.2915810,
          "lng": -83.1910280
        },
        "northeast": {
          "lat": 38.3149150,
          "lng": -83.1435149
        }
      }
    }
  } ]
}
