{
  "status": "OK",
  "results": [ {
    "types": [ "locality", "political" ],
    "formatted_address": "Owensboro, KY, USA",
    "address_components": [ {
      "long_name": "Owensboro",
      "short_name": "Owensboro",
      "types": [ "locality", "political" ]
    }, {
      "long_name": "Daviess",
      "short_name": "Daviess",
      "types": [ "administrative_area_level_2", "political" ]
    }, {
      "long_name": "Kentucky",
      "short_name": "KY",
      "types": [ "administrative_area_level_1", "political" ]
    }, {
      "long_name": "United States",
      "short_name": "US",
      "types": [ "country", "political" ]
    } ],
    "geometry": {
      "location": {
        "lat": 37.7742152,
        "lng": -87.1133304
      },
      "location_type": "APPROXIMATE",
      "viewport": {
        "southwest": {
          "lat": 37.7389283,
          "lng": -87.1773601
        },
        "northeast": {
          "lat": 37.8094853,
          "lng": -87.0493007
        }
      },
      "bounds": {
        "southwest": {
          "lat": 37.7106590,
          "lng": -87.1960740
        },
        "northeast": {
          "lat": 37.8100330,
          "lng": -87.0523779
        }
      }
    }
  } ]
}
