{
  "status": "OK",
  "results": [ {
    "types": [ "locality", "political" ],
    "formatted_address": "Paintsville, KY, USA",
    "address_components": [ {
      "long_name": "Paintsville",
      "short_name": "Paintsville",
      "types": [ "locality", "political" ]
    }, {
      "long_name": "Johnson",
      "short_name": "Johnson",
      "types": [ "administrative_area_level_2", "political" ]
    }, {
      "long_name": "Kentucky",
      "short_name": "KY",
      "types": [ "administrative_area_level_1", "political" ]
    }, {
      "long_name": "United States",
      "short_name": "US",
      "types": [ "country", "political" ]
    } ],
    "geometry": {
      "location": {
        "lat": 37.8145384,
        "lng": -82.8071054
      },
      "location_type": "APPROXIMATE",
      "viewport": {
        "southwest": {
          "lat": 37.7792708,
          "lng": -82.8711351
        },
        "northeast": {
          "lat": 37.8497892,
          "lng": -82.7430757
        }
      },
      "bounds": {
        "southwest": {
          "lat": 37.7681190,
          "lng": -82.8392240
        },
        "northeast": {
          "lat": 37.8490860,
          "lng": -82.7751189
        }
      }
    }
  } ]
}
