{
  "status": "OK",
  "results": [ {
    "types": [ "locality", "political" ],
    "formatted_address": "Powderly, KY, USA",
    "address_components": [ {
      "long_name": "Powderly",
      "short_name": "Powderly",
      "types": [ "locality", "political" ]
    }, {
      "long_name": "Muhlenberg",
      "short_name": "Muhlenberg",
      "types": [ "administrative_area_level_2", "political" ]
    }, {
      "long_name": "Kentucky",
      "short_name": "KY",
      "types": [ "administrative_area_level_1", "political" ]
    }, {
      "long_name": "United States",
      "short_name": "US",
      "types": [ "country", "political" ]
    } ],
    "geometry": {
      "location": {
        "lat": 37.2369871,
        "lng": -87.1591627
      },
      "location_type": "APPROXIMATE",
      "viewport": {
        "southwest": {
          "lat": 37.2281033,
          "lng": -87.1751701
        },
        "northeast": {
          "lat": 37.2458699,
          "lng": -87.1431553
        }
      },
      "bounds": {
        "southwest": {
          "lat": 37.2264900,
          "lng": -87.1722159
        },
        "northeast": {
          "lat": 37.2563509,
          "lng": -87.1450950
        }
      }
    }
  } ]
}
