{
  "status": "OK",
  "results": [ {
    "types": [ "locality", "political" ],
    "formatted_address": "Vanceburg, KY, USA",
    "address_components": [ {
      "long_name": "Vanceburg",
      "short_name": "Vanceburg",
      "types": [ "locality", "political" ]
    }, {
      "long_name": "Lewis",
      "short_name": "Lewis",
      "types": [ "administrative_area_level_2", "political" ]
    }, {
      "long_name": "Kentucky",
      "short_name": "KY",
      "types": [ "administrative_area_level_1", "political" ]
    }, {
      "long_name": "United States",
      "short_name": "US",
      "types": [ "country", "political" ]
    } ],
    "geometry": {
      "location": {
        "lat": 38.5992430,
        "lng": -83.3187952
      },
      "location_type": "APPROXIMATE",
      "viewport": {
        "southwest": {
          "lat": 38.5818003,
          "lng": -83.3508100
        },
        "northeast": {
          "lat": 38.6166815,
          "lng": -83.2867804
        }
      },
      "bounds": {
        "southwest": {
          "lat": 38.5751510,
          "lng": -83.3362360
        },
        "northeast": {
          "lat": 38.6098129,
          "lng": -83.3069699
        }
      }
    }
  } ]
}
