{
  "status": "OK",
  "results": [ {
    "types": [ "locality", "political" ],
    "formatted_address": "Winchester, KY, USA",
    "address_components": [ {
      "long_name": "Winchester",
      "short_name": "Winchester",
      "types": [ "locality", "political" ]
    }, {
      "long_name": "Clark",
      "short_name": "Clark",
      "types": [ "administrative_area_level_2", "political" ]
    }, {
      "long_name": "Kentucky",
      "short_name": "KY",
      "types": [ "administrative_area_level_1", "political" ]
    }, {
      "long_name": "United States",
      "short_name": "US",
      "types": [ "country", "political" ]
    } ],
    "geometry": {
      "location": {
        "lat": 37.9900790,
        "lng": -84.1796503
      },
      "location_type": "APPROXIMATE",
      "viewport": {
        "southwest": {
          "lat": 37.9548953,
          "lng": -84.2436800
        },
        "northeast": {
          "lat": 38.0252458,
          "lng": -84.1156206
        }
      },
      "bounds": {
        "southwest": {
          "lat": 37.9717060,
          "lng": -84.2278140
        },
        "northeast": {
          "lat": 38.0411340,
          "lng": -84.1556729
        }
      }
    }
  } ]
}
