{
  "status": "OK",
  "results": [ {
    "types": [ "locality", "political" ],
    "formatted_address": "Casa Grande, AZ, USA",
    "address_components": [ {
      "long_name": "Casa Grande",
      "short_name": "Casa Grande",
      "types": [ "locality", "political" ]
    }, {
      "long_name": "Pinal",
      "short_name": "Pinal",
      "types": [ "administrative_area_level_2", "political" ]
    }, {
      "long_name": "Arizona",
      "short_name": "AZ",
      "types": [ "administrative_area_level_1", "political" ]
    }, {
      "long_name": "United States",
      "short_name": "US",
      "types": [ "country", "political" ]
    } ],
    "geometry": {
      "location": {
        "lat": 32.8795022,
        "lng": -111.7573521
      },
      "location_type": "APPROXIMATE",
      "viewport": {
        "southwest": {
          "lat": 32.8045054,
          "lng": -111.8854115
        },
        "northeast": {
          "lat": 32.9544356,
          "lng": -111.6292927
        }
      },
      "bounds": {
        "southwest": {
          "lat": 32.7775029,
          "lng": -111.9123100
        },
        "northeast": {
          "lat": 32.9966200,
          "lng": -111.6364680
        }
      }
    }
  } ]
}
