{
  "status": "OK",
  "results": [ {
    "types": [ "locality", "political" ],
    "formatted_address": "Chandler, AZ, USA",
    "address_components": [ {
      "long_name": "Chandler",
      "short_name": "Chandler",
      "types": [ "locality", "political" ]
    }, {
      "long_name": "Maricopa",
      "short_name": "Maricopa",
      "types": [ "administrative_area_level_2", "political" ]
    }, {
      "long_name": "Arizona",
      "short_name": "AZ",
      "types": [ "administrative_area_level_1", "political" ]
    }, {
      "long_name": "United States",
      "short_name": "US",
      "types": [ "country", "political" ]
    } ],
    "geometry": {
      "location": {
        "lat": 33.3061605,
        "lng": -111.8412502
      },
      "location_type": "APPROXIMATE",
      "viewport": {
        "southwest": {
          "lat": 33.2315264,
          "lng": -111.9693096
        },
        "northeast": {
          "lat": 33.3807307,
          "lng": -111.7131908
        }
      },
      "bounds": {
        "southwest": {
          "lat": 33.2037780,
          "lng": -111.9724190
        },
        "northeast": {
          "lat": 33.3618570,
          "lng": -111.7552870
        }
      }
    }
  } ]
}
