{
  "status": "OK",
  "results": [ {
    "types": [ "locality", "political" ],
    "formatted_address": "Cottonwood, AZ, USA",
    "address_components": [ {
      "long_name": "Cottonwood",
      "short_name": "Cottonwood",
      "types": [ "locality", "political" ]
    }, {
      "long_name": "Yavapai",
      "short_name": "Yavapai",
      "types": [ "administrative_area_level_2", "political" ]
    }, {
      "long_name": "Arizona",
      "short_name": "AZ",
      "types": [ "administrative_area_level_1", "political" ]
    }, {
      "long_name": "United States",
      "short_name": "US",
      "types": [ "country", "political" ]
    } ],
    "geometry": {
      "location": {
        "lat": 34.7391876,
        "lng": -112.0098791
      },
      "location_type": "APPROXIMATE",
      "viewport": {
        "southwest": {
          "lat": 34.7025029,
          "lng": -112.0739088
        },
        "northeast": {
          "lat": 34.7758560,
          "lng": -111.9458494
        }
      },
      "bounds": {
        "southwest": {
          "lat": 34.6495470,
          "lng": -112.0529470
        },
        "northeast": {
          "lat": 34.7650320,
          "lng": -111.9487810
        }
      }
    }
  } ]
}
