{
  "status": "OK",
  "results": [ {
    "types": [ "locality", "political" ],
    "formatted_address": "Fredonia, AZ, USA",
    "address_components": [ {
      "long_name": "Fredonia",
      "short_name": "Fredonia",
      "types": [ "locality", "political" ]
    }, {
      "long_name": "Coconino",
      "short_name": "Coconino",
      "types": [ "administrative_area_level_2", "political" ]
    }, {
      "long_name": "Arizona",
      "short_name": "AZ",
      "types": [ "administrative_area_level_1", "political" ]
    }, {
      "long_name": "United States",
      "short_name": "US",
      "types": [ "country", "political" ]
    } ],
    "geometry": {
      "location": {
        "lat": 36.9455420,
        "lng": -112.5265889
      },
      "location_type": "APPROXIMATE",
      "viewport": {
        "southwest": {
          "lat": 36.8027277,
          "lng": -112.7827077
        },
        "northeast": {
          "lat": 37.0880890,
          "lng": -112.2704701
        }
      },
      "bounds": {
        "southwest": {
          "lat": 36.9246530,
          "lng": -112.5456600
        },
        "northeast": {
          "lat": 37.0006090,
          "lng": -112.5077870
        }
      }
    }
  } ]
}
