{
  "status": "OK",
  "results": [ {
    "types": [ "locality", "political" ],
    "formatted_address": "Holbrook, AZ, USA",
    "address_components": [ {
      "long_name": "Holbrook",
      "short_name": "Holbrook",
      "types": [ "locality", "political" ]
    }, {
      "long_name": "Navajo",
      "short_name": "Navajo",
      "types": [ "administrative_area_level_2", "political" ]
    }, {
      "long_name": "Arizona",
      "short_name": "AZ",
      "types": [ "administrative_area_level_1", "political" ]
    }, {
      "long_name": "United States",
      "short_name": "US",
      "types": [ "country", "political" ]
    } ],
    "geometry": {
      "location": {
        "lat": 34.9022482,
        "lng": -110.1581768
      },
      "location_type": "APPROXIMATE",
      "viewport": {
        "southwest": {
          "lat": 34.8290076,
          "lng": -110.2862362
        },
        "northeast": {
          "lat": 34.9754235,
          "lng": -110.0301174
        }
      },
      "bounds": {
        "southwest": {
          "lat": 34.8664670,
          "lng": -110.2188460
        },
        "northeast": {
          "lat": 34.9468130,
          "lng": -110.1276000
        }
      }
    }
  } ]
}
