{
  "status": "OK",
  "results": [ {
    "types": [ "locality", "political" ],
    "formatted_address": "Kingman, AZ, USA",
    "address_components": [ {
      "long_name": "Kingman",
      "short_name": "Kingman",
      "types": [ "locality", "political" ]
    }, {
      "long_name": "Mohave",
      "short_name": "Mohave",
      "types": [ "administrative_area_level_2", "political" ]
    }, {
      "long_name": "Arizona",
      "short_name": "AZ",
      "types": [ "administrative_area_level_1", "political" ]
    }, {
      "long_name": "United States",
      "short_name": "US",
      "types": [ "country", "political" ]
    } ],
    "geometry": {
      "location": {
        "lat": 35.1894430,
        "lng": -114.0530065
      },
      "location_type": "APPROXIMATE",
      "viewport": {
        "southwest": {
          "lat": 35.1164592,
          "lng": -114.1810659
        },
        "northeast": {
          "lat": 35.2623613,
          "lng": -113.9249471
        }
      },
      "bounds": {
        "southwest": {
          "lat": 35.1739229,
          "lng": -114.0947330
        },
        "northeast": {
          "lat": 35.2873310,
          "lng": -113.9361480
        }
      }
    }
  } ]
}
