{
  "status": "OK",
  "results": [ {
    "types": [ "locality", "political" ],
    "formatted_address": "Mammoth, AZ, USA",
    "address_components": [ {
      "long_name": "Mammoth",
      "short_name": "Mammoth",
      "types": [ "locality", "political" ]
    }, {
      "long_name": "Pinal",
      "short_name": "Pinal",
      "types": [ "administrative_area_level_2", "political" ]
    }, {
      "long_name": "Arizona",
      "short_name": "AZ",
      "types": [ "administrative_area_level_1", "political" ]
    }, {
      "long_name": "United States",
      "short_name": "US",
      "types": [ "country", "political" ]
    } ],
    "geometry": {
      "location": {
        "lat": 32.7225680,
        "lng": -110.6406547
      },
      "location_type": "APPROXIMATE",
      "viewport": {
        "southwest": {
          "lat": 32.7037916,
          "lng": -110.6726695
        },
        "northeast": {
          "lat": 32.7413404,
          "lng": -110.6086399
        }
      },
      "bounds": {
        "southwest": {
          "lat": 32.7076390,
          "lng": -110.6507310
        },
        "northeast": {
          "lat": 32.7456630,
          "lng": -110.6369970
        }
      }
    }
  } ]
}
