{
  "status": "OK",
  "results": [ {
    "types": [ "locality", "political" ],
    "formatted_address": "Miami, AZ, USA",
    "address_components": [ {
      "long_name": "Miami",
      "short_name": "Miami",
      "types": [ "locality", "political" ]
    }, {
      "long_name": "Gila",
      "short_name": "Gila",
      "types": [ "administrative_area_level_2", "political" ]
    }, {
      "long_name": "Arizona",
      "short_name": "AZ",
      "types": [ "administrative_area_level_1", "political" ]
    }, {
      "long_name": "United States",
      "short_name": "US",
      "types": [ "country", "political" ]
    } ],
    "geometry": {
      "location": {
        "lat": 33.3992217,
        "lng": -110.8687232
      },
      "location_type": "APPROXIMATE",
      "viewport": {
        "southwest": {
          "lat": 33.3899059,
          "lng": -110.8847306
        },
        "northeast": {
          "lat": 33.4085365,
          "lng": -110.8527158
        }
      },
      "bounds": {
        "southwest": {
          "lat": 33.3815820,
          "lng": -110.8917800
        },
        "northeast": {
          "lat": 33.4047969,
          "lng": -110.8597120
        }
      }
    }
  } ]
}
