{
  "status": "OK",
  "results": [ {
    "types": [ "locality", "political" ],
    "formatted_address": "Oro Valley, AZ, USA",
    "address_components": [ {
      "long_name": "Oro Valley",
      "short_name": "Oro Valley",
      "types": [ "locality", "political" ]
    }, {
      "long_name": "Pima",
      "short_name": "Pima",
      "types": [ "administrative_area_level_2", "political" ]
    }, {
      "long_name": "Arizona",
      "short_name": "AZ",
      "types": [ "administrative_area_level_1", "political" ]
    }, {
      "long_name": "United States",
      "short_name": "US",
      "types": [ "country", "political" ]
    } ],
    "geometry": {
      "location": {
        "lat": 32.3909071,
        "lng": -110.9664880
      },
      "location_type": "APPROXIMATE",
      "viewport": {
        "southwest": {
          "lat": 32.3532114,
          "lng": -111.0305177
        },
        "northeast": {
          "lat": 32.4285870,
          "lng": -110.9024583
        }
      },
      "bounds": {
        "southwest": {
          "lat": 32.3438779,
          "lng": -111.0299550
        },
        "northeast": {
          "lat": 32.4848689,
          "lng": -110.9273530
        }
      }
    }
  } ]
}
