{
  "status": "OK",
  "results": [ {
    "types": [ "locality", "political" ],
    "formatted_address": "Payson, AZ, USA",
    "address_components": [ {
      "long_name": "Payson",
      "short_name": "Payson",
      "types": [ "locality", "political" ]
    }, {
      "long_name": "Gila",
      "short_name": "Gila",
      "types": [ "administrative_area_level_2", "political" ]
    }, {
      "long_name": "Arizona",
      "short_name": "AZ",
      "types": [ "administrative_area_level_1", "political" ]
    }, {
      "long_name": "United States",
      "short_name": "US",
      "types": [ "country", "political" ]
    } ],
    "geometry": {
      "location": {
        "lat": 34.2308684,
        "lng": -111.3251355
      },
      "location_type": "APPROXIMATE",
      "viewport": {
        "southwest": {
          "lat": 34.1939596,
          "lng": -111.3891652
        },
        "northeast": {
          "lat": 34.2677610,
          "lng": -111.2611058
        }
      },
      "bounds": {
        "southwest": {
          "lat": 34.2170599,
          "lng": -111.3705390
        },
        "northeast": {
          "lat": 34.2717570,
          "lng": -111.2731850
        }
      }
    }
  } ]
}
