{
  "status": "OK",
  "results": [ {
    "types": [ "locality", "political" ],
    "formatted_address": "Quartzsite, AZ, USA",
    "address_components": [ {
      "long_name": "Quartzsite",
      "short_name": "Quartzsite",
      "types": [ "locality", "political" ]
    }, {
      "long_name": "La Paz",
      "short_name": "La Paz",
      "types": [ "administrative_area_level_2", "political" ]
    }, {
      "long_name": "Arizona",
      "short_name": "AZ",
      "types": [ "administrative_area_level_1", "political" ]
    }, {
      "long_name": "United States",
      "short_name": "US",
      "types": [ "country", "political" ]
    } ],
    "geometry": {
      "location": {
        "lat": 33.6639137,
        "lng": -114.2299486
      },
      "location_type": "APPROXIMATE",
      "viewport": {
        "southwest": {
          "lat": 33.6267584,
          "lng": -114.2939783
        },
        "northeast": {
          "lat": 33.7010530,
          "lng": -114.1659189
        }
      },
      "bounds": {
        "southwest": {
          "lat": 33.6167749,
          "lng": -114.2698180
        },
        "northeast": {
          "lat": 33.7112190,
          "lng": -114.1641690
        }
      }
    }
  } ]
}
