{
  "status": "OK",
  "results": [ {
    "types": [ "locality", "political" ],
    "formatted_address": "Surprise, AZ, USA",
    "address_components": [ {
      "long_name": "Surprise",
      "short_name": "Surprise",
      "types": [ "locality", "political" ]
    }, {
      "long_name": "Maricopa",
      "short_name": "Maricopa",
      "types": [ "administrative_area_level_2", "political" ]
    }, {
      "long_name": "Arizona",
      "short_name": "AZ",
      "types": [ "administrative_area_level_1", "political" ]
    }, {
      "long_name": "United States",
      "short_name": "US",
      "types": [ "country", "political" ]
    } ],
    "geometry": {
      "location": {
        "lat": 33.6305938,
        "lng": -112.3332160
      },
      "location_type": "APPROXIMATE",
      "viewport": {
        "southwest": {
          "lat": 33.4818188,
          "lng": -112.5893348
        },
        "northeast": {
          "lat": 33.7791123,
          "lng": -112.0770972
        }
      },
      "bounds": {
        "southwest": {
          "lat": 33.5800780,
          "lng": -112.6118030
        },
        "northeast": {
          "lat": 33.7584249,
          "lng": -112.2981610
        }
      }
    }
  } ]
}
