{
  "status": "OK",
  "results": [ {
    "types": [ "locality", "political" ],
    "formatted_address": "Tempe, AZ, USA",
    "address_components": [ {
      "long_name": "Tempe",
      "short_name": "Tempe",
      "types": [ "locality", "political" ]
    }, {
      "long_name": "Maricopa",
      "short_name": "Maricopa",
      "types": [ "administrative_area_level_2", "political" ]
    }, {
      "long_name": "Arizona",
      "short_name": "AZ",
      "types": [ "administrative_area_level_1", "political" ]
    }, {
      "long_name": "United States",
      "short_name": "US",
      "types": [ "country", "political" ]
    } ],
    "geometry": {
      "location": {
        "lat": 33.4147680,
        "lng": -111.9093095
      },
      "location_type": "APPROXIMATE",
      "viewport": {
        "southwest": {
          "lat": 33.3402269,
          "lng": -112.0373689
        },
        "northeast": {
          "lat": 33.4892452,
          "lng": -111.7812501
        }
      },
      "bounds": {
        "southwest": {
          "lat": 33.3198609,
          "lng": -111.9789760
        },
        "northeast": {
          "lat": 33.4639839,
          "lng": -111.8772260
        }
      }
    }
  } ]
}
