{
  "status": "OK",
  "results": [ {
    "types": [ "locality", "political" ],
    "formatted_address": "Thatcher, AZ, USA",
    "address_components": [ {
      "long_name": "Thatcher",
      "short_name": "Thatcher",
      "types": [ "locality", "political" ]
    }, {
      "long_name": "Graham",
      "short_name": "Graham",
      "types": [ "administrative_area_level_2", "political" ]
    }, {
      "long_name": "Arizona",
      "short_name": "AZ",
      "types": [ "administrative_area_level_1", "political" ]
    }, {
      "long_name": "United States",
      "short_name": "US",
      "types": [ "country", "political" ]
    } ],
    "geometry": {
      "location": {
        "lat": 32.8492323,
        "lng": -109.7592479
      },
      "location_type": "APPROXIMATE",
      "viewport": {
        "southwest": {
          "lat": 32.8117290,
          "lng": -109.8232776
        },
        "northeast": {
          "lat": 32.8867197,
          "lng": -109.6952182
        }
      },
      "bounds": {
        "southwest": {
          "lat": 32.7731409,
          "lng": -109.7843180
        },
        "northeast": {
          "lat": 32.8746710,
          "lng": -109.7329410
        }
      }
    }
  } ]
}
