{
  "status": "OK",
  "results": [ {
    "types": [ "locality", "political" ],
    "formatted_address": "Tombstone, AZ 85638, USA",
    "address_components": [ {
      "long_name": "Tombstone",
      "short_name": "Tombstone",
      "types": [ "locality", "political" ]
    }, {
      "long_name": "Sierra Vista",
      "short_name": "Sierra Vista",
      "types": [ "administrative_area_level_3", "political" ]
    }, {
      "long_name": "Cochise",
      "short_name": "Cochise",
      "types": [ "administrative_area_level_2", "political" ]
    }, {
      "long_name": "Arizona",
      "short_name": "AZ",
      "types": [ "administrative_area_level_1", "political" ]
    }, {
      "long_name": "United States",
      "short_name": "US",
      "types": [ "country", "political" ]
    }, {
      "long_name": "85638",
      "short_name": "85638",
      "types": [ "postal_code" ]
    } ],
    "geometry": {
      "location": {
        "lat": 31.7128683,
        "lng": -110.0675764
      },
      "location_type": "APPROXIMATE",
      "viewport": {
        "southwest": {
          "lat": 31.7033758,
          "lng": -110.0835838
        },
        "northeast": {
          "lat": 31.7223598,
          "lng": -110.0515690
        }
      },
      "bounds": {
        "southwest": {
          "lat": 31.7027220,
          "lng": -110.0822150
        },
        "northeast": {
          "lat": 31.7326749,
          "lng": -110.0436570
        }
      }
    }
  } ]
}
