{
  "status": "OK",
  "results": [ {
    "types": [ "locality", "political" ],
    "formatted_address": "Wickenburg, AZ, USA",
    "address_components": [ {
      "long_name": "Wickenburg",
      "short_name": "Wickenburg",
      "types": [ "locality", "political" ]
    }, {
      "long_name": "Maricopa",
      "short_name": "Maricopa",
      "types": [ "administrative_area_level_2", "political" ]
    }, {
      "long_name": "Arizona",
      "short_name": "AZ",
      "types": [ "administrative_area_level_1", "political" ]
    }, {
      "long_name": "United States",
      "short_name": "US",
      "types": [ "country", "political" ]
    } ],
    "geometry": {
      "location": {
        "lat": 33.9686412,
        "lng": -112.7296220
      },
      "location_type": "APPROXIMATE",
      "viewport": {
        "southwest": {
          "lat": 33.9316179,
          "lng": -112.7936517
        },
        "northeast": {
          "lat": 34.0056484,
          "lng": -112.6655923
        }
      },
      "bounds": {
        "southwest": {
          "lat": 33.9330749,
          "lng": -112.8279130
        },
        "northeast": {
          "lat": 33.9998990,
          "lng": -112.7024120
        }
      }
    }
  } ]
}
