{
  "status": "OK",
  "results": [ {
    "types": [ "locality", "political" ],
    "formatted_address": "Youngtown, AZ, USA",
    "address_components": [ {
      "long_name": "Youngtown",
      "short_name": "Youngtown",
      "types": [ "locality", "political" ]
    }, {
      "long_name": "Maricopa",
      "short_name": "Maricopa",
      "types": [ "administrative_area_level_2", "political" ]
    }, {
      "long_name": "Arizona",
      "short_name": "AZ",
      "types": [ "administrative_area_level_1", "political" ]
    }, {
      "long_name": "United States",
      "short_name": "US",
      "types": [ "country", "political" ]
    } ],
    "geometry": {
      "location": {
        "lat": 33.5939281,
        "lng": -112.3029362
      },
      "location_type": "APPROXIMATE",
      "viewport": {
        "southwest": {
          "lat": 33.5753373,
          "lng": -112.3349510
        },
        "northeast": {
          "lat": 33.6125149,
          "lng": -112.2709214
        }
      },
      "bounds": {
        "southwest": {
          "lat": 33.5653710,
          "lng": -112.3122860
        },
        "northeast": {
          "lat": 33.6068990,
          "lng": -112.2986920
        }
      }
    }
  } ]
}
