{
  "status": "OK",
  "results": [ {
    "types": [ "locality", "political" ],
    "formatted_address": "Reno, NV, USA",
    "address_components": [ {
      "long_name": "Reno",
      "short_name": "Reno",
      "types": [ "locality", "political" ]
    }, {
      "long_name": "Washoe",
      "short_name": "Washoe",
      "types": [ "administrative_area_level_2", "political" ]
    }, {
      "long_name": "Nevada",
      "short_name": "NV",
      "types": [ "administrative_area_level_1", "political" ]
    }, {
      "long_name": "United States",
      "short_name": "US",
      "types": [ "country", "political" ]
    } ],
    "geometry": {
      "location": {
        "lat": 39.5296329,
        "lng": -119.8138027
      },
      "location_type": "APPROXIMATE",
      "viewport": {
        "southwest": {
          "lat": 39.3917987,
          "lng": -120.0699215
        },
        "northeast": {
          "lat": 39.6671940,
          "lng": -119.5576839
        }
      },
      "bounds": {
        "southwest": {
          "lat": 39.3924260,
          "lng": -120.0023380
        },
        "northeast": {
          "lat": 39.7234360,
          "lng": -119.6993450
        }
      }
    }
  } ]
}
