{
  "status": "OK",
  "results": [ {
    "types": [ "locality", "political" ],
    "formatted_address": "Albion, IN, USA",
    "address_components": [ {
      "long_name": "Albion",
      "short_name": "Albion",
      "types": [ "locality", "political" ]
    }, {
      "long_name": "Noble",
      "short_name": "Noble",
      "types": [ "administrative_area_level_2", "political" ]
    }, {
      "long_name": "Indiana",
      "short_name": "IN",
      "types": [ "administrative_area_level_1", "political" ]
    }, {
      "long_name": "United States",
      "short_name": "US",
      "types": [ "country", "political" ]
    } ],
    "geometry": {
      "location": {
        "lat": 41.3956043,
        "lng": -85.4244241
      },
      "location_type": "APPROXIMATE",
      "viewport": {
        "southwest": {
          "lat": 41.3788615,
          "lng": -85.4564389
        },
        "northeast": {
          "lat": 41.4123427,
          "lng": -85.3924093
        }
      },
      "bounds": {
        "southwest": {
          "lat": 41.3845740,
          "lng": -85.4380429
        },
        "northeast": {
          "lat": 41.4111330,
          "lng": -85.3956470
        }
      }
    }
  } ]
}
