{
  "status": "OK",
  "results": [ {
    "types": [ "locality", "political" ],
    "formatted_address": "Angola, IN, USA",
    "address_components": [ {
      "long_name": "Angola",
      "short_name": "Angola",
      "types": [ "locality", "political" ]
    }, {
      "long_name": "Steuben",
      "short_name": "Steuben",
      "types": [ "administrative_area_level_2", "political" ]
    }, {
      "long_name": "Indiana",
      "short_name": "IN",
      "types": [ "administrative_area_level_1", "political" ]
    }, {
      "long_name": "United States",
      "short_name": "US",
      "types": [ "country", "political" ]
    } ],
    "geometry": {
      "location": {
        "lat": 41.6347726,
        "lng": -84.9994088
      },
      "location_type": "APPROXIMATE",
      "viewport": {
        "southwest": {
          "lat": 41.6014063,
          "lng": -85.0634385
        },
        "northeast": {
          "lat": 41.6681217,
          "lng": -84.9353791
        }
      },
      "bounds": {
        "southwest": {
          "lat": 41.6172040,
          "lng": -85.0373650
        },
        "northeast": {
          "lat": 41.6791459,
          "lng": -84.9702130
        }
      }
    }
  } ]
}
