{
  "status": "OK",
  "results": [ {
    "types": [ "locality", "political" ],
    "formatted_address": "Carmel, IN, USA",
    "address_components": [ {
      "long_name": "Carmel",
      "short_name": "Carmel",
      "types": [ "locality", "political" ]
    }, {
      "long_name": "Hamilton",
      "short_name": "Hamilton",
      "types": [ "administrative_area_level_2", "political" ]
    }, {
      "long_name": "Indiana",
      "short_name": "IN",
      "types": [ "administrative_area_level_1", "political" ]
    }, {
      "long_name": "United States",
      "short_name": "US",
      "types": [ "country", "political" ]
    } ],
    "geometry": {
      "location": {
        "lat": 39.9783710,
        "lng": -86.1180435
      },
      "location_type": "APPROXIMATE",
      "viewport": {
        "southwest": {
          "lat": 39.9099350,
          "lng": -86.2461029
        },
        "northeast": {
          "lat": 40.0467385,
          "lng": -85.9899841
        }
      },
      "bounds": {
        "southwest": {
          "lat": 39.9268710,
          "lng": -86.2412490
        },
        "northeast": {
          "lat": 40.0005990,
          "lng": -86.0235189
        }
      }
    }
  } ]
}
