{
  "status": "OK",
  "results": [ {
    "types": [ "locality", "political" ],
    "formatted_address": "Danville, IN, USA",
    "address_components": [ {
      "long_name": "Danville",
      "short_name": "Danville",
      "types": [ "locality", "political" ]
    }, {
      "long_name": "Hendricks",
      "short_name": "Hendricks",
      "types": [ "administrative_area_level_2", "political" ]
    }, {
      "long_name": "Indiana",
      "short_name": "IN",
      "types": [ "administrative_area_level_1", "political" ]
    }, {
      "long_name": "United States",
      "short_name": "US",
      "types": [ "country", "political" ]
    } ],
    "geometry": {
      "location": {
        "lat": 39.7606013,
        "lng": -86.5263879
      },
      "location_type": "APPROXIMATE",
      "viewport": {
        "southwest": {
          "lat": 39.7262831,
          "lng": -86.5904176
        },
        "northeast": {
          "lat": 39.7949024,
          "lng": -86.4623582
        }
      },
      "bounds": {
        "southwest": {
          "lat": 39.7315140,
          "lng": -86.5525870
        },
        "northeast": {
          "lat": 39.7848210,
          "lng": -86.4572520
        }
      }
    }
  } ]
}
