{
  "status": "OK",
  "results": [ {
    "types": [ "locality", "political" ],
    "formatted_address": "Evansville, IN, USA",
    "address_components": [ {
      "long_name": "Evansville",
      "short_name": "Evansville",
      "types": [ "locality", "political" ]
    }, {
      "long_name": "Vanderburgh",
      "short_name": "Vanderburgh",
      "types": [ "administrative_area_level_2", "political" ]
    }, {
      "long_name": "Indiana",
      "short_name": "IN",
      "types": [ "administrative_area_level_1", "political" ]
    }, {
      "long_name": "United States",
      "short_name": "US",
      "types": [ "country", "political" ]
    } ],
    "geometry": {
      "location": {
        "lat": 37.9747644,
        "lng": -87.5558482
      },
      "location_type": "APPROXIMATE",
      "viewport": {
        "southwest": {
          "lat": 37.9043656,
          "lng": -87.6839076
        },
        "northeast": {
          "lat": 38.0450958,
          "lng": -87.4277888
        }
      },
      "bounds": {
        "southwest": {
          "lat": 37.9355879,
          "lng": -87.6375480
        },
        "northeast": {
          "lat": 38.0568899,
          "lng": -87.4500109
        }
      }
    }
  } ]
}
