{
  "status": "OK",
  "results": [ {
    "types": [ "locality", "political" ],
    "formatted_address": "Huntingburg, IN, USA",
    "address_components": [ {
      "long_name": "Huntingburg",
      "short_name": "Huntingburg",
      "types": [ "locality", "political" ]
    }, {
      "long_name": "Dubois",
      "short_name": "Dubois",
      "types": [ "administrative_area_level_2", "political" ]
    }, {
      "long_name": "Indiana",
      "short_name": "IN",
      "types": [ "administrative_area_level_1", "political" ]
    }, {
      "long_name": "United States",
      "short_name": "US",
      "types": [ "country", "political" ]
    } ],
    "geometry": {
      "location": {
        "lat": 38.2989422,
        "lng": -86.9549971
      },
      "location_type": "APPROXIMATE",
      "viewport": {
        "southwest": {
          "lat": 38.2814268,
          "lng": -86.9870119
        },
        "northeast": {
          "lat": 38.3164534,
          "lng": -86.9229823
        }
      },
      "bounds": {
        "southwest": {
          "lat": 38.2727600,
          "lng": -86.9888620
        },
        "northeast": {
          "lat": 38.3243719,
          "lng": -86.9378430
        }
      }
    }
  } ]
}
