{
  "status": "OK",
  "results": [ {
    "types": [ "locality", "political" ],
    "formatted_address": "Logansport, IN, USA",
    "address_components": [ {
      "long_name": "Logansport",
      "short_name": "Logansport",
      "types": [ "locality", "political" ]
    }, {
      "long_name": "Cass",
      "short_name": "Cass",
      "types": [ "administrative_area_level_2", "political" ]
    }, {
      "long_name": "Indiana",
      "short_name": "IN",
      "types": [ "administrative_area_level_1", "political" ]
    }, {
      "long_name": "United States",
      "short_name": "US",
      "types": [ "country", "political" ]
    } ],
    "geometry": {
      "location": {
        "lat": 40.7544843,
        "lng": -86.3566659
      },
      "location_type": "APPROXIMATE",
      "viewport": {
        "southwest": {
          "lat": 40.7206664,
          "lng": -86.4206956
        },
        "northeast": {
          "lat": 40.7882850,
          "lng": -86.2926362
        }
      },
      "bounds": {
        "southwest": {
          "lat": 40.7070219,
          "lng": -86.3939730
        },
        "northeast": {
          "lat": 40.7753480,
          "lng": -86.3028040
        }
      }
    }
  } ]
}
