{
  "status": "OK",
  "results": [ {
    "types": [ "locality", "political" ],
    "formatted_address": "Loogootee, IN 47553, USA",
    "address_components": [ {
      "long_name": "Loogootee",
      "short_name": "Loogootee",
      "types": [ "locality", "political" ]
    }, {
      "long_name": "Perry",
      "short_name": "Perry",
      "types": [ "administrative_area_level_3", "political" ]
    }, {
      "long_name": "Martin",
      "short_name": "Martin",
      "types": [ "administrative_area_level_2", "political" ]
    }, {
      "long_name": "Indiana",
      "short_name": "IN",
      "types": [ "administrative_area_level_1", "political" ]
    }, {
      "long_name": "United States",
      "short_name": "US",
      "types": [ "country", "political" ]
    }, {
      "long_name": "47553",
      "short_name": "47553",
      "types": [ "postal_code" ]
    } ],
    "geometry": {
      "location": {
        "lat": 38.6769945,
        "lng": -86.9141695
      },
      "location_type": "APPROXIMATE",
      "viewport": {
        "southwest": {
          "lat": 38.6682831,
          "lng": -86.9301769
        },
        "northeast": {
          "lat": 38.6857048,
          "lng": -86.8981621
        }
      },
      "bounds": {
        "southwest": {
          "lat": 38.6640669,
          "lng": -86.9238640
        },
        "northeast": {
          "lat": 38.6886200,
          "lng": -86.9028620
        }
      }
    }
  } ]
}
