{
  "status": "OK",
  "results": [ {
    "types": [ "locality", "political" ],
    "formatted_address": "Michigan City, IN, USA",
    "address_components": [ {
      "long_name": "Michigan City",
      "short_name": "Michigan City",
      "types": [ "locality", "political" ]
    }, {
      "long_name": "LaPorte",
      "short_name": "LaPorte",
      "types": [ "administrative_area_level_2", "political" ]
    }, {
      "long_name": "Indiana",
      "short_name": "IN",
      "types": [ "administrative_area_level_1", "political" ]
    }, {
      "long_name": "United States",
      "short_name": "US",
      "types": [ "country", "political" ]
    } ],
    "geometry": {
      "location": {
        "lat": 41.7075394,
        "lng": -86.8950297
      },
      "location_type": "APPROXIMATE",
      "viewport": {
        "southwest": {
          "lat": 41.6742107,
          "lng": -86.9590594
        },
        "northeast": {
          "lat": 41.7408508,
          "lng": -86.8310000
        }
      },
      "bounds": {
        "southwest": {
          "lat": 41.6658390,
          "lng": -86.9331100
        },
        "northeast": {
          "lat": 41.7533400,
          "lng": -86.8160280
        }
      }
    }
  } ]
}
