{
  "status": "OK",
  "results": [ {
    "types": [ "locality", "political" ],
    "formatted_address": "Noblesville, IN, USA",
    "address_components": [ {
      "long_name": "Noblesville",
      "short_name": "Noblesville",
      "types": [ "locality", "political" ]
    }, {
      "long_name": "Hamilton",
      "short_name": "Hamilton",
      "types": [ "administrative_area_level_2", "political" ]
    }, {
      "long_name": "Indiana",
      "short_name": "IN",
      "types": [ "administrative_area_level_1", "political" ]
    }, {
      "long_name": "United States",
      "short_name": "US",
      "types": [ "country", "political" ]
    } ],
    "geometry": {
      "location": {
        "lat": 40.0455917,
        "lng": -86.0085955
      },
      "location_type": "APPROXIMATE",
      "viewport": {
        "southwest": {
          "lat": 39.9772230,
          "lng": -86.1366549
        },
        "northeast": {
          "lat": 40.1138919,
          "lng": -85.8805361
        }
      },
      "bounds": {
        "southwest": {
          "lat": 39.9866120,
          "lng": -86.0903240
        },
        "northeast": {
          "lat": 40.1017910,
          "lng": -85.8622259
        }
      }
    }
  } ]
}
