{
  "status": "OK",
  "results": [ {
    "types": [ "locality", "political" ],
    "formatted_address": "Portage, IN, USA",
    "address_components": [ {
      "long_name": "Portage",
      "short_name": "Portage",
      "types": [ "locality", "political" ]
    }, {
      "long_name": "Porter",
      "short_name": "Porter",
      "types": [ "administrative_area_level_2", "political" ]
    }, {
      "long_name": "Indiana",
      "short_name": "IN",
      "types": [ "administrative_area_level_1", "political" ]
    }, {
      "long_name": "United States",
      "short_name": "US",
      "types": [ "country", "political" ]
    } ],
    "geometry": {
      "location": {
        "lat": 41.5758707,
        "lng": -87.1761455
      },
      "location_type": "APPROXIMATE",
      "viewport": {
        "southwest": {
          "lat": 41.5424739,
          "lng": -87.2401752
        },
        "northeast": {
          "lat": 41.6092502,
          "lng": -87.1121158
        }
      },
      "bounds": {
        "southwest": {
          "lat": 41.5360940,
          "lng": -87.2229320
        },
        "northeast": {
          "lat": 41.6500950,
          "lng": -87.1243049
        }
      }
    }
  } ]
}
