{
  "status": "OK",
  "results": [ {
    "types": [ "locality", "political" ],
    "formatted_address": "Rensselaer, IN, USA",
    "address_components": [ {
      "long_name": "Rensselaer",
      "short_name": "Rensselaer",
      "types": [ "locality", "political" ]
    }, {
      "long_name": "Jasper",
      "short_name": "Jasper",
      "types": [ "administrative_area_level_2", "political" ]
    }, {
      "long_name": "Indiana",
      "short_name": "IN",
      "types": [ "administrative_area_level_1", "political" ]
    }, {
      "long_name": "United States",
      "short_name": "US",
      "types": [ "country", "political" ]
    } ],
    "geometry": {
      "location": {
        "lat": 40.9367045,
        "lng": -87.1508562
      },
      "location_type": "APPROXIMATE",
      "viewport": {
        "southwest": {
          "lat": 40.9198441,
          "lng": -87.1828710
        },
        "northeast": {
          "lat": 40.9535606,
          "lng": -87.1188414
        }
      },
      "bounds": {
        "southwest": {
          "lat": 40.9063639,
          "lng": -87.1825240
        },
        "northeast": {
          "lat": 40.9554250,
          "lng": -87.1325580
        }
      }
    }
  } ]
}
