{
  "status": "OK",
  "results": [ {
    "types": [ "locality", "political" ],
    "formatted_address": "Terre Haute, IN, USA",
    "address_components": [ {
      "long_name": "Terre Haute",
      "short_name": "Terre Haute",
      "types": [ "locality", "political" ]
    }, {
      "long_name": "Vigo",
      "short_name": "Vigo",
      "types": [ "administrative_area_level_2", "political" ]
    }, {
      "long_name": "Indiana",
      "short_name": "IN",
      "types": [ "administrative_area_level_1", "political" ]
    }, {
      "long_name": "United States",
      "short_name": "US",
      "types": [ "country", "political" ]
    } ],
    "geometry": {
      "location": {
        "lat": 39.4667034,
        "lng": -87.4139092
      },
      "location_type": "APPROXIMATE",
      "viewport": {
        "southwest": {
          "lat": 39.3977581,
          "lng": -87.5419686
        },
        "northeast": {
          "lat": 39.5355805,
          "lng": -87.2858498
        }
      },
      "bounds": {
        "southwest": {
          "lat": 39.4015709,
          "lng": -87.4697209
        },
        "northeast": {
          "lat": 39.5285359,
          "lng": -87.2769170
        }
      }
    }
  } ]
}
