{
  "status": "OK",
  "results": [ {
    "types": [ "locality", "political" ],
    "formatted_address": "Westfield, IN, USA",
    "address_components": [ {
      "long_name": "Westfield",
      "short_name": "Westfield",
      "types": [ "locality", "political" ]
    }, {
      "long_name": "Hamilton",
      "short_name": "Hamilton",
      "types": [ "administrative_area_level_2", "political" ]
    }, {
      "long_name": "Indiana",
      "short_name": "IN",
      "types": [ "administrative_area_level_1", "political" ]
    }, {
      "long_name": "United States",
      "short_name": "US",
      "types": [ "country", "political" ]
    } ],
    "geometry": {
      "location": {
        "lat": 40.0428151,
        "lng": -86.1274888
      },
      "location_type": "APPROXIMATE",
      "viewport": {
        "southwest": {
          "lat": 40.0086379,
          "lng": -86.1915185
        },
        "northeast": {
          "lat": 40.0769752,
          "lng": -86.0634591
        }
      },
      "bounds": {
        "southwest": {
          "lat": 39.9988559,
          "lng": -86.2414550
        },
        "northeast": {
          "lat": 40.0870940,
          "lng": -86.0895020
        }
      }
    }
  } ]
}
