{
  "status": "OK",
  "results": [ {
    "types": [ "locality", "political" ],
    "formatted_address": "Westville, IN, USA",
    "address_components": [ {
      "long_name": "Westville",
      "short_name": "Westville",
      "types": [ "locality", "political" ]
    }, {
      "long_name": "LaPorte",
      "short_name": "LaPorte",
      "types": [ "administrative_area_level_2", "political" ]
    }, {
      "long_name": "Indiana",
      "short_name": "IN",
      "types": [ "administrative_area_level_1", "political" ]
    }, {
      "long_name": "United States",
      "short_name": "US",
      "types": [ "country", "political" ]
    } ],
    "geometry": {
      "location": {
        "lat": 41.5414297,
        "lng": -86.9005825
      },
      "location_type": "APPROXIMATE",
      "viewport": {
        "southwest": {
          "lat": 41.5247246,
          "lng": -86.9325973
        },
        "northeast": {
          "lat": 41.5581305,
          "lng": -86.8685677
        }
      },
      "bounds": {
        "southwest": {
          "lat": 41.5182910,
          "lng": -86.9238510
        },
        "northeast": {
          "lat": 41.5702320,
          "lng": -86.8882330
        }
      }
    }
  } ]
}
