{
  "status": "OK",
  "results": [ {
    "types": [ "locality", "political" ],
    "formatted_address": "Bartlett, IL, USA",
    "address_components": [ {
      "long_name": "Bartlett",
      "short_name": "Bartlett",
      "types": [ "locality", "political" ]
    }, {
      "long_name": "Hanover",
      "short_name": "Hanover",
      "types": [ "administrative_area_level_3", "political" ]
    }, {
      "long_name": "Cook",
      "short_name": "Cook",
      "types": [ "administrative_area_level_2", "political" ]
    }, {
      "long_name": "Illinois",
      "short_name": "IL",
      "types": [ "administrative_area_level_1", "political" ]
    }, {
      "long_name": "United States",
      "short_name": "US",
      "types": [ "country", "political" ]
    } ],
    "geometry": {
      "location": {
        "lat": 41.9950276,
        "lng": -88.1856301
      },
      "location_type": "APPROXIMATE",
      "viewport": {
        "southwest": {
          "lat": 41.9618484,
          "lng": -88.2496598
        },
        "northeast": {
          "lat": 42.0281896,
          "lng": -88.1216004
        }
      },
      "bounds": {
        "southwest": {
          "lat": 41.9416350,
          "lng": -88.2692280
        },
        "northeast": {
          "lat": 42.0156650,
          "lng": -88.1486669
        }
      }
    }
  } ]
}
