{
  "status": "OK",
  "results": [ {
    "types": [ "locality", "political" ],
    "formatted_address": "Bloomington, IL, USA",
    "address_components": [ {
      "long_name": "Bloomington",
      "short_name": "Bloomington",
      "types": [ "locality", "political" ]
    }, {
      "long_name": "Bloomington City",
      "short_name": "Bloomington City",
      "types": [ "administrative_area_level_3", "political" ]
    }, {
      "long_name": "McLean",
      "short_name": "McLean",
      "types": [ "administrative_area_level_2", "political" ]
    }, {
      "long_name": "Illinois",
      "short_name": "IL",
      "types": [ "administrative_area_level_1", "political" ]
    }, {
      "long_name": "United States",
      "short_name": "US",
      "types": [ "country", "political" ]
    } ],
    "geometry": {
      "location": {
        "lat": 40.4842027,
        "lng": -88.9936873
      },
      "location_type": "APPROXIMATE",
      "viewport": {
        "southwest": {
          "lat": 40.4502477,
          "lng": -89.0577170
        },
        "northeast": {
          "lat": 40.5181405,
          "lng": -88.9296576
        }
      },
      "bounds": {
        "southwest": {
          "lat": 40.4294260,
          "lng": -89.0678710
        },
        "northeast": {
          "lat": 40.5183520,
          "lng": -88.8758539
        }
      }
    }
  } ]
}
