{
  "status": "OK",
  "results": [ {
    "types": [ "locality", "political" ],
    "formatted_address": "Calumet Park, IL, USA",
    "address_components": [ {
      "long_name": "Calumet Park",
      "short_name": "Calumet Park",
      "types": [ "locality", "political" ]
    }, {
      "long_name": "Calumet",
      "short_name": "Calumet",
      "types": [ "administrative_area_level_3", "political" ]
    }, {
      "long_name": "Cook",
      "short_name": "Cook",
      "types": [ "administrative_area_level_2", "political" ]
    }, {
      "long_name": "Illinois",
      "short_name": "IL",
      "types": [ "administrative_area_level_1", "political" ]
    }, {
      "long_name": "United States",
      "short_name": "US",
      "types": [ "country", "political" ]
    } ],
    "geometry": {
      "location": {
        "lat": 41.6628119,
        "lng": -87.6606037
      },
      "location_type": "APPROXIMATE",
      "viewport": {
        "southwest": {
          "lat": 41.6544756,
          "lng": -87.6766111
        },
        "northeast": {
          "lat": 41.6711472,
          "lng": -87.6445963
        }
      },
      "bounds": {
        "southwest": {
          "lat": 41.6550340,
          "lng": -87.6707479
        },
        "northeast": {
          "lat": 41.6776340,
          "lng": -87.6415470
        }
      }
    }
  } ]
}
