{
  "status": "OK",
  "results": [ {
    "types": [ "locality", "political" ],
    "formatted_address": "Carlyle, IL 62231, USA",
    "address_components": [ {
      "long_name": "Carlyle",
      "short_name": "Carlyle",
      "types": [ "locality", "political" ]
    }, {
      "long_name": "Clinton",
      "short_name": "Clinton",
      "types": [ "administrative_area_level_2", "political" ]
    }, {
      "long_name": "Illinois",
      "short_name": "IL",
      "types": [ "administrative_area_level_1", "political" ]
    }, {
      "long_name": "United States",
      "short_name": "US",
      "types": [ "country", "political" ]
    }, {
      "long_name": "62231",
      "short_name": "62231",
      "types": [ "postal_code" ]
    } ],
    "geometry": {
      "location": {
        "lat": 38.6103264,
        "lng": -89.3725796
      },
      "location_type": "APPROXIMATE",
      "viewport": {
        "southwest": {
          "lat": 38.5928864,
          "lng": -89.4045944
        },
        "northeast": {
          "lat": 38.6277622,
          "lng": -89.3405648
        }
      },
      "bounds": {
        "southwest": {
          "lat": 38.6030520,
          "lng": -89.4060800
        },
        "northeast": {
          "lat": 38.6457349,
          "lng": -89.3431909
        }
      }
    }
  } ]
}
