{
  "status": "OK",
  "results": [ {
    "types": [ "locality", "political" ],
    "formatted_address": "Danville, IL, USA",
    "address_components": [ {
      "long_name": "Danville",
      "short_name": "Danville",
      "types": [ "locality", "political" ]
    }, {
      "long_name": "Vermilion",
      "short_name": "Vermilion",
      "types": [ "administrative_area_level_2", "political" ]
    }, {
      "long_name": "Illinois",
      "short_name": "IL",
      "types": [ "administrative_area_level_1", "political" ]
    }, {
      "long_name": "United States",
      "short_name": "US",
      "types": [ "country", "political" ]
    } ],
    "geometry": {
      "location": {
        "lat": 40.1244810,
        "lng": -87.6300207
      },
      "location_type": "APPROXIMATE",
      "viewport": {
        "southwest": {
          "lat": 40.0561914,
          "lng": -87.7580801
        },
        "northeast": {
          "lat": 40.1927020,
          "lng": -87.5019613
        }
      },
      "bounds": {
        "southwest": {
          "lat": 40.1033819,
          "lng": -87.6652210
        },
        "northeast": {
          "lat": 40.2045240,
          "lng": -87.5316979
        }
      }
    }
  } ]
}
