{
  "status": "OK",
  "results": [ {
    "types": [ "locality", "political" ],
    "formatted_address": "Decatur, IL, USA",
    "address_components": [ {
      "long_name": "Decatur",
      "short_name": "Decatur",
      "types": [ "locality", "political" ]
    }, {
      "long_name": "Macon",
      "short_name": "Macon",
      "types": [ "administrative_area_level_2", "political" ]
    }, {
      "long_name": "Illinois",
      "short_name": "IL",
      "types": [ "administrative_area_level_1", "political" ]
    }, {
      "long_name": "United States",
      "short_name": "US",
      "types": [ "country", "political" ]
    } ],
    "geometry": {
      "location": {
        "lat": 39.8403147,
        "lng": -88.9548001
      },
      "location_type": "APPROXIMATE",
      "viewport": {
        "southwest": {
          "lat": 39.7717407,
          "lng": -89.0828595
        },
        "northeast": {
          "lat": 39.9088203,
          "lng": -88.8267407
        }
      },
      "bounds": {
        "southwest": {
          "lat": 39.7867830,
          "lng": -89.0331210
        },
        "northeast": {
          "lat": 39.9249639,
          "lng": -88.8030490
        }
      }
    }
  } ]
}
