{
  "status": "OK",
  "results": [ {
    "types": [ "locality", "political" ],
    "formatted_address": "Flora, IL 62839, USA",
    "address_components": [ {
      "long_name": "Flora",
      "short_name": "Flora",
      "types": [ "locality", "political" ]
    }, {
      "long_name": "Harter",
      "short_name": "Harter",
      "types": [ "administrative_area_level_3", "political" ]
    }, {
      "long_name": "Clay",
      "short_name": "Clay",
      "types": [ "administrative_area_level_2", "political" ]
    }, {
      "long_name": "Illinois",
      "short_name": "IL",
      "types": [ "administrative_area_level_1", "political" ]
    }, {
      "long_name": "United States",
      "short_name": "US",
      "types": [ "country", "political" ]
    }, {
      "long_name": "62839",
      "short_name": "62839",
      "types": [ "postal_code" ]
    } ],
    "geometry": {
      "location": {
        "lat": 38.6689364,
        "lng": -88.4856042
      },
      "location_type": "APPROXIMATE",
      "viewport": {
        "southwest": {
          "lat": 38.6515106,
          "lng": -88.5176190
        },
        "northeast": {
          "lat": 38.6863579,
          "lng": -88.4535894
        }
      },
      "bounds": {
        "southwest": {
          "lat": 38.6550529,
          "lng": -88.5078599
        },
        "northeast": {
          "lat": 38.6856609,
          "lng": -88.4407629
        }
      }
    }
  } ]
}
