{
  "status": "OK",
  "results": [ {
    "types": [ "locality", "political" ],
    "formatted_address": "Flossmoor, IL, USA",
    "address_components": [ {
      "long_name": "Flossmoor",
      "short_name": "Flossmoor",
      "types": [ "locality", "political" ]
    }, {
      "long_name": "Rich",
      "short_name": "Rich",
      "types": [ "administrative_area_level_3", "political" ]
    }, {
      "long_name": "Cook",
      "short_name": "Cook",
      "types": [ "administrative_area_level_2", "political" ]
    }, {
      "long_name": "Illinois",
      "short_name": "IL",
      "types": [ "administrative_area_level_1", "political" ]
    }, {
      "long_name": "United States",
      "short_name": "US",
      "types": [ "country", "political" ]
    } ],
    "geometry": {
      "location": {
        "lat": 41.5428123,
        "lng": -87.6847684
      },
      "location_type": "APPROXIMATE",
      "viewport": {
        "southwest": {
          "lat": 41.5261075,
          "lng": -87.7167832
        },
        "northeast": {
          "lat": 41.5595128,
          "lng": -87.6527536
        }
      },
      "bounds": {
        "southwest": {
          "lat": 41.5279339,
          "lng": -87.7133470
        },
        "northeast": {
          "lat": 41.5517339,
          "lng": -87.6550439
        }
      }
    }
  } ]
}
