{
  "status": "OK",
  "results": [ {
    "types": [ "locality", "political" ],
    "formatted_address": "Geneseo, IL 61254, USA",
    "address_components": [ {
      "long_name": "Geneseo",
      "short_name": "Geneseo",
      "types": [ "locality", "political" ]
    }, {
      "long_name": "Henry",
      "short_name": "Henry",
      "types": [ "administrative_area_level_2", "political" ]
    }, {
      "long_name": "Illinois",
      "short_name": "IL",
      "types": [ "administrative_area_level_1", "political" ]
    }, {
      "long_name": "United States",
      "short_name": "US",
      "types": [ "country", "political" ]
    }, {
      "long_name": "61254",
      "short_name": "61254",
      "types": [ "postal_code" ]
    } ],
    "geometry": {
      "location": {
        "lat": 41.4480902,
        "lng": -90.1542848
      },
      "location_type": "APPROXIMATE",
      "viewport": {
        "southwest": {
          "lat": 41.4313610,
          "lng": -90.1862996
        },
        "northeast": {
          "lat": 41.4648151,
          "lng": -90.1222700
        }
      },
      "bounds": {
        "southwest": {
          "lat": 41.4251439,
          "lng": -90.1755070
        },
        "northeast": {
          "lat": 41.4815190,
          "lng": -90.1243430
        }
      }
    }
  } ]
}
