{
  "status": "OK",
  "results": [ {
    "types": [ "locality", "political" ],
    "formatted_address": "Le Roy, IL 61752, USA",
    "address_components": [ {
      "long_name": "Le Roy",
      "short_name": "Le Roy",
      "types": [ "locality", "political" ]
    }, {
      "long_name": "Empire",
      "short_name": "Empire",
      "types": [ "administrative_area_level_3", "political" ]
    }, {
      "long_name": "McLean",
      "short_name": "McLean",
      "types": [ "administrative_area_level_2", "political" ]
    }, {
      "long_name": "Illinois",
      "short_name": "IL",
      "types": [ "administrative_area_level_1", "political" ]
    }, {
      "long_name": "United States",
      "short_name": "US",
      "types": [ "country", "political" ]
    }, {
      "long_name": "61752",
      "short_name": "61752",
      "types": [ "postal_code" ]
    } ],
    "geometry": {
      "location": {
        "lat": 40.3519795,
        "lng": -88.7642370
      },
      "location_type": "APPROXIMATE",
      "viewport": {
        "southwest": {
          "lat": 40.3349708,
          "lng": -88.7962518
        },
        "northeast": {
          "lat": 40.3689839,
          "lng": -88.7322222
        }
      },
      "bounds": {
        "southwest": {
          "lat": 40.3189140,
          "lng": -88.7839669
        },
        "northeast": {
          "lat": 40.3576170,
          "lng": -88.7488659
        }
      }
    }
  } ]
}
