{
  "status": "OK",
  "results": [ {
    "types": [ "locality", "political" ],
    "formatted_address": "Minooka, IL, USA",
    "address_components": [ {
      "long_name": "Minooka",
      "short_name": "Minooka",
      "types": [ "locality", "political" ]
    }, {
      "long_name": "Aux Sable",
      "short_name": "Aux Sable",
      "types": [ "administrative_area_level_3", "political" ]
    }, {
      "long_name": "Grundy",
      "short_name": "Grundy",
      "types": [ "administrative_area_level_2", "political" ]
    }, {
      "long_name": "Illinois",
      "short_name": "IL",
      "types": [ "administrative_area_level_1", "political" ]
    }, {
      "long_name": "United States",
      "short_name": "US",
      "types": [ "country", "political" ]
    } ],
    "geometry": {
      "location": {
        "lat": 41.4553084,
        "lng": -88.2617305
      },
      "location_type": "APPROXIMATE",
      "viewport": {
        "southwest": {
          "lat": 41.4218494,
          "lng": -88.3257602
        },
        "northeast": {
          "lat": 41.4887502,
          "lng": -88.1977008
        }
      },
      "bounds": {
        "southwest": {
          "lat": 41.4180149,
          "lng": -88.3400230
        },
        "northeast": {
          "lat": 41.4844299,
          "lng": -88.2365760
        }
      }
    }
  } ]
}
