{
  "status": "OK",
  "results": [ {
    "types": [ "locality", "political" ],
    "formatted_address": "Morton, IL, USA",
    "address_components": [ {
      "long_name": "Morton",
      "short_name": "Morton",
      "types": [ "locality", "political" ]
    }, {
      "long_name": "Tazewell",
      "short_name": "Tazewell",
      "types": [ "administrative_area_level_2", "political" ]
    }, {
      "long_name": "Illinois",
      "short_name": "IL",
      "types": [ "administrative_area_level_1", "political" ]
    }, {
      "long_name": "United States",
      "short_name": "US",
      "types": [ "country", "political" ]
    } ],
    "geometry": {
      "location": {
        "lat": 40.6128161,
        "lng": -89.4592609
      },
      "location_type": "APPROXIMATE",
      "viewport": {
        "southwest": {
          "lat": 40.5789262,
          "lng": -89.5232906
        },
        "northeast": {
          "lat": 40.6466888,
          "lng": -89.3952312
        }
      },
      "bounds": {
        "southwest": {
          "lat": 40.5561430,
          "lng": -89.5167039
        },
        "northeast": {
          "lat": 40.6622379,
          "lng": -89.4216759
        }
      }
    }
  } ]
}
