{
  "status": "OK",
  "results": [ {
    "types": [ "locality", "political" ],
    "formatted_address": "Potomac, IL 61865, USA",
    "address_components": [ {
      "long_name": "Potomac",
      "short_name": "Potomac",
      "types": [ "locality", "political" ]
    }, {
      "long_name": "Middlefork",
      "short_name": "Middlefork",
      "types": [ "administrative_area_level_3", "political" ]
    }, {
      "long_name": "Vermilion",
      "short_name": "Vermilion",
      "types": [ "administrative_area_level_2", "political" ]
    }, {
      "long_name": "Illinois",
      "short_name": "IL",
      "types": [ "administrative_area_level_1", "political" ]
    }, {
      "long_name": "United States",
      "short_name": "US",
      "types": [ "country", "political" ]
    }, {
      "long_name": "61865",
      "short_name": "61865",
      "types": [ "postal_code" ]
    } ],
    "geometry": {
      "location": {
        "lat": 40.3050360,
        "lng": -87.8005829
      },
      "location_type": "APPROXIMATE",
      "viewport": {
        "southwest": {
          "lat": 40.2965263,
          "lng": -87.8165903
        },
        "northeast": {
          "lat": 40.3135447,
          "lng": -87.7845755
        }
      },
      "bounds": {
        "southwest": {
          "lat": 40.2997660,
          "lng": -87.8086110
        },
        "northeast": {
          "lat": 40.3142330,
          "lng": -87.7854230
        }
      }
    }
  } ]
}
