{
  "status": "OK",
  "results": [ {
    "types": [ "locality", "political" ],
    "formatted_address": "Richton Park, IL, USA",
    "address_components": [ {
      "long_name": "Richton Park",
      "short_name": "Richton Park",
      "types": [ "locality", "political" ]
    }, {
      "long_name": "Rich",
      "short_name": "Rich",
      "types": [ "administrative_area_level_3", "political" ]
    }, {
      "long_name": "Cook",
      "short_name": "Cook",
      "types": [ "administrative_area_level_2", "political" ]
    }, {
      "long_name": "Illinois",
      "short_name": "IL",
      "types": [ "administrative_area_level_1", "political" ]
    }, {
      "long_name": "United States",
      "short_name": "US",
      "types": [ "country", "political" ]
    } ],
    "geometry": {
      "location": {
        "lat": 41.4844790,
        "lng": -87.7033787
      },
      "location_type": "APPROXIMATE",
      "viewport": {
        "southwest": {
          "lat": 41.4510350,
          "lng": -87.7674084
        },
        "northeast": {
          "lat": 41.5179057,
          "lng": -87.6393490
        }
      },
      "bounds": {
        "southwest": {
          "lat": 41.4695339,
          "lng": -87.7902410
        },
        "northeast": {
          "lat": 41.4920929,
          "lng": -87.7026439
        }
      }
    }
  } ]
}
