{
  "status": "OK",
  "results": [ {
    "types": [ "locality", "political" ],
    "formatted_address": "Rossville, IL, USA",
    "address_components": [ {
      "long_name": "Rossville",
      "short_name": "Rossville",
      "types": [ "locality", "political" ]
    }, {
      "long_name": "Ross",
      "short_name": "Ross",
      "types": [ "administrative_area_level_3", "political" ]
    }, {
      "long_name": "Vermilion",
      "short_name": "Vermilion",
      "types": [ "administrative_area_level_2", "political" ]
    }, {
      "long_name": "Illinois",
      "short_name": "IL",
      "types": [ "administrative_area_level_1", "political" ]
    }, {
      "long_name": "United States",
      "short_name": "US",
      "types": [ "country", "political" ]
    } ],
    "geometry": {
      "location": {
        "lat": 40.3792031,
        "lng": -87.6686342
      },
      "location_type": "APPROXIMATE",
      "viewport": {
        "southwest": {
          "lat": 40.3622012,
          "lng": -87.7006490
        },
        "northeast": {
          "lat": 40.3962007,
          "lng": -87.6366194
        }
      },
      "bounds": {
        "southwest": {
          "lat": 40.3683390,
          "lng": -87.6919370
        },
        "northeast": {
          "lat": 40.4012300,
          "lng": -87.6566369
        }
      }
    }
  } ]
}
