{
  "status": "OK",
  "results": [ {
    "types": [ "locality", "political" ],
    "formatted_address": "Springfield, IL, USA",
    "address_components": [ {
      "long_name": "Springfield",
      "short_name": "Springfield",
      "types": [ "locality", "political" ]
    }, {
      "long_name": "Sangamon",
      "short_name": "Sangamon",
      "types": [ "administrative_area_level_2", "political" ]
    }, {
      "long_name": "Illinois",
      "short_name": "IL",
      "types": [ "administrative_area_level_1", "political" ]
    }, {
      "long_name": "United States",
      "short_name": "US",
      "types": [ "country", "political" ]
    } ],
    "geometry": {
      "location": {
        "lat": 39.8017171,
        "lng": -89.6437107
      },
      "location_type": "APPROXIMATE",
      "viewport": {
        "southwest": {
          "lat": 39.7331046,
          "lng": -89.7717701
        },
        "northeast": {
          "lat": 39.8702612,
          "lng": -89.5156513
        }
      },
      "bounds": {
        "southwest": {
          "lat": 39.6536259,
          "lng": -89.7731769
        },
        "northeast": {
          "lat": 39.8740490,
          "lng": -89.5684859
        }
      }
    }
  } ]
}
