{
  "status": "OK",
  "results": [ {
    "types": [ "locality", "political" ],
    "formatted_address": "Western Springs, IL, USA",
    "address_components": [ {
      "long_name": "Western Springs",
      "short_name": "Western Springs",
      "types": [ "locality", "political" ]
    }, {
      "long_name": "Lyons",
      "short_name": "Lyons",
      "types": [ "administrative_area_level_3", "political" ]
    }, {
      "long_name": "Cook",
      "short_name": "Cook",
      "types": [ "administrative_area_level_2", "political" ]
    }, {
      "long_name": "Illinois",
      "short_name": "IL",
      "types": [ "administrative_area_level_1", "political" ]
    }, {
      "long_name": "United States",
      "short_name": "US",
      "types": [ "country", "political" ]
    } ],
    "geometry": {
      "location": {
        "lat": 41.8097532,
        "lng": -87.9006155
      },
      "location_type": "APPROXIMATE",
      "viewport": {
        "southwest": {
          "lat": 41.7931175,
          "lng": -87.9326303
        },
        "northeast": {
          "lat": 41.8263845,
          "lng": -87.8686007
        }
      },
      "bounds": {
        "southwest": {
          "lat": 41.7750310,
          "lng": -87.9143600
        },
        "northeast": {
          "lat": 41.8206310,
          "lng": -87.8882579
        }
      }
    }
  } ]
}
