{
  "status": "OK",
  "results": [ {
    "types": [ "locality", "political" ],
    "formatted_address": "West Chicago, IL, USA",
    "address_components": [ {
      "long_name": "West Chicago",
      "short_name": "West Chicago",
      "types": [ "locality", "political" ]
    }, {
      "long_name": "Winfield",
      "short_name": "Winfield",
      "types": [ "administrative_area_level_3", "political" ]
    }, {
      "long_name": "DuPage",
      "short_name": "DuPage",
      "types": [ "administrative_area_level_2", "political" ]
    }, {
      "long_name": "Illinois",
      "short_name": "IL",
      "types": [ "administrative_area_level_1", "political" ]
    }, {
      "long_name": "United States",
      "short_name": "US",
      "types": [ "country", "political" ]
    } ],
    "geometry": {
      "location": {
        "lat": 41.8847507,
        "lng": -88.2039607
      },
      "location_type": "APPROXIMATE",
      "viewport": {
        "southwest": {
          "lat": 41.8515140,
          "lng": -88.2679904
        },
        "northeast": {
          "lat": 41.9179701,
          "lng": -88.1399310
        }
      },
      "bounds": {
        "southwest": {
          "lat": 41.8550220,
          "lng": -88.2629750
        },
        "northeast": {
          "lat": 41.9371469,
          "lng": -88.1751489
        }
      }
    }
  } ]
}
