{
  "status": "OK",
  "results": [ {
    "types": [ "locality", "political" ],
    "formatted_address": "Gorham, NH, USA",
    "address_components": [ {
      "long_name": "Gorham",
      "short_name": "Gorham",
      "types": [ "locality", "political" ]
    }, {
      "long_name": "Coos",
      "short_name": "Coos",
      "types": [ "administrative_area_level_2", "political" ]
    }, {
      "long_name": "New Hampshire",
      "short_name": "NH",
      "types": [ "administrative_area_level_1", "political" ]
    }, {
      "long_name": "United States",
      "short_name": "US",
      "types": [ "country", "political" ]
    } ],
    "geometry": {
      "location": {
        "lat": 44.3878391,
        "lng": -71.1731310
      },
      "location_type": "APPROXIMATE",
      "viewport": {
        "southwest": {
          "lat": 44.3718895,
          "lng": -71.2051458
        },
        "northeast": {
          "lat": 44.4037844,
          "lng": -71.1411162
        }
      },
      "bounds": {
        "southwest": {
          "lat": 44.3831889,
          "lng": -71.2138710
        },
        "northeast": {
          "lat": 44.4023550,
          "lng": -71.1604739
        }
      }
    }
  } ]
}
