{
  "status": "OK",
  "results": [ {
    "types": [ "locality", "political" ],
    "formatted_address": "Hanover, NH, USA",
    "address_components": [ {
      "long_name": "Hanover",
      "short_name": "Hanover",
      "types": [ "locality", "political" ]
    }, {
      "long_name": "Grafton",
      "short_name": "Grafton",
      "types": [ "administrative_area_level_2", "political" ]
    }, {
      "long_name": "New Hampshire",
      "short_name": "NH",
      "types": [ "administrative_area_level_1", "political" ]
    }, {
      "long_name": "United States",
      "short_name": "US",
      "types": [ "country", "political" ]
    } ],
    "geometry": {
      "location": {
        "lat": 43.7022928,
        "lng": -72.2895353
      },
      "location_type": "APPROXIMATE",
      "viewport": {
        "southwest": {
          "lat": 43.6861575,
          "lng": -72.3215501
        },
        "northeast": {
          "lat": 43.7184237,
          "lng": -72.2575205
        }
      },
      "bounds": {
        "southwest": {
          "lat": 43.6841200,
          "lng": -72.3059870
        },
        "northeast": {
          "lat": 43.7353200,
          "lng": -72.2501730
        }
      }
    }
  } ]
}
