{
  "status": "OK",
  "results": [ {
    "types": [ "locality", "political" ],
    "formatted_address": "Hooksett, NH, USA",
    "address_components": [ {
      "long_name": "Hooksett",
      "short_name": "Hooksett",
      "types": [ "locality", "political" ]
    }, {
      "long_name": "Merrimack",
      "short_name": "Merrimack",
      "types": [ "administrative_area_level_2", "political" ]
    }, {
      "long_name": "New Hampshire",
      "short_name": "NH",
      "types": [ "administrative_area_level_1", "political" ]
    }, {
      "long_name": "United States",
      "short_name": "US",
      "types": [ "country", "political" ]
    } ],
    "geometry": {
      "location": {
        "lat": 43.0967495,
        "lng": -71.4650684
      },
      "location_type": "APPROXIMATE",
      "viewport": {
        "southwest": {
          "lat": 43.0804522,
          "lng": -71.4970832
        },
        "northeast": {
          "lat": 43.1130425,
          "lng": -71.4330536
        }
      },
      "bounds": {
        "southwest": {
          "lat": 43.0648909,
          "lng": -71.4773759
        },
        "northeast": {
          "lat": 43.1239470,
          "lng": -71.4316290
        }
      }
    }
  } ]
}
