{
  "status": "OK",
  "results": [ {
    "types": [ "locality", "political" ],
    "formatted_address": "Laconia, NH, USA",
    "address_components": [ {
      "long_name": "Laconia",
      "short_name": "Laconia",
      "types": [ "locality", "political" ]
    }, {
      "long_name": "Belknap",
      "short_name": "Belknap",
      "types": [ "administrative_area_level_2", "political" ]
    }, {
      "long_name": "New Hampshire",
      "short_name": "NH",
      "types": [ "administrative_area_level_1", "political" ]
    }, {
      "long_name": "United States",
      "short_name": "US",
      "types": [ "country", "political" ]
    } ],
    "geometry": {
      "location": {
        "lat": 43.5278546,
        "lng": -71.4703509
      },
      "location_type": "APPROXIMATE",
      "viewport": {
        "southwest": {
          "lat": 43.4631000,
          "lng": -71.5984103
        },
        "northeast": {
          "lat": 43.5925398,
          "lng": -71.3422915
        }
      },
      "bounds": {
        "southwest": {
          "lat": 43.5016059,
          "lng": -71.5364190
        },
        "northeast": {
          "lat": 43.6299930,
          "lng": -71.4285800
        }
      }
    }
  } ]
}
