{
  "status": "OK",
  "results": [ {
    "types": [ "locality", "political" ],
    "formatted_address": "Londonderry, NH, USA",
    "address_components": [ {
      "long_name": "Londonderry",
      "short_name": "Londonderry",
      "types": [ "locality", "political" ]
    }, {
      "long_name": "Rockingham",
      "short_name": "Rockingham",
      "types": [ "administrative_area_level_2", "political" ]
    }, {
      "long_name": "New Hampshire",
      "short_name": "NH",
      "types": [ "administrative_area_level_1", "political" ]
    }, {
      "long_name": "United States",
      "short_name": "US",
      "types": [ "country", "political" ]
    } ],
    "geometry": {
      "location": {
        "lat": 42.8650869,
        "lng": -71.3739532
      },
      "location_type": "APPROXIMATE",
      "viewport": {
        "southwest": {
          "lat": 42.8323649,
          "lng": -71.4379829
        },
        "northeast": {
          "lat": 42.8977916,
          "lng": -71.3099235
        }
      },
      "bounds": {
        "southwest": {
          "lat": 42.7989880,
          "lng": -71.4078260
        },
        "northeast": {
          "lat": 42.9027430,
          "lng": -71.3310590
        }
      }
    }
  } ]
}
