{
  "status": "OK",
  "results": [ {
    "types": [ "locality", "political" ],
    "formatted_address": "Milford, NH, USA",
    "address_components": [ {
      "long_name": "Milford",
      "short_name": "Milford",
      "types": [ "locality", "political" ]
    }, {
      "long_name": "Hillsborough",
      "short_name": "Hillsborough",
      "types": [ "administrative_area_level_2", "political" ]
    }, {
      "long_name": "New Hampshire",
      "short_name": "NH",
      "types": [ "administrative_area_level_1", "political" ]
    }, {
      "long_name": "United States",
      "short_name": "US",
      "types": [ "country", "political" ]
    } ],
    "geometry": {
      "location": {
        "lat": 42.8353641,
        "lng": -71.6489604
      },
      "location_type": "APPROXIMATE",
      "viewport": {
        "southwest": {
          "lat": 42.8189974,
          "lng": -71.6809752
        },
        "northeast": {
          "lat": 42.8517265,
          "lng": -71.6169456
        }
      },
      "bounds": {
        "southwest": {
          "lat": 42.8153420,
          "lng": -71.7029340
        },
        "northeast": {
          "lat": 42.8567050,
          "lng": -71.6247150
        }
      }
    }
  } ]
}
