{
  "status": "OK",
  "results": [ {
    "types": [ "locality", "political" ],
    "formatted_address": "Newport, NH, USA",
    "address_components": [ {
      "long_name": "Newport",
      "short_name": "Newport",
      "types": [ "locality", "political" ]
    }, {
      "long_name": "Sullivan",
      "short_name": "Sullivan",
      "types": [ "administrative_area_level_2", "political" ]
    }, {
      "long_name": "New Hampshire",
      "short_name": "NH",
      "types": [ "administrative_area_level_1", "political" ]
    }, {
      "long_name": "United States",
      "short_name": "US",
      "types": [ "country", "political" ]
    } ],
    "geometry": {
      "location": {
        "lat": 43.3653521,
        "lng": -72.1734205
      },
      "location_type": "APPROXIMATE",
      "viewport": {
        "southwest": {
          "lat": 43.3328964,
          "lng": -72.2374502
        },
        "northeast": {
          "lat": 43.3977904,
          "lng": -72.1093908
        }
      },
      "bounds": {
        "southwest": {
          "lat": 43.3380359,
          "lng": -72.2259409
        },
        "northeast": {
          "lat": 43.4064360,
          "lng": -72.1264970
        }
      }
    }
  } ]
}
