{
  "status": "OK",
  "results": [ {
    "types": [ "locality", "political" ],
    "formatted_address": "Rochester, NH, USA",
    "address_components": [ {
      "long_name": "Rochester",
      "short_name": "Rochester",
      "types": [ "locality", "political" ]
    }, {
      "long_name": "Strafford",
      "short_name": "Strafford",
      "types": [ "administrative_area_level_2", "political" ]
    }, {
      "long_name": "New Hampshire",
      "short_name": "NH",
      "types": [ "administrative_area_level_1", "political" ]
    }, {
      "long_name": "United States",
      "short_name": "US",
      "types": [ "country", "political" ]
    } ],
    "geometry": {
      "location": {
        "lat": 43.3045260,
        "lng": -70.9756186
      },
      "location_type": "APPROXIMATE",
      "viewport": {
        "southwest": {
          "lat": 43.2395323,
          "lng": -71.1036780
        },
        "northeast": {
          "lat": 43.3694503,
          "lng": -70.8475592
        }
      },
      "bounds": {
        "southwest": {
          "lat": 43.2257819,
          "lng": -71.0727079
        },
        "northeast": {
          "lat": 43.3792220,
          "lng": -70.8963050
        }
      }
    }
  } ]
}
