{
  "status": "OK",
  "results": [ {
    "types": [ "locality", "political" ],
    "formatted_address": "Somersworth, NH, USA",
    "address_components": [ {
      "long_name": "Somersworth",
      "short_name": "Somersworth",
      "types": [ "locality", "political" ]
    }, {
      "long_name": "Strafford",
      "short_name": "Strafford",
      "types": [ "administrative_area_level_2", "political" ]
    }, {
      "long_name": "New Hampshire",
      "short_name": "NH",
      "types": [ "administrative_area_level_1", "political" ]
    }, {
      "long_name": "United States",
      "short_name": "US",
      "types": [ "country", "political" ]
    } ],
    "geometry": {
      "location": {
        "lat": 43.2617503,
        "lng": -70.8653372
      },
      "location_type": "APPROXIMATE",
      "viewport": {
        "southwest": {
          "lat": 43.2292393,
          "lng": -70.9293669
        },
        "northeast": {
          "lat": 43.2942440,
          "lng": -70.8013075
        }
      },
      "bounds": {
        "southwest": {
          "lat": 43.2234310,
          "lng": -70.9271050
        },
        "northeast": {
          "lat": 43.2875820,
          "lng": -70.8383580
        }
      }
    }
  } ]
}
