{
  "status": "OK",
  "results": [ {
    "types": [ "locality", "political" ],
    "formatted_address": "Aurora, NE, USA",
    "address_components": [ {
      "long_name": "Aurora",
      "short_name": "Aurora",
      "types": [ "locality", "political" ]
    }, {
      "long_name": "Hamilton",
      "short_name": "Hamilton",
      "types": [ "administrative_area_level_2", "political" ]
    }, {
      "long_name": "Nebraska",
      "short_name": "NE",
      "types": [ "administrative_area_level_1", "political" ]
    }, {
      "long_name": "United States",
      "short_name": "US",
      "types": [ "country", "political" ]
    } ],
    "geometry": {
      "location": {
        "lat": 40.8666667,
        "lng": -98.0036111
      },
      "location_type": "APPROXIMATE",
      "viewport": {
        "southwest": {
          "lat": 40.8582281,
          "lng": -98.0196185
        },
        "northeast": {
          "lat": 40.8751042,
          "lng": -97.9876037
        }
      },
      "bounds": {
        "southwest": {
          "lat": 40.8532820,
          "lng": -98.0235639
        },
        "northeast": {
          "lat": 40.8797469,
          "lng": -97.9877760
        }
      }
    }
  } ]
}
