{
  "status": "OK",
  "results": [ {
    "types": [ "locality", "political" ],
    "formatted_address": "Cozad, NE, USA",
    "address_components": [ {
      "long_name": "Cozad",
      "short_name": "Cozad",
      "types": [ "locality", "political" ]
    }, {
      "long_name": "Dawson",
      "short_name": "Dawson",
      "types": [ "administrative_area_level_2", "political" ]
    }, {
      "long_name": "Nebraska",
      "short_name": "NE",
      "types": [ "administrative_area_level_1", "political" ]
    }, {
      "long_name": "United States",
      "short_name": "US",
      "types": [ "country", "political" ]
    } ],
    "geometry": {
      "location": {
        "lat": 40.8621410,
        "lng": -99.9840820
      },
      "location_type": "APPROXIMATE",
      "viewport": {
        "southwest": {
          "lat": 40.8452616,
          "lng": -100.0160968
        },
        "northeast": {
          "lat": 40.8790161,
          "lng": -99.9520672
        }
      },
      "bounds": {
        "southwest": {
          "lat": 40.8450799,
          "lng": -100.0145090
        },
        "northeast": {
          "lat": 40.8777490,
          "lng": -99.9671779
        }
      }
    }
  } ]
}
