{
  "status": "OK",
  "results": [ {
    "types": [ "locality", "political" ],
    "formatted_address": "Hastings, NE, USA",
    "address_components": [ {
      "long_name": "Hastings",
      "short_name": "Hastings",
      "types": [ "locality", "political" ]
    }, {
      "long_name": "Adams",
      "short_name": "Adams",
      "types": [ "administrative_area_level_2", "political" ]
    }, {
      "long_name": "Nebraska",
      "short_name": "NE",
      "types": [ "administrative_area_level_1", "political" ]
    }, {
      "long_name": "United States",
      "short_name": "US",
      "types": [ "country", "political" ]
    } ],
    "geometry": {
      "location": {
        "lat": 40.5892930,
        "lng": -98.3916890
      },
      "location_type": "APPROXIMATE",
      "viewport": {
        "southwest": {
          "lat": 40.5553912,
          "lng": -98.4557187
        },
        "northeast": {
          "lat": 40.6231776,
          "lng": -98.3276593
        }
      },
      "bounds": {
        "southwest": {
          "lat": 40.5613309,
          "lng": -98.4675429
        },
        "northeast": {
          "lat": 40.6446730,
          "lng": -98.3453720
        }
      }
    }
  } ]
}
