{
  "status": "OK",
  "results": [ {
    "types": [ "locality", "political" ],
    "formatted_address": "Lincoln, NE, USA",
    "address_components": [ {
      "long_name": "Lincoln",
      "short_name": "Lincoln",
      "types": [ "locality", "political" ]
    }, {
      "long_name": "Lancaster",
      "short_name": "Lancaster",
      "types": [ "administrative_area_level_2", "political" ]
    }, {
      "long_name": "Nebraska",
      "short_name": "NE",
      "types": [ "administrative_area_level_1", "political" ]
    }, {
      "long_name": "United States",
      "short_name": "US",
      "types": [ "country", "political" ]
    } ],
    "geometry": {
      "location": {
        "lat": 40.8068620,
        "lng": -96.6816790
      },
      "location_type": "APPROXIMATE",
      "viewport": {
        "southwest": {
          "lat": 40.7392623,
          "lng": -96.8097384
        },
        "northeast": {
          "lat": 40.8743930,
          "lng": -96.5536196
        }
      },
      "bounds": {
        "southwest": {
          "lat": 40.7112820,
          "lng": -96.8041499
        },
        "northeast": {
          "lat": 40.8934659,
          "lng": -96.5773069
        }
      }
    }
  } ]
}
