{
  "status": "OK",
  "results": [ {
    "types": [ "locality", "political" ],
    "formatted_address": "McCook, NE, USA",
    "address_components": [ {
      "long_name": "McCook",
      "short_name": "Mc Cook",
      "types": [ "locality", "political" ]
    }, {
      "long_name": "Red Willow",
      "short_name": "Red Willow",
      "types": [ "administrative_area_level_2", "political" ]
    }, {
      "long_name": "Nebraska",
      "short_name": "NE",
      "types": [ "administrative_area_level_1", "political" ]
    }, {
      "long_name": "United States",
      "short_name": "US",
      "types": [ "country", "political" ]
    } ],
    "geometry": {
      "location": {
        "lat": 40.2052280,
        "lng": -100.6261740
      },
      "location_type": "APPROXIMATE",
      "viewport": {
        "southwest": {
          "lat": 40.1881823,
          "lng": -100.6581888
        },
        "northeast": {
          "lat": 40.2222694,
          "lng": -100.5941592
        }
      },
      "bounds": {
        "southwest": {
          "lat": 40.1853369,
          "lng": -100.6622880
        },
        "northeast": {
          "lat": 40.2256850,
          "lng": -100.5778900
        }
      }
    }
  } ]
}
