{
  "status": "OK",
  "results": [ {
    "types": [ "locality", "political" ],
    "formatted_address": "Wahoo, NE, USA",
    "address_components": [ {
      "long_name": "Wahoo",
      "short_name": "Wahoo",
      "types": [ "locality", "political" ]
    }, {
      "long_name": "Saunders",
      "short_name": "Saunders",
      "types": [ "administrative_area_level_2", "political" ]
    }, {
      "long_name": "Nebraska",
      "short_name": "NE",
      "types": [ "administrative_area_level_1", "political" ]
    }, {
      "long_name": "United States",
      "short_name": "US",
      "types": [ "country", "political" ]
    } ],
    "geometry": {
      "location": {
        "lat": 41.2132920,
        "lng": -96.6190440
      },
      "location_type": "APPROXIMATE",
      "viewport": {
        "southwest": {
          "lat": 41.1965024,
          "lng": -96.6510588
        },
        "northeast": {
          "lat": 41.2300773,
          "lng": -96.5870292
        }
      },
      "bounds": {
        "southwest": {
          "lat": 41.1912529,
          "lng": -96.6361340
        },
        "northeast": {
          "lat": 41.2449410,
          "lng": -96.5892420
        }
      }
    }
  } ]
}
