{
  "status": "OK",
  "results": [ {
    "types": [ "locality", "political" ],
    "formatted_address": "Auburn, WA, USA",
    "address_components": [ {
      "long_name": "Auburn",
      "short_name": "Auburn",
      "types": [ "locality", "political" ]
    }, {
      "long_name": "King",
      "short_name": "King",
      "types": [ "administrative_area_level_2", "political" ]
    }, {
      "long_name": "Washington",
      "short_name": "WA",
      "types": [ "administrative_area_level_1", "political" ]
    }, {
      "long_name": "United States",
      "short_name": "US",
      "types": [ "country", "political" ]
    } ],
    "geometry": {
      "location": {
        "lat": 47.3073228,
        "lng": -122.2284532
      },
      "location_type": "APPROXIMATE",
      "viewport": {
        "southwest": {
          "lat": 47.2467613,
          "lng": -122.3565126
        },
        "northeast": {
          "lat": 47.3678149,
          "lng": -122.1003938
        }
      },
      "bounds": {
        "southwest": {
          "lat": 47.2371420,
          "lng": -122.2661490
        },
        "northeast": {
          "lat": 47.3538740,
          "lng": -122.1436360
        }
      }
    }
  } ]
}
