{
  "status": "OK",
  "results": [ {
    "types": [ "locality", "political" ],
    "formatted_address": "Bellevue, WA, USA",
    "address_components": [ {
      "long_name": "Bellevue",
      "short_name": "Bellevue",
      "types": [ "locality", "political" ]
    }, {
      "long_name": "East Seattle",
      "short_name": "East Seattle",
      "types": [ "administrative_area_level_3", "political" ]
    }, {
      "long_name": "King",
      "short_name": "King",
      "types": [ "administrative_area_level_2", "political" ]
    }, {
      "long_name": "Washington",
      "short_name": "WA",
      "types": [ "administrative_area_level_1", "political" ]
    }, {
      "long_name": "United States",
      "short_name": "US",
      "types": [ "country", "political" ]
    } ],
    "geometry": {
      "location": {
        "lat": 47.6103770,
        "lng": -122.2006786
      },
      "location_type": "APPROXIMATE",
      "viewport": {
        "southwest": {
          "lat": 47.5501634,
          "lng": -122.3287380
        },
        "northeast": {
          "lat": 47.6705213,
          "lng": -122.0726192
        }
      },
      "bounds": {
        "southwest": {
          "lat": 47.5344689,
          "lng": -122.2229310
        },
        "northeast": {
          "lat": 47.6608970,
          "lng": -122.0793320
        }
      }
    }
  } ]
}
