{
  "status": "OK",
  "results": [ {
    "types": [ "locality", "political" ],
    "formatted_address": "Brewster, WA, USA",
    "address_components": [ {
      "long_name": "Brewster",
      "short_name": "Brewster",
      "types": [ "locality", "political" ]
    }, {
      "long_name": "Brewster-Wakefield",
      "short_name": "Brewster-Wakefield",
      "types": [ "administrative_area_level_3", "political" ]
    }, {
      "long_name": "Okanogan",
      "short_name": "Okanogan",
      "types": [ "administrative_area_level_2", "political" ]
    }, {
      "long_name": "Washington",
      "short_name": "WA",
      "types": [ "administrative_area_level_1", "political" ]
    }, {
      "long_name": "United States",
      "short_name": "US",
      "types": [ "country", "political" ]
    } ],
    "geometry": {
      "location": {
        "lat": 48.0959784,
        "lng": -119.7806166
      },
      "location_type": "APPROXIMATE",
      "viewport": {
        "southwest": {
          "lat": 48.0661608,
          "lng": -119.8446463
        },
        "northeast": {
          "lat": 48.1257788,
          "lng": -119.7165869
        }
      },
      "bounds": {
        "southwest": {
          "lat": 48.0887389,
          "lng": -119.7928900
        },
        "northeast": {
          "lat": 48.1149689,
          "lng": -119.7111950
        }
      }
    }
  } ]
}
