{
  "status": "OK",
  "results": [ {
    "types": [ "locality", "political" ],
    "formatted_address": "Brier, WA, USA",
    "address_components": [ {
      "long_name": "Brier",
      "short_name": "Brier",
      "types": [ "locality", "political" ]
    }, {
      "long_name": "Edmonds",
      "short_name": "Edmonds",
      "types": [ "administrative_area_level_3", "political" ]
    }, {
      "long_name": "Snohomish",
      "short_name": "Snohomish",
      "types": [ "administrative_area_level_2", "political" ]
    }, {
      "long_name": "Washington",
      "short_name": "WA",
      "types": [ "administrative_area_level_1", "political" ]
    }, {
      "long_name": "United States",
      "short_name": "US",
      "types": [ "country", "political" ]
    } ],
    "geometry": {
      "location": {
        "lat": 47.7845419,
        "lng": -122.2742948
      },
      "location_type": "APPROXIMATE",
      "viewport": {
        "southwest": {
          "lat": 47.7695452,
          "lng": -122.3063096
        },
        "northeast": {
          "lat": 47.7995343,
          "lng": -122.2422800
        }
      },
      "bounds": {
        "southwest": {
          "lat": 47.7770189,
          "lng": -122.2871590
        },
        "northeast": {
          "lat": 47.8086640,
          "lng": -122.2552380
        }
      }
    }
  } ]
}
