{
  "status": "OK",
  "results": [ {
    "types": [ "locality", "political" ],
    "formatted_address": "Clyde Hill, WA, USA",
    "address_components": [ {
      "long_name": "Clyde Hill",
      "short_name": "Clyde Hill",
      "types": [ "locality", "political" ]
    }, {
      "long_name": "East Seattle",
      "short_name": "East Seattle",
      "types": [ "administrative_area_level_3", "political" ]
    }, {
      "long_name": "King",
      "short_name": "King",
      "types": [ "administrative_area_level_2", "political" ]
    }, {
      "long_name": "Washington",
      "short_name": "WA",
      "types": [ "administrative_area_level_1", "political" ]
    }, {
      "long_name": "United States",
      "short_name": "US",
      "types": [ "country", "political" ]
    } ],
    "geometry": {
      "location": {
        "lat": 47.6317656,
        "lng": -122.2179015
      },
      "location_type": "APPROXIMATE",
      "viewport": {
        "southwest": {
          "lat": 47.6242458,
          "lng": -122.2339089
        },
        "northeast": {
          "lat": 47.6392843,
          "lng": -122.2018941
        }
      },
      "bounds": {
        "southwest": {
          "lat": 47.6202350,
          "lng": -122.2280020
        },
        "northeast": {
          "lat": 47.6431050,
          "lng": -122.2096500
        }
      }
    }
  } ]
}
