{
  "status": "OK",
  "results": [ {
    "types": [ "locality", "political" ],
    "formatted_address": "College Place, WA, USA",
    "address_components": [ {
      "long_name": "College Place",
      "short_name": "College Place",
      "types": [ "locality", "political" ]
    }, {
      "long_name": "Walla Walla-College Place",
      "short_name": "Walla Walla-College Place",
      "types": [ "administrative_area_level_3", "political" ]
    }, {
      "long_name": "Walla Walla",
      "short_name": "Walla Walla",
      "types": [ "administrative_area_level_2", "political" ]
    }, {
      "long_name": "Washington",
      "short_name": "WA",
      "types": [ "administrative_area_level_1", "political" ]
    }, {
      "long_name": "United States",
      "short_name": "US",
      "types": [ "country", "political" ]
    } ],
    "geometry": {
      "location": {
        "lat": 46.0493026,
        "lng": -118.3883012
      },
      "location_type": "APPROXIMATE",
      "viewport": {
        "southwest": {
          "lat": 46.0338123,
          "lng": -118.4203160
        },
        "northeast": {
          "lat": 46.0647886,
          "lng": -118.3562864
        }
      },
      "bounds": {
        "southwest": {
          "lat": 46.0275050,
          "lng": -118.4211540
        },
        "northeast": {
          "lat": 46.0605030,
          "lng": -118.3629040
        }
      }
    }
  } ]
}
