{
  "status": "OK",
  "results": [ {
    "types": [ "locality", "political" ],
    "formatted_address": "Cosmopolis, WA, USA",
    "address_components": [ {
      "long_name": "Cosmopolis",
      "short_name": "Cosmopolis",
      "types": [ "locality", "political" ]
    }, {
      "long_name": "Aberdeen-Hoquiam",
      "short_name": "Aberdeen-Hoquiam",
      "types": [ "administrative_area_level_3", "political" ]
    }, {
      "long_name": "Grays Harbor",
      "short_name": "Grays Harbor",
      "types": [ "administrative_area_level_2", "political" ]
    }, {
      "long_name": "Washington",
      "short_name": "WA",
      "types": [ "administrative_area_level_1", "political" ]
    }, {
      "long_name": "United States",
      "short_name": "US",
      "types": [ "country", "political" ]
    } ],
    "geometry": {
      "location": {
        "lat": 46.9553719,
        "lng": -123.7737763
      },
      "location_type": "APPROXIMATE",
      "viewport": {
        "southwest": {
          "lat": 46.9477553,
          "lng": -123.7897837
        },
        "northeast": {
          "lat": 46.9629874,
          "lng": -123.7577689
        }
      },
      "bounds": {
        "southwest": {
          "lat": 46.9440029,
          "lng": -123.7896260
        },
        "northeast": {
          "lat": 46.9636500,
          "lng": -123.7520910
        }
      }
    }
  } ]
}
