{
  "status": "OK",
  "results": [ {
    "types": [ "locality", "political" ],
    "formatted_address": "Coulee Dam, WA, USA",
    "address_components": [ {
      "long_name": "Coulee Dam",
      "short_name": "Coulee Dam",
      "types": [ "locality", "political" ]
    }, {
      "long_name": "Okanogan",
      "short_name": "Okanogan",
      "types": [ "administrative_area_level_2", "political" ]
    }, {
      "long_name": "Washington",
      "short_name": "WA",
      "types": [ "administrative_area_level_1", "political" ]
    }, {
      "long_name": "United States",
      "short_name": "US",
      "types": [ "country", "political" ]
    } ],
    "geometry": {
      "location": {
        "lat": 47.9654304,
        "lng": -118.9761322
      },
      "location_type": "APPROXIMATE",
      "viewport": {
        "southwest": {
          "lat": 47.9579587,
          "lng": -118.9921396
        },
        "northeast": {
          "lat": 47.9729010,
          "lng": -118.9601248
        }
      },
      "bounds": {
        "southwest": {
          "lat": 47.9609499,
          "lng": -118.9958660
        },
        "northeast": {
          "lat": 47.9788510,
          "lng": -118.9621580
        }
      }
    }
  } ]
}
