{
  "status": "OK",
  "results": [ {
    "types": [ "locality", "political" ],
    "formatted_address": "Des Moines, WA, USA",
    "address_components": [ {
      "long_name": "Des Moines",
      "short_name": "Des Moines",
      "types": [ "locality", "political" ]
    }, {
      "long_name": "King",
      "short_name": "King",
      "types": [ "administrative_area_level_2", "political" ]
    }, {
      "long_name": "Washington",
      "short_name": "WA",
      "types": [ "administrative_area_level_1", "political" ]
    }, {
      "long_name": "United States",
      "short_name": "US",
      "types": [ "country", "political" ]
    } ],
    "geometry": {
      "location": {
        "lat": 47.4017661,
        "lng": -122.3242902
      },
      "location_type": "APPROXIMATE",
      "viewport": {
        "southwest": {
          "lat": 47.3715482,
          "lng": -122.3883199
        },
        "northeast": {
          "lat": 47.4319667,
          "lng": -122.2602605
        }
      },
      "bounds": {
        "southwest": {
          "lat": 47.3407089,
          "lng": -122.3358000
        },
        "northeast": {
          "lat": 47.4310939,
          "lng": -122.2910600
        }
      }
    }
  } ]
}
