{
  "status": "OK",
  "results": [ {
    "types": [ "locality", "political" ],
    "formatted_address": "Edmonds, WA, USA",
    "address_components": [ {
      "long_name": "Edmonds",
      "short_name": "Edmonds",
      "types": [ "locality", "political" ]
    }, {
      "long_name": "Snohomish",
      "short_name": "Snohomish",
      "types": [ "administrative_area_level_2", "political" ]
    }, {
      "long_name": "Washington",
      "short_name": "WA",
      "types": [ "administrative_area_level_1", "political" ]
    }, {
      "long_name": "United States",
      "short_name": "US",
      "types": [ "country", "political" ]
    } ],
    "geometry": {
      "location": {
        "lat": 47.8106521,
        "lng": -122.3773552
      },
      "location_type": "APPROXIMATE",
      "viewport": {
        "southwest": {
          "lat": 47.7806694,
          "lng": -122.4413849
        },
        "northeast": {
          "lat": 47.8406175,
          "lng": -122.3133255
        }
      },
      "bounds": {
        "southwest": {
          "lat": 47.7775950,
          "lng": -122.4343460
        },
        "northeast": {
          "lat": 47.8616169,
          "lng": -122.3195430
        }
      }
    }
  } ]
}
