{
  "status": "OK",
  "results": [ {
    "types": [ "locality", "political" ],
    "formatted_address": "Ellensburg, WA, USA",
    "address_components": [ {
      "long_name": "Ellensburg",
      "short_name": "Ellensburg",
      "types": [ "locality", "political" ]
    }, {
      "long_name": "Kittitas",
      "short_name": "Kittitas",
      "types": [ "administrative_area_level_2", "political" ]
    }, {
      "long_name": "Washington",
      "short_name": "WA",
      "types": [ "administrative_area_level_1", "political" ]
    }, {
      "long_name": "United States",
      "short_name": "US",
      "types": [ "country", "political" ]
    } ],
    "geometry": {
      "location": {
        "lat": 46.9965144,
        "lng": -120.5478474
      },
      "location_type": "APPROXIMATE",
      "viewport": {
        "southwest": {
          "lat": 46.9660648,
          "lng": -120.6118771
        },
        "northeast": {
          "lat": 47.0269466,
          "lng": -120.4838177
        }
      },
      "bounds": {
        "southwest": {
          "lat": 46.9669260,
          "lng": -120.5949800
        },
        "northeast": {
          "lat": 47.0292610,
          "lng": -120.5095680
        }
      }
    }
  } ]
}
