{
  "status": "OK",
  "results": [ {
    "types": [ "locality", "political" ],
    "formatted_address": "Fife, WA, USA",
    "address_components": [ {
      "long_name": "Fife",
      "short_name": "Fife",
      "types": [ "locality", "political" ]
    }, {
      "long_name": "Pierce",
      "short_name": "Pierce",
      "types": [ "administrative_area_level_2", "political" ]
    }, {
      "long_name": "Washington",
      "short_name": "WA",
      "types": [ "administrative_area_level_1", "political" ]
    }, {
      "long_name": "United States",
      "short_name": "US",
      "types": [ "country", "political" ]
    } ],
    "geometry": {
      "location": {
        "lat": 47.2392665,
        "lng": -122.3570664
      },
      "location_type": "APPROXIMATE",
      "viewport": {
        "southwest": {
          "lat": 47.2241132,
          "lng": -122.3890812
        },
        "northeast": {
          "lat": 47.2544155,
          "lng": -122.3250516
        }
      },
      "bounds": {
        "southwest": {
          "lat": 47.2071970,
          "lng": -122.3987430
        },
        "northeast": {
          "lat": 47.2563249,
          "lng": -122.3204130
        }
      }
    }
  } ]
}
