{
  "status": "OK",
  "results": [ {
    "types": [ "locality", "political" ],
    "formatted_address": "Gig Harbor, WA, USA",
    "address_components": [ {
      "long_name": "Gig Harbor",
      "short_name": "Gig Harbor",
      "types": [ "locality", "political" ]
    }, {
      "long_name": "Gig Harbor Peninsula",
      "short_name": "Gig Harbor Peninsula",
      "types": [ "administrative_area_level_3", "political" ]
    }, {
      "long_name": "Pierce",
      "short_name": "Pierce",
      "types": [ "administrative_area_level_2", "political" ]
    }, {
      "long_name": "Washington",
      "short_name": "WA",
      "types": [ "administrative_area_level_1", "political" ]
    }, {
      "long_name": "United States",
      "short_name": "US",
      "types": [ "country", "political" ]
    } ],
    "geometry": {
      "location": {
        "lat": 47.3292640,
        "lng": -122.5801293
      },
      "location_type": "APPROXIMATE",
      "viewport": {
        "southwest": {
          "lat": 47.2990045,
          "lng": -122.6441590
        },
        "northeast": {
          "lat": 47.3595062,
          "lng": -122.5160996
        }
      },
      "bounds": {
        "southwest": {
          "lat": 47.2907669,
          "lng": -122.6183920
        },
        "northeast": {
          "lat": 47.3669710,
          "lng": -122.5692280
        }
      }
    }
  } ]
}
