{
  "status": "OK",
  "results": [ {
    "types": [ "locality", "political" ],
    "formatted_address": "Grand Coulee, WA, USA",
    "address_components": [ {
      "long_name": "Grand Coulee",
      "short_name": "Grand Coulee",
      "types": [ "locality", "political" ]
    }, {
      "long_name": "Grant",
      "short_name": "Grant",
      "types": [ "administrative_area_level_2", "political" ]
    }, {
      "long_name": "Washington",
      "short_name": "WA",
      "types": [ "administrative_area_level_1", "political" ]
    }, {
      "long_name": "United States",
      "short_name": "US",
      "types": [ "country", "political" ]
    } ],
    "geometry": {
      "location": {
        "lat": 47.9415408,
        "lng": -119.0033548
      },
      "location_type": "APPROXIMATE",
      "viewport": {
        "southwest": {
          "lat": 47.9340657,
          "lng": -119.0193622
        },
        "northeast": {
          "lat": 47.9490149,
          "lng": -118.9873474
        }
      },
      "bounds": {
        "southwest": {
          "lat": 47.9313189,
          "lng": -119.0202270
        },
        "northeast": {
          "lat": 47.9511020,
          "lng": -118.9845080
        }
      }
    }
  } ]
}
