{
  "status": "OK",
  "results": [ {
    "types": [ "locality", "political" ],
    "formatted_address": "Kalama, WA, USA",
    "address_components": [ {
      "long_name": "Kalama",
      "short_name": "Kalama",
      "types": [ "locality", "political" ]
    }, {
      "long_name": "Cowlitz",
      "short_name": "Cowlitz",
      "types": [ "administrative_area_level_2", "political" ]
    }, {
      "long_name": "Washington",
      "short_name": "WA",
      "types": [ "administrative_area_level_1", "political" ]
    }, {
      "long_name": "United States",
      "short_name": "US",
      "types": [ "country", "political" ]
    } ],
    "geometry": {
      "location": {
        "lat": 46.0084472,
        "lng": -122.8445509
      },
      "location_type": "APPROXIMATE",
      "viewport": {
        "southwest": {
          "lat": 45.9929454,
          "lng": -122.8765657
        },
        "northeast": {
          "lat": 46.0239446,
          "lng": -122.8125361
        }
      },
      "bounds": {
        "southwest": {
          "lat": 45.9827189,
          "lng": -122.8616550
        },
        "northeast": {
          "lat": 46.0224160,
          "lng": -122.8028060
        }
      }
    }
  } ]
}
