{
  "status": "OK",
  "results": [ {
    "types": [ "locality", "political" ],
    "formatted_address": "Maple Valley, WA, USA",
    "address_components": [ {
      "long_name": "Maple Valley",
      "short_name": "Maple Valley",
      "types": [ "locality", "political" ]
    }, {
      "long_name": "King",
      "short_name": "King",
      "types": [ "administrative_area_level_2", "political" ]
    }, {
      "long_name": "Washington",
      "short_name": "WA",
      "types": [ "administrative_area_level_1", "political" ]
    }, {
      "long_name": "United States",
      "short_name": "US",
      "types": [ "country", "political" ]
    } ],
    "geometry": {
      "location": {
        "lat": 47.3661111,
        "lng": -122.0447222
      },
      "location_type": "APPROXIMATE",
      "viewport": {
        "southwest": {
          "lat": 47.3509941,
          "lng": -122.0767370
        },
        "northeast": {
          "lat": 47.3812238,
          "lng": -122.0127074
        }
      },
      "bounds": {
        "southwest": {
          "lat": 47.3434589,
          "lng": -122.0649090
        },
        "northeast": {
          "lat": 47.3980789,
          "lng": -122.0160360
        }
      }
    }
  } ]
}
