{
  "status": "OK",
  "results": [ {
    "types": [ "locality", "political" ],
    "formatted_address": "Milton, WA, USA",
    "address_components": [ {
      "long_name": "Milton",
      "short_name": "Milton",
      "types": [ "locality", "political" ]
    }, {
      "long_name": "Pierce",
      "short_name": "Pierce",
      "types": [ "administrative_area_level_2", "political" ]
    }, {
      "long_name": "Washington",
      "short_name": "WA",
      "types": [ "administrative_area_level_1", "political" ]
    }, {
      "long_name": "United States",
      "short_name": "US",
      "types": [ "country", "political" ]
    } ],
    "geometry": {
      "location": {
        "lat": 47.2481558,
        "lng": -122.3128990
      },
      "location_type": "APPROXIMATE",
      "viewport": {
        "southwest": {
          "lat": 47.2330050,
          "lng": -122.3449138
        },
        "northeast": {
          "lat": 47.2633023,
          "lng": -122.2808842
        }
      },
      "bounds": {
        "southwest": {
          "lat": 47.2375890,
          "lng": -122.3374840
        },
        "northeast": {
          "lat": 47.2646880,
          "lng": -122.2890570
        }
      }
    }
  } ]
}
