{
  "status": "OK",
  "results": [ {
    "types": [ "locality", "political" ],
    "formatted_address": "Moxee, WA, USA",
    "address_components": [ {
      "long_name": "Moxee",
      "short_name": "Moxee",
      "types": [ "locality", "political" ]
    }, {
      "long_name": "Yakima",
      "short_name": "Yakima",
      "types": [ "administrative_area_level_2", "political" ]
    }, {
      "long_name": "Washington",
      "short_name": "WA",
      "types": [ "administrative_area_level_1", "political" ]
    }, {
      "long_name": "United States",
      "short_name": "US",
      "types": [ "country", "political" ]
    } ],
    "geometry": {
      "location": {
        "lat": 46.5634030,
        "lng": -120.3987670
      },
      "location_type": "APPROXIMATE",
      "viewport": {
        "southwest": {
          "lat": 46.5480574,
          "lng": -120.4307818
        },
        "northeast": {
          "lat": 46.5787442,
          "lng": -120.3667522
        }
      },
      "bounds": {
        "southwest": {
          "lat": 46.5494489,
          "lng": -120.4227370
        },
        "northeast": {
          "lat": 46.5772489,
          "lng": -120.3749460
        }
      }
    }
  } ]
}
