{
  "status": "OK",
  "results": [ {
    "types": [ "locality", "political" ],
    "formatted_address": "Napavine, WA, USA",
    "address_components": [ {
      "long_name": "Napavine",
      "short_name": "Napavine",
      "types": [ "locality", "political" ]
    }, {
      "long_name": "Lewis",
      "short_name": "Lewis",
      "types": [ "administrative_area_level_2", "political" ]
    }, {
      "long_name": "Washington",
      "short_name": "WA",
      "types": [ "administrative_area_level_1", "political" ]
    }, {
      "long_name": "United States",
      "short_name": "US",
      "types": [ "country", "political" ]
    } ],
    "geometry": {
      "location": {
        "lat": 46.5745496,
        "lng": -122.9081782
      },
      "location_type": "APPROXIMATE",
      "viewport": {
        "southwest": {
          "lat": 46.5592072,
          "lng": -122.9401930
        },
        "northeast": {
          "lat": 46.5898877,
          "lng": -122.8761634
        }
      },
      "bounds": {
        "southwest": {
          "lat": 46.5676119,
          "lng": -122.9228270
        },
        "northeast": {
          "lat": 46.6102909,
          "lng": -122.8807650
        }
      }
    }
  } ]
}
