{
  "status": "OK",
  "results": [ {
    "types": [ "locality", "political" ],
    "formatted_address": "North Bend, WA, USA",
    "address_components": [ {
      "long_name": "North Bend",
      "short_name": "North Bend",
      "types": [ "locality", "political" ]
    }, {
      "long_name": "King",
      "short_name": "King",
      "types": [ "administrative_area_level_2", "political" ]
    }, {
      "long_name": "Washington",
      "short_name": "WA",
      "types": [ "administrative_area_level_1", "political" ]
    }, {
      "long_name": "United States",
      "short_name": "US",
      "types": [ "country", "political" ]
    } ],
    "geometry": {
      "location": {
        "lat": 47.4956579,
        "lng": -121.7867775
      },
      "location_type": "APPROXIMATE",
      "viewport": {
        "southwest": {
          "lat": 47.4805780,
          "lng": -121.8187923
        },
        "northeast": {
          "lat": 47.5107334,
          "lng": -121.7547627
        }
      },
      "bounds": {
        "southwest": {
          "lat": 47.4789819,
          "lng": -121.8109870
        },
        "northeast": {
          "lat": 47.5127449,
          "lng": -121.7636830
        }
      }
    }
  } ]
}
