{
  "status": "OK",
  "results": [ {
    "types": [ "locality", "political" ],
    "formatted_address": "Oak Harbor, WA, USA",
    "address_components": [ {
      "long_name": "Oak Harbor",
      "short_name": "Oak Harbor",
      "types": [ "locality", "political" ]
    }, {
      "long_name": "Island",
      "short_name": "Island",
      "types": [ "administrative_area_level_2", "political" ]
    }, {
      "long_name": "Washington",
      "short_name": "WA",
      "types": [ "administrative_area_level_1", "political" ]
    }, {
      "long_name": "United States",
      "short_name": "US",
      "types": [ "country", "political" ]
    } ],
    "geometry": {
      "location": {
        "lat": 48.2931559,
        "lng": -122.6432245
      },
      "location_type": "APPROXIMATE",
      "viewport": {
        "southwest": {
          "lat": 48.2634528,
          "lng": -122.7072542
        },
        "northeast": {
          "lat": 48.3228418,
          "lng": -122.5791948
        }
      },
      "bounds": {
        "southwest": {
          "lat": 48.2676270,
          "lng": -122.7002390
        },
        "northeast": {
          "lat": 48.3257080,
          "lng": -122.5556880
        }
      }
    }
  } ]
}
