{
  "status": "OK",
  "results": [ {
    "types": [ "locality", "political" ],
    "formatted_address": "Ocean Shores, WA, USA",
    "address_components": [ {
      "long_name": "Ocean Shores",
      "short_name": "Ocean Shores",
      "types": [ "locality", "political" ]
    }, {
      "long_name": "Grays Harbor",
      "short_name": "Grays Harbor",
      "types": [ "administrative_area_level_2", "political" ]
    }, {
      "long_name": "Washington",
      "short_name": "WA",
      "types": [ "administrative_area_level_1", "political" ]
    }, {
      "long_name": "United States",
      "short_name": "US",
      "types": [ "country", "political" ]
    } ],
    "geometry": {
      "location": {
        "lat": 46.9736986,
        "lng": -124.1562852
      },
      "location_type": "APPROXIMATE",
      "viewport": {
        "southwest": {
          "lat": 46.9432360,
          "lng": -124.2203149
        },
        "northeast": {
          "lat": 47.0041438,
          "lng": -124.0922555
        }
      },
      "bounds": {
        "southwest": {
          "lat": 46.9263900,
          "lng": -124.1801780
        },
        "northeast": {
          "lat": 47.0175429,
          "lng": -124.1031570
        }
      }
    }
  } ]
}
