{
  "status": "OK",
  "results": [ {
    "types": [ "locality", "political" ],
    "formatted_address": "Pe Ell, WA, USA",
    "address_components": [ {
      "long_name": "Pe Ell",
      "short_name": "Pe Ell",
      "types": [ "locality", "political" ]
    }, {
      "long_name": "Lewis",
      "short_name": "Lewis",
      "types": [ "administrative_area_level_2", "political" ]
    }, {
      "long_name": "Washington",
      "short_name": "WA",
      "types": [ "administrative_area_level_1", "political" ]
    }, {
      "long_name": "United States",
      "short_name": "US",
      "types": [ "country", "political" ]
    } ],
    "geometry": {
      "location": {
        "lat": 46.5703798,
        "lng": -123.2973663
      },
      "location_type": "APPROXIMATE",
      "viewport": {
        "southwest": {
          "lat": 46.5627086,
          "lng": -123.3133737
        },
        "northeast": {
          "lat": 46.5780500,
          "lng": -123.2813589
        }
      },
      "bounds": {
        "southwest": {
          "lat": 46.5626690,
          "lng": -123.3050700
        },
        "northeast": {
          "lat": 46.5807910,
          "lng": -123.2897730
        }
      }
    }
  } ]
}
