{
  "status": "OK",
  "results": [ {
    "types": [ "locality", "political" ],
    "formatted_address": "Port Townsend, WA, USA",
    "address_components": [ {
      "long_name": "Port Townsend",
      "short_name": "Port Townsend",
      "types": [ "locality", "political" ]
    }, {
      "long_name": "Jefferson",
      "short_name": "Jefferson",
      "types": [ "administrative_area_level_2", "political" ]
    }, {
      "long_name": "Washington",
      "short_name": "WA",
      "types": [ "administrative_area_level_1", "political" ]
    }, {
      "long_name": "United States",
      "short_name": "US",
      "types": [ "country", "political" ]
    } ],
    "geometry": {
      "location": {
        "lat": 48.1170387,
        "lng": -122.7604472
      },
      "location_type": "APPROXIMATE",
      "viewport": {
        "southwest": {
          "lat": 48.0872333,
          "lng": -122.8244769
        },
        "northeast": {
          "lat": 48.1468269,
          "lng": -122.6964175
        }
      },
      "bounds": {
        "southwest": {
          "lat": 48.0977220,
          "lng": -122.8162870
        },
        "northeast": {
          "lat": 48.1463020,
          "lng": -122.7471350
        }
      }
    }
  } ]
}
