{
  "status": "OK",
  "results": [ {
    "types": [ "locality", "political" ],
    "formatted_address": "Pullman, WA, USA",
    "address_components": [ {
      "long_name": "Pullman",
      "short_name": "Pullman",
      "types": [ "locality", "political" ]
    }, {
      "long_name": "Whitman",
      "short_name": "Whitman",
      "types": [ "administrative_area_level_2", "political" ]
    }, {
      "long_name": "Washington",
      "short_name": "WA",
      "types": [ "administrative_area_level_1", "political" ]
    }, {
      "long_name": "United States",
      "short_name": "US",
      "types": [ "country", "political" ]
    } ],
    "geometry": {
      "location": {
        "lat": 46.7312745,
        "lng": -117.1796158
      },
      "location_type": "APPROXIMATE",
      "viewport": {
        "southwest": {
          "lat": 46.7006741,
          "lng": -117.2436455
        },
        "northeast": {
          "lat": 46.7618575,
          "lng": -117.1155861
        }
      },
      "bounds": {
        "southwest": {
          "lat": 46.7076170,
          "lng": -117.2116580
        },
        "northeast": {
          "lat": 46.7533410,
          "lng": -117.0928590
        }
      }
    }
  } ]
}
