{
  "status": "OK",
  "results": [ {
    "types": [ "locality", "political" ],
    "formatted_address": "Puyallup, WA, USA",
    "address_components": [ {
      "long_name": "Puyallup",
      "short_name": "Puyallup",
      "types": [ "locality", "political" ]
    }, {
      "long_name": "Pierce",
      "short_name": "Pierce",
      "types": [ "administrative_area_level_2", "political" ]
    }, {
      "long_name": "Washington",
      "short_name": "WA",
      "types": [ "administrative_area_level_1", "political" ]
    }, {
      "long_name": "United States",
      "short_name": "US",
      "types": [ "country", "political" ]
    } ],
    "geometry": {
      "location": {
        "lat": 47.1853785,
        "lng": -122.2928974
      },
      "location_type": "APPROXIMATE",
      "viewport": {
        "southwest": {
          "lat": 47.1550367,
          "lng": -122.3569271
        },
        "northeast": {
          "lat": 47.2157030,
          "lng": -122.2288677
        }
      },
      "bounds": {
        "southwest": {
          "lat": 47.1474580,
          "lng": -122.3377210
        },
        "northeast": {
          "lat": 47.2186449,
          "lng": -122.2348360
        }
      }
    }
  } ]
}
