{
  "status": "OK",
  "results": [ {
    "types": [ "locality", "political" ],
    "formatted_address": "Richland, WA, USA",
    "address_components": [ {
      "long_name": "Richland",
      "short_name": "Richland",
      "types": [ "locality", "political" ]
    }, {
      "long_name": "Benton",
      "short_name": "Benton",
      "types": [ "administrative_area_level_2", "political" ]
    }, {
      "long_name": "Washington",
      "short_name": "WA",
      "types": [ "administrative_area_level_1", "political" ]
    }, {
      "long_name": "United States",
      "short_name": "US",
      "types": [ "country", "political" ]
    } ],
    "geometry": {
      "location": {
        "lat": 46.2856907,
        "lng": -119.2844621
      },
      "location_type": "APPROXIMATE",
      "viewport": {
        "southwest": {
          "lat": 46.2239690,
          "lng": -119.4125215
        },
        "northeast": {
          "lat": 46.3473430,
          "lng": -119.1564027
        }
      },
      "bounds": {
        "southwest": {
          "lat": 46.1998559,
          "lng": -119.4002910
        },
        "northeast": {
          "lat": 46.3704569,
          "lng": -119.2113940
        }
      }
    }
  } ]
}
