{
  "status": "OK",
  "results": [ {
    "types": [ "locality", "political" ],
    "formatted_address": "Roy, WA, USA",
    "address_components": [ {
      "long_name": "Roy",
      "short_name": "Roy",
      "types": [ "locality", "political" ]
    }, {
      "long_name": "Pierce",
      "short_name": "Pierce",
      "types": [ "administrative_area_level_2", "political" ]
    }, {
      "long_name": "Washington",
      "short_name": "WA",
      "types": [ "administrative_area_level_1", "political" ]
    }, {
      "long_name": "United States",
      "short_name": "US",
      "types": [ "country", "political" ]
    } ],
    "geometry": {
      "location": {
        "lat": 47.0042643,
        "lng": -122.5398460
      },
      "location_type": "APPROXIMATE",
      "viewport": {
        "southwest": {
          "lat": 46.9966546,
          "lng": -122.5558534
        },
        "northeast": {
          "lat": 47.0118729,
          "lng": -122.5238386
        }
      },
      "bounds": {
        "southwest": {
          "lat": 46.9954500,
          "lng": -122.5529410
        },
        "northeast": {
          "lat": 47.0076640,
          "lng": -122.5336790
        }
      }
    }
  } ]
}
