{
  "status": "OK",
  "results": [ {
    "types": [ "locality", "political" ],
    "formatted_address": "Sammamish, WA, USA",
    "address_components": [ {
      "long_name": "Sammamish",
      "short_name": "Sammamish",
      "types": [ "locality", "political" ]
    }, {
      "long_name": "King",
      "short_name": "King",
      "types": [ "administrative_area_level_2", "political" ]
    }, {
      "long_name": "Washington",
      "short_name": "WA",
      "types": [ "administrative_area_level_1", "political" ]
    }, {
      "long_name": "United States",
      "short_name": "US",
      "types": [ "country", "political" ]
    } ],
    "geometry": {
      "location": {
        "lat": 47.6417664,
        "lng": -122.0803998
      },
      "location_type": "APPROXIMATE",
      "viewport": {
        "southwest": {
          "lat": 47.5815890,
          "lng": -122.2084592
        },
        "northeast": {
          "lat": 47.7018746,
          "lng": -121.9523404
        }
      },
      "bounds": {
        "southwest": {
          "lat": 47.5586149,
          "lng": -122.0919330
        },
        "northeast": {
          "lat": 47.6574079,
          "lng": -121.9704170
        }
      }
    }
  } ]
}
