{
  "status": "OK",
  "results": [ {
    "types": [ "locality", "political" ],
    "formatted_address": "Seattle, WA, USA",
    "address_components": [ {
      "long_name": "Seattle",
      "short_name": "Seattle",
      "types": [ "locality", "political" ]
    }, {
      "long_name": "King",
      "short_name": "King",
      "types": [ "administrative_area_level_2", "political" ]
    }, {
      "long_name": "Washington",
      "short_name": "WA",
      "types": [ "administrative_area_level_1", "political" ]
    }, {
      "long_name": "United States",
      "short_name": "US",
      "types": [ "country", "political" ]
    } ],
    "geometry": {
      "location": {
        "lat": 47.6062095,
        "lng": -122.3320708
      },
      "location_type": "APPROXIMATE",
      "viewport": {
        "southwest": {
          "lat": 47.4857035,
          "lng": -122.5881896
        },
        "northeast": {
          "lat": 47.7264385,
          "lng": -122.0759520
        }
      },
      "bounds": {
        "southwest": {
          "lat": 47.4919120,
          "lng": -122.4596960
        },
        "northeast": {
          "lat": 47.7341450,
          "lng": -122.2244330
        }
      }
    }
  } ]
}
