{
  "status": "OK",
  "results": [ {
    "types": [ "locality", "political" ],
    "formatted_address": "Sequim, WA, USA",
    "address_components": [ {
      "long_name": "Sequim",
      "short_name": "Sequim",
      "types": [ "locality", "political" ]
    }, {
      "long_name": "Clallam",
      "short_name": "Clallam",
      "types": [ "administrative_area_level_2", "political" ]
    }, {
      "long_name": "Washington",
      "short_name": "WA",
      "types": [ "administrative_area_level_1", "political" ]
    }, {
      "long_name": "United States",
      "short_name": "US",
      "types": [ "country", "political" ]
    } ],
    "geometry": {
      "location": {
        "lat": 48.0795365,
        "lng": -123.1018437
      },
      "location_type": "APPROXIMATE",
      "viewport": {
        "southwest": {
          "lat": 48.0497093,
          "lng": -123.1658734
        },
        "northeast": {
          "lat": 48.1093464,
          "lng": -123.0378140
        }
      },
      "bounds": {
        "southwest": {
          "lat": 48.0546800,
          "lng": -123.1410550
        },
        "northeast": {
          "lat": 48.0999220,
          "lng": -123.0401960
        }
      }
    }
  } ]
}
