{
  "status": "OK",
  "results": [ {
    "types": [ "locality", "political" ],
    "formatted_address": "Twisp, WA, USA",
    "address_components": [ {
      "long_name": "Twisp",
      "short_name": "Twisp",
      "types": [ "locality", "political" ]
    }, {
      "long_name": "Okanogan",
      "short_name": "Okanogan",
      "types": [ "administrative_area_level_2", "political" ]
    }, {
      "long_name": "Washington",
      "short_name": "WA",
      "types": [ "administrative_area_level_1", "political" ]
    }, {
      "long_name": "United States",
      "short_name": "US",
      "types": [ "country", "political" ]
    } ],
    "geometry": {
      "location": {
        "lat": 48.3634784,
        "lng": -120.1223030
      },
      "location_type": "APPROXIMATE",
      "viewport": {
        "southwest": {
          "lat": 48.3486494,
          "lng": -120.1543178
        },
        "northeast": {
          "lat": 48.3783030,
          "lng": -120.0902882
        }
      },
      "bounds": {
        "southwest": {
          "lat": 48.3486360,
          "lng": -120.1335610
        },
        "northeast": {
          "lat": 48.3743360,
          "lng": -120.0848750
        }
      }
    }
  } ]
}
