{
  "status": "OK",
  "results": [ {
    "types": [ "locality", "political" ],
    "formatted_address": "Union Gap, WA, USA",
    "address_components": [ {
      "long_name": "Union Gap",
      "short_name": "Union Gap",
      "types": [ "locality", "political" ]
    }, {
      "long_name": "Yakima",
      "short_name": "Yakima",
      "types": [ "administrative_area_level_2", "political" ]
    }, {
      "long_name": "Washington",
      "short_name": "WA",
      "types": [ "administrative_area_level_1", "political" ]
    }, {
      "long_name": "United States",
      "short_name": "US",
      "types": [ "country", "political" ]
    } ],
    "geometry": {
      "location": {
        "lat": 46.5573492,
        "lng": -120.4750638
      },
      "location_type": "APPROXIMATE",
      "viewport": {
        "southwest": {
          "lat": 46.5266503,
          "lng": -120.5390935
        },
        "northeast": {
          "lat": 46.5880307,
          "lng": -120.4110341
        }
      },
      "bounds": {
        "southwest": {
          "lat": 46.5323799,
          "lng": -120.5304760
        },
        "northeast": {
          "lat": 46.5777490,
          "lng": -120.4642800
        }
      }
    }
  } ]
}
