{
  "status": "OK",
  "results": [ {
    "types": [ "locality", "political" ],
    "formatted_address": "Vader, WA, USA",
    "address_components": [ {
      "long_name": "Vader",
      "short_name": "Vader",
      "types": [ "locality", "political" ]
    }, {
      "long_name": "Lewis",
      "short_name": "Lewis",
      "types": [ "administrative_area_level_2", "political" ]
    }, {
      "long_name": "Washington",
      "short_name": "WA",
      "types": [ "administrative_area_level_1", "political" ]
    }, {
      "long_name": "United States",
      "short_name": "US",
      "types": [ "country", "political" ]
    } ],
    "geometry": {
      "location": {
        "lat": 46.4026081,
        "lng": -122.9603966
      },
      "location_type": "APPROXIMATE",
      "viewport": {
        "southwest": {
          "lat": 46.3949132,
          "lng": -122.9764040
        },
        "northeast": {
          "lat": 46.4103020,
          "lng": -122.9443892
        }
      },
      "bounds": {
        "southwest": {
          "lat": 46.3950020,
          "lng": -122.9664120
        },
        "northeast": {
          "lat": 46.4128300,
          "lng": -122.9454430
        }
      }
    }
  } ]
}
