{
  "status": "OK",
  "results": [ {
    "types": [ "locality", "political" ],
    "formatted_address": "Woodinville, WA, USA",
    "address_components": [ {
      "long_name": "Woodinville",
      "short_name": "Woodinville",
      "types": [ "locality", "political" ]
    }, {
      "long_name": "King",
      "short_name": "King",
      "types": [ "administrative_area_level_2", "political" ]
    }, {
      "long_name": "Washington",
      "short_name": "WA",
      "types": [ "administrative_area_level_1", "political" ]
    }, {
      "long_name": "United States",
      "short_name": "US",
      "types": [ "country", "political" ]
    } ],
    "geometry": {
      "location": {
        "lat": 47.7542651,
        "lng": -122.1634582
      },
      "location_type": "APPROXIMATE",
      "viewport": {
        "southwest": {
          "lat": 47.7242499,
          "lng": -122.2274879
        },
        "northeast": {
          "lat": 47.7842630,
          "lng": -122.0994285
        }
      },
      "bounds": {
        "southwest": {
          "lat": 47.7248680,
          "lng": -122.1757910
        },
        "northeast": {
          "lat": 47.7763220,
          "lng": -122.1107800
        }
      }
    }
  } ]
}
