{
  "status": "OK",
  "results": [ {
    "types": [ "locality", "political" ],
    "formatted_address": "Zillah, WA, USA",
    "address_components": [ {
      "long_name": "Zillah",
      "short_name": "Zillah",
      "types": [ "locality", "political" ]
    }, {
      "long_name": "Yakima",
      "short_name": "Yakima",
      "types": [ "administrative_area_level_2", "political" ]
    }, {
      "long_name": "Washington",
      "short_name": "WA",
      "types": [ "administrative_area_level_1", "political" ]
    }, {
      "long_name": "United States",
      "short_name": "US",
      "types": [ "country", "political" ]
    } ],
    "geometry": {
      "location": {
        "lat": 46.4020734,
        "lng": -120.2619988
      },
      "location_type": "APPROXIMATE",
      "viewport": {
        "southwest": {
          "lat": 46.3866823,
          "lng": -120.2940136
        },
        "northeast": {
          "lat": 46.4174602,
          "lng": -120.2299840
        }
      },
      "bounds": {
        "southwest": {
          "lat": 46.3949120,
          "lng": -120.3141310
        },
        "northeast": {
          "lat": 46.4252860,
          "lng": -120.2430140
        }
      }
    }
  } ]
}
