{
  "status": "OK",
  "results": [ {
    "types": [ "locality", "political" ],
    "formatted_address": "Abilene, KS, USA",
    "address_components": [ {
      "long_name": "Abilene",
      "short_name": "Abilene",
      "types": [ "locality", "political" ]
    }, {
      "long_name": "Dickinson",
      "short_name": "Dickinson",
      "types": [ "administrative_area_level_2", "political" ]
    }, {
      "long_name": "Kansas",
      "short_name": "KS",
      "types": [ "administrative_area_level_1", "political" ]
    }, {
      "long_name": "United States",
      "short_name": "US",
      "types": [ "country", "political" ]
    } ],
    "geometry": {
      "location": {
        "lat": 38.9172216,
        "lng": -97.2139094
      },
      "location_type": "APPROXIMATE",
      "viewport": {
        "southwest": {
          "lat": 38.8824870,
          "lng": -97.2779391
        },
        "northeast": {
          "lat": 38.9519392,
          "lng": -97.1498797
        }
      },
      "bounds": {
        "southwest": {
          "lat": 38.8960090,
          "lng": -97.2635059
        },
        "northeast": {
          "lat": 38.9480570,
          "lng": -97.1996169
        }
      }
    }
  } ]
}
