{
  "status": "OK",
  "results": [ {
    "types": [ "locality", "political" ],
    "formatted_address": "Anthony, KS, USA",
    "address_components": [ {
      "long_name": "Anthony",
      "short_name": "Anthony",
      "types": [ "locality", "political" ]
    }, {
      "long_name": "Harper",
      "short_name": "Harper",
      "types": [ "administrative_area_level_2", "political" ]
    }, {
      "long_name": "Kansas",
      "short_name": "KS",
      "types": [ "administrative_area_level_1", "political" ]
    }, {
      "long_name": "United States",
      "short_name": "US",
      "types": [ "country", "political" ]
    } ],
    "geometry": {
      "location": {
        "lat": 37.1533554,
        "lng": -98.0311727
      },
      "location_type": "APPROXIMATE",
      "viewport": {
        "southwest": {
          "lat": 37.1177744,
          "lng": -98.0952024
        },
        "northeast": {
          "lat": 37.1889197,
          "lng": -97.9671430
        }
      },
      "bounds": {
        "southwest": {
          "lat": 37.1195230,
          "lng": -98.0876030
        },
        "northeast": {
          "lat": 37.1955210,
          "lng": -97.9879759
        }
      }
    }
  } ]
}
