{
  "status": "OK",
  "results": [ {
    "types": [ "locality", "political" ],
    "formatted_address": "Atwood, KS, USA",
    "address_components": [ {
      "long_name": "Atwood",
      "short_name": "Atwood",
      "types": [ "locality", "political" ]
    }, {
      "long_name": "Rawlins",
      "short_name": "Rawlins",
      "types": [ "administrative_area_level_2", "political" ]
    }, {
      "long_name": "Kansas",
      "short_name": "KS",
      "types": [ "administrative_area_level_1", "political" ]
    }, {
      "long_name": "United States",
      "short_name": "US",
      "types": [ "country", "political" ]
    } ],
    "geometry": {
      "location": {
        "lat": 39.8066680,
        "lng": -101.0421012
      },
      "location_type": "APPROXIMATE",
      "viewport": {
        "southwest": {
          "lat": 39.7980958,
          "lng": -101.0581086
        },
        "northeast": {
          "lat": 39.8152391,
          "lng": -101.0260938
        }
      },
      "bounds": {
        "southwest": {
          "lat": 39.7989479,
          "lng": -101.0526770
        },
        "northeast": {
          "lat": 39.8249880,
          "lng": -101.0309510
        }
      }
    }
  } ]
}
