{
  "status": "OK",
  "results": [ {
    "types": [ "locality", "political" ],
    "formatted_address": "Basehor, KS, USA",
    "address_components": [ {
      "long_name": "Basehor",
      "short_name": "Basehor",
      "types": [ "locality", "political" ]
    }, {
      "long_name": "Leavenworth",
      "short_name": "Leavenworth",
      "types": [ "administrative_area_level_2", "political" ]
    }, {
      "long_name": "Kansas",
      "short_name": "KS",
      "types": [ "administrative_area_level_1", "political" ]
    }, {
      "long_name": "United States",
      "short_name": "US",
      "types": [ "country", "political" ]
    } ],
    "geometry": {
      "location": {
        "lat": 39.1416692,
        "lng": -94.9385762
      },
      "location_type": "APPROXIMATE",
      "viewport": {
        "southwest": {
          "lat": 39.1070447,
          "lng": -95.0026059
        },
        "northeast": {
          "lat": 39.1762767,
          "lng": -94.8745465
        }
      },
      "bounds": {
        "southwest": {
          "lat": 39.1017150,
          "lng": -94.9642760
        },
        "northeast": {
          "lat": 39.1723519,
          "lng": -94.9006989
        }
      }
    }
  } ]
}
