{
  "status": "OK",
  "results": [ {
    "types": [ "locality", "political" ],
    "formatted_address": "Baxter Springs, KS, USA",
    "address_components": [ {
      "long_name": "Baxter Springs",
      "short_name": "Baxter Springs",
      "types": [ "locality", "political" ]
    }, {
      "long_name": "Cherokee",
      "short_name": "Cherokee",
      "types": [ "administrative_area_level_2", "political" ]
    }, {
      "long_name": "Kansas",
      "short_name": "KS",
      "types": [ "administrative_area_level_1", "political" ]
    }, {
      "long_name": "United States",
      "short_name": "US",
      "types": [ "country", "political" ]
    } ],
    "geometry": {
      "location": {
        "lat": 37.0236759,
        "lng": -94.7355042
      },
      "location_type": "APPROXIMATE",
      "viewport": {
        "southwest": {
          "lat": 37.0058570,
          "lng": -94.7675190
        },
        "northeast": {
          "lat": 37.0414906,
          "lng": -94.7034894
        }
      },
      "bounds": {
        "southwest": {
          "lat": 36.9987069,
          "lng": -94.7545360
        },
        "northeast": {
          "lat": 37.0418770,
          "lng": -94.7156090
        }
      }
    }
  } ]
}
