{
  "status": "OK",
  "results": [ {
    "types": [ "locality", "political" ],
    "formatted_address": "Belle Plaine, KS, USA",
    "address_components": [ {
      "long_name": "Belle Plaine",
      "short_name": "Belle Plaine",
      "types": [ "locality", "political" ]
    }, {
      "long_name": "Sumner",
      "short_name": "Sumner",
      "types": [ "administrative_area_level_2", "political" ]
    }, {
      "long_name": "Kansas",
      "short_name": "KS",
      "types": [ "administrative_area_level_1", "political" ]
    }, {
      "long_name": "United States",
      "short_name": "US",
      "types": [ "country", "political" ]
    } ],
    "geometry": {
      "location": {
        "lat": 37.3939098,
        "lng": -97.2811550
      },
      "location_type": "APPROXIMATE",
      "viewport": {
        "southwest": {
          "lat": 37.3850445,
          "lng": -97.2971624
        },
        "northeast": {
          "lat": 37.4027741,
          "lng": -97.2651476
        }
      },
      "bounds": {
        "southwest": {
          "lat": 37.3776779,
          "lng": -97.2884880
        },
        "northeast": {
          "lat": 37.4068730,
          "lng": -97.2713830
        }
      }
    }
  } ]
}
