{
  "status": "OK",
  "results": [ {
    "types": [ "locality", "political" ],
    "formatted_address": "Bonner Springs, KS, USA",
    "address_components": [ {
      "long_name": "Bonner Springs",
      "short_name": "Bonner Springs",
      "types": [ "locality", "political" ]
    }, {
      "long_name": "Wyandotte",
      "short_name": "Wyandotte",
      "types": [ "administrative_area_level_2", "political" ]
    }, {
      "long_name": "Kansas",
      "short_name": "KS",
      "types": [ "administrative_area_level_1", "political" ]
    }, {
      "long_name": "United States",
      "short_name": "US",
      "types": [ "country", "political" ]
    } ],
    "geometry": {
      "location": {
        "lat": 39.0597260,
        "lng": -94.8835754
      },
      "location_type": "APPROXIMATE",
      "viewport": {
        "southwest": {
          "lat": 39.0250612,
          "lng": -94.9476051
        },
        "northeast": {
          "lat": 39.0943737,
          "lng": -94.8195457
        }
      },
      "bounds": {
        "southwest": {
          "lat": 39.0363050,
          "lng": -94.9215210
        },
        "northeast": {
          "lat": 39.1161789,
          "lng": -94.8343450
        }
      }
    }
  } ]
}
