{
  "status": "OK",
  "results": [ {
    "types": [ "locality", "political" ],
    "formatted_address": "Burns, KS, USA",
    "address_components": [ {
      "long_name": "Burns",
      "short_name": "Burns",
      "types": [ "locality", "political" ]
    }, {
      "long_name": "Milton",
      "short_name": "Milton",
      "types": [ "administrative_area_level_3", "political" ]
    }, {
      "long_name": "Marion",
      "short_name": "Marion",
      "types": [ "administrative_area_level_2", "political" ]
    }, {
      "long_name": "Kansas",
      "short_name": "KS",
      "types": [ "administrative_area_level_1", "political" ]
    }, {
      "long_name": "United States",
      "short_name": "US",
      "types": [ "country", "political" ]
    } ],
    "geometry": {
      "location": {
        "lat": 38.0902957,
        "lng": -96.8864144
      },
      "location_type": "APPROXIMATE",
      "viewport": {
        "southwest": {
          "lat": 37.5261047,
          "lng": -97.9108895
        },
        "northeast": {
          "lat": 38.6501655,
          "lng": -95.8619393
        }
      },
      "bounds": {
        "southwest": {
          "lat": 37.7934920,
          "lng": -97.0348860
        },
        "northeast": {
          "lat": 38.9395120,
          "lng": -96.6947480
        }
      }
    }
  } ]
}
