{
  "status": "OK",
  "results": [ {
    "types": [ "locality", "political" ],
    "formatted_address": "Chetopa, KS, USA",
    "address_components": [ {
      "long_name": "Chetopa",
      "short_name": "Chetopa",
      "types": [ "locality", "political" ]
    }, {
      "long_name": "Labette",
      "short_name": "Labette",
      "types": [ "administrative_area_level_2", "political" ]
    }, {
      "long_name": "Kansas",
      "short_name": "KS",
      "types": [ "administrative_area_level_1", "political" ]
    }, {
      "long_name": "United States",
      "short_name": "US",
      "types": [ "country", "political" ]
    } ],
    "geometry": {
      "location": {
        "lat": 37.0372916,
        "lng": -95.0899613
      },
      "location_type": "APPROXIMATE",
      "viewport": {
        "southwest": {
          "lat": 37.0283843,
          "lng": -95.1059687
        },
        "northeast": {
          "lat": 37.0461979,
          "lng": -95.0739539
        }
      },
      "bounds": {
        "southwest": {
          "lat": 37.0286169,
          "lng": -95.1077980
        },
        "northeast": {
          "lat": 37.0497109,
          "lng": -95.0736089
        }
      }
    }
  } ]
}
