{
  "status": "OK",
  "results": [ {
    "types": [ "locality", "political" ],
    "formatted_address": "Concordia, KS, USA",
    "address_components": [ {
      "long_name": "Concordia",
      "short_name": "Concordia",
      "types": [ "locality", "political" ]
    }, {
      "long_name": "Cloud",
      "short_name": "Cloud",
      "types": [ "administrative_area_level_2", "political" ]
    }, {
      "long_name": "Kansas",
      "short_name": "KS",
      "types": [ "administrative_area_level_1", "political" ]
    }, {
      "long_name": "United States",
      "short_name": "US",
      "types": [ "country", "political" ]
    } ],
    "geometry": {
      "location": {
        "lat": 39.5708354,
        "lng": -97.6625396
      },
      "location_type": "APPROXIMATE",
      "viewport": {
        "southwest": {
          "lat": 39.5536313,
          "lng": -97.6945544
        },
        "northeast": {
          "lat": 39.5880353,
          "lng": -97.6305248
        }
      },
      "bounds": {
        "southwest": {
          "lat": 39.5407900,
          "lng": -97.6826160
        },
        "northeast": {
          "lat": 39.5813190,
          "lng": -97.6252830
        }
      }
    }
  } ]
}
