{
  "status": "OK",
  "results": [ {
    "types": [ "locality", "political" ],
    "formatted_address": "Dodge City, KS, USA",
    "address_components": [ {
      "long_name": "Dodge City",
      "short_name": "Dodge City",
      "types": [ "locality", "political" ]
    }, {
      "long_name": "Ford",
      "short_name": "Ford",
      "types": [ "administrative_area_level_2", "political" ]
    }, {
      "long_name": "Kansas",
      "short_name": "KS",
      "types": [ "administrative_area_level_1", "political" ]
    }, {
      "long_name": "United States",
      "short_name": "US",
      "types": [ "country", "political" ]
    } ],
    "geometry": {
      "location": {
        "lat": 37.7527982,
        "lng": -100.0170787
      },
      "location_type": "APPROXIMATE",
      "viewport": {
        "southwest": {
          "lat": 37.7175011,
          "lng": -100.0811084
        },
        "northeast": {
          "lat": 37.7880785,
          "lng": -99.9530490
        }
      },
      "bounds": {
        "southwest": {
          "lat": 37.7249240,
          "lng": -100.0559619
        },
        "northeast": {
          "lat": 37.7947590,
          "lng": -99.9427650
        }
      }
    }
  } ]
}
