{
  "status": "OK",
  "results": [ {
    "types": [ "locality", "political" ],
    "formatted_address": "Ellinwood, KS, USA",
    "address_components": [ {
      "long_name": "Ellinwood",
      "short_name": "Ellinwood",
      "types": [ "locality", "political" ]
    }, {
      "long_name": "Barton",
      "short_name": "Barton",
      "types": [ "administrative_area_level_2", "political" ]
    }, {
      "long_name": "Kansas",
      "short_name": "KS",
      "types": [ "administrative_area_level_1", "political" ]
    }, {
      "long_name": "United States",
      "short_name": "US",
      "types": [ "country", "political" ]
    } ],
    "geometry": {
      "location": {
        "lat": 38.3555675,
        "lng": -98.5809106
      },
      "location_type": "APPROXIMATE",
      "viewport": {
        "southwest": {
          "lat": 38.3468172,
          "lng": -98.5969180
        },
        "northeast": {
          "lat": 38.3643168,
          "lng": -98.5649032
        }
      },
      "bounds": {
        "southwest": {
          "lat": 38.3473830,
          "lng": -98.6118889
        },
        "northeast": {
          "lat": 38.3658960,
          "lng": -98.5645730
        }
      }
    }
  } ]
}
