{
  "status": "OK",
  "results": [ {
    "types": [ "locality", "political" ],
    "formatted_address": "Emporia, KS, USA",
    "address_components": [ {
      "long_name": "Emporia",
      "short_name": "Emporia",
      "types": [ "locality", "political" ]
    }, {
      "long_name": "Lyon",
      "short_name": "Lyon",
      "types": [ "administrative_area_level_2", "political" ]
    }, {
      "long_name": "Kansas",
      "short_name": "KS",
      "types": [ "administrative_area_level_1", "political" ]
    }, {
      "long_name": "United States",
      "short_name": "US",
      "types": [ "country", "political" ]
    } ],
    "geometry": {
      "location": {
        "lat": 38.4039030,
        "lng": -96.1816626
      },
      "location_type": "APPROXIMATE",
      "viewport": {
        "southwest": {
          "lat": 38.3689187,
          "lng": -96.2456923
        },
        "northeast": {
          "lat": 38.4388704,
          "lng": -96.1176329
        }
      },
      "bounds": {
        "southwest": {
          "lat": 38.3179320,
          "lng": -96.2420609
        },
        "northeast": {
          "lat": 38.4407080,
          "lng": -96.1405250
        }
      }
    }
  } ]
}
