{
  "status": "OK",
  "results": [ {
    "types": [ "locality", "political" ],
    "formatted_address": "Holcomb, KS, USA",
    "address_components": [ {
      "long_name": "Holcomb",
      "short_name": "Holcomb",
      "types": [ "locality", "political" ]
    }, {
      "long_name": "Finney",
      "short_name": "Finney",
      "types": [ "administrative_area_level_2", "political" ]
    }, {
      "long_name": "Kansas",
      "short_name": "KS",
      "types": [ "administrative_area_level_1", "political" ]
    }, {
      "long_name": "United States",
      "short_name": "US",
      "types": [ "country", "political" ]
    } ],
    "geometry": {
      "location": {
        "lat": 37.9861353,
        "lng": -100.9893330
      },
      "location_type": "APPROXIMATE",
      "viewport": {
        "southwest": {
          "lat": 37.9773405,
          "lng": -101.0053404
        },
        "northeast": {
          "lat": 37.9949291,
          "lng": -100.9733256
        }
      },
      "bounds": {
        "southwest": {
          "lat": 37.9787290,
          "lng": -101.0001300
        },
        "northeast": {
          "lat": 38.0025819,
          "lng": -100.9701369
        }
      }
    }
  } ]
}
