{
  "status": "OK",
  "results": [ {
    "types": [ "locality", "political" ],
    "formatted_address": "Lansing, KS, USA",
    "address_components": [ {
      "long_name": "Lansing",
      "short_name": "Lansing",
      "types": [ "locality", "political" ]
    }, {
      "long_name": "Leavenworth",
      "short_name": "Leavenworth",
      "types": [ "administrative_area_level_2", "political" ]
    }, {
      "long_name": "Kansas",
      "short_name": "KS",
      "types": [ "administrative_area_level_1", "political" ]
    }, {
      "long_name": "United States",
      "short_name": "US",
      "types": [ "country", "political" ]
    } ],
    "geometry": {
      "location": {
        "lat": 39.2486126,
        "lng": -94.9002413
      },
      "location_type": "APPROXIMATE",
      "viewport": {
        "southwest": {
          "lat": 39.2140407,
          "lng": -94.9642710
        },
        "northeast": {
          "lat": 39.2831674,
          "lng": -94.8362116
        }
      },
      "bounds": {
        "southwest": {
          "lat": 39.2031560,
          "lng": -94.9658049
        },
        "northeast": {
          "lat": 39.2740809,
          "lng": -94.8265110
        }
      }
    }
  } ]
}
