{
  "status": "OK",
  "results": [ {
    "types": [ "locality", "political" ],
    "formatted_address": "Lebo, KS, USA",
    "address_components": [ {
      "long_name": "Lebo",
      "short_name": "Lebo",
      "types": [ "locality", "political" ]
    }, {
      "long_name": "Coffey",
      "short_name": "Coffey",
      "types": [ "administrative_area_level_2", "political" ]
    }, {
      "long_name": "Kansas",
      "short_name": "KS",
      "types": [ "administrative_area_level_1", "political" ]
    }, {
      "long_name": "United States",
      "short_name": "US",
      "types": [ "country", "political" ]
    } ],
    "geometry": {
      "location": {
        "lat": 38.4166818,
        "lng": -95.8530441
      },
      "location_type": "APPROXIMATE",
      "viewport": {
        "southwest": {
          "lat": 38.3991948,
          "lng": -95.8850589
        },
        "northeast": {
          "lat": 38.4341645,
          "lng": -95.8210293
        }
      },
      "bounds": {
        "southwest": {
          "lat": 38.4047410,
          "lng": -95.8916910
        },
        "northeast": {
          "lat": 38.4270370,
          "lng": -95.8483830
        }
      }
    }
  } ]
}
