{
  "status": "OK",
  "results": [ {
    "types": [ "locality", "political" ],
    "formatted_address": "Lenexa, KS, USA",
    "address_components": [ {
      "long_name": "Lenexa",
      "short_name": "Lenexa",
      "types": [ "locality", "political" ]
    }, {
      "long_name": "Johnson",
      "short_name": "Johnson",
      "types": [ "administrative_area_level_2", "political" ]
    }, {
      "long_name": "Kansas",
      "short_name": "KS",
      "types": [ "administrative_area_level_1", "political" ]
    }, {
      "long_name": "United States",
      "short_name": "US",
      "types": [ "country", "political" ]
    } ],
    "geometry": {
      "location": {
        "lat": 38.9536174,
        "lng": -94.7335709
      },
      "location_type": "APPROXIMATE",
      "viewport": {
        "southwest": {
          "lat": 38.8841669,
          "lng": -94.8616303
        },
        "northeast": {
          "lat": 39.0229999,
          "lng": -94.6055115
        }
      },
      "bounds": {
        "southwest": {
          "lat": 38.9150349,
          "lng": -94.9089620
        },
        "northeast": {
          "lat": 38.9929920,
          "lng": -94.7050029
        }
      }
    }
  } ]
}
