{
  "status": "OK",
  "results": [ {
    "types": [ "locality", "political" ],
    "formatted_address": "McLouth, KS 66054, USA",
    "address_components": [ {
      "long_name": "McLouth",
      "short_name": "McLouth",
      "types": [ "locality", "political" ]
    }, {
      "long_name": "Union",
      "short_name": "Union",
      "types": [ "administrative_area_level_3", "political" ]
    }, {
      "long_name": "Jefferson",
      "short_name": "Jefferson",
      "types": [ "administrative_area_level_2", "political" ]
    }, {
      "long_name": "Kansas",
      "short_name": "KS",
      "types": [ "administrative_area_level_1", "political" ]
    }, {
      "long_name": "United States",
      "short_name": "US",
      "types": [ "country", "political" ]
    }, {
      "long_name": "66054",
      "short_name": "66054",
      "types": [ "postal_code" ]
    } ],
    "geometry": {
      "location": {
        "lat": 39.1958332,
        "lng": -95.2083035
      },
      "location_type": "APPROXIMATE",
      "viewport": {
        "southwest": {
          "lat": 39.1871853,
          "lng": -95.2243109
        },
        "northeast": {
          "lat": 39.2044800,
          "lng": -95.1922961
        }
      },
      "bounds": {
        "southwest": {
          "lat": 39.1887479,
          "lng": -95.2152689
        },
        "northeast": {
          "lat": 39.2030710,
          "lng": -95.1995180
        }
      }
    }
  } ]
}
