{
  "status": "OK",
  "results": [ {
    "types": [ "locality", "political" ],
    "formatted_address": "Minneapolis, KS, USA",
    "address_components": [ {
      "long_name": "Minneapolis",
      "short_name": "Minneapolis",
      "types": [ "locality", "political" ]
    }, {
      "long_name": "Ottawa",
      "short_name": "Ottawa",
      "types": [ "administrative_area_level_2", "political" ]
    }, {
      "long_name": "Kansas",
      "short_name": "KS",
      "types": [ "administrative_area_level_1", "political" ]
    }, {
      "long_name": "United States",
      "short_name": "US",
      "types": [ "country", "political" ]
    } ],
    "geometry": {
      "location": {
        "lat": 39.1219448,
        "lng": -97.7067028
      },
      "location_type": "APPROXIMATE",
      "viewport": {
        "southwest": {
          "lat": 39.1046298,
          "lng": -97.7387176
        },
        "northeast": {
          "lat": 39.1392555,
          "lng": -97.6746880
        }
      },
      "bounds": {
        "southwest": {
          "lat": 39.1064099,
          "lng": -97.7248530
        },
        "northeast": {
          "lat": 39.1321580,
          "lng": -97.6783519
        }
      }
    }
  } ]
}
