{
  "status": "OK",
  "results": [ {
    "types": [ "locality", "political" ],
    "formatted_address": "Mission, KS, USA",
    "address_components": [ {
      "long_name": "Mission",
      "short_name": "Mission",
      "types": [ "locality", "political" ]
    }, {
      "long_name": "Johnson",
      "short_name": "Johnson",
      "types": [ "administrative_area_level_2", "political" ]
    }, {
      "long_name": "Kansas",
      "short_name": "KS",
      "types": [ "administrative_area_level_1", "political" ]
    }, {
      "long_name": "United States",
      "short_name": "US",
      "types": [ "country", "political" ]
    } ],
    "geometry": {
      "location": {
        "lat": 39.0277832,
        "lng": -94.6557914
      },
      "location_type": "APPROXIMATE",
      "viewport": {
        "southwest": {
          "lat": 39.0104451,
          "lng": -94.6878062
        },
        "northeast": {
          "lat": 39.0451170,
          "lng": -94.6237766
        }
      },
      "bounds": {
        "southwest": {
          "lat": 39.0076199,
          "lng": -94.6737850
        },
        "northeast": {
          "lat": 39.0440730,
          "lng": -94.6380389
        }
      }
    }
  } ]
}
