{
  "status": "OK",
  "results": [ {
    "types": [ "locality", "political" ],
    "formatted_address": "Moundridge, KS, USA",
    "address_components": [ {
      "long_name": "Moundridge",
      "short_name": "Moundridge",
      "types": [ "locality", "political" ]
    }, {
      "long_name": "McPherson",
      "short_name": "Mc Pherson",
      "types": [ "administrative_area_level_2", "political" ]
    }, {
      "long_name": "Kansas",
      "short_name": "KS",
      "types": [ "administrative_area_level_1", "political" ]
    }, {
      "long_name": "United States",
      "short_name": "US",
      "types": [ "country", "political" ]
    } ],
    "geometry": {
      "location": {
        "lat": 38.2030650,
        "lng": -97.5192065
      },
      "location_type": "APPROXIMATE",
      "viewport": {
        "southwest": {
          "lat": 38.1855265,
          "lng": -97.5512213
        },
        "northeast": {
          "lat": 38.2205993,
          "lng": -97.4871917
        }
      },
      "bounds": {
        "southwest": {
          "lat": 38.1844860,
          "lng": -97.5276810
        },
        "northeast": {
          "lat": 38.2175889,
          "lng": -97.5007249
        }
      }
    }
  } ]
}
