{
  "status": "OK",
  "results": [ {
    "types": [ "locality", "political" ],
    "formatted_address": "Oswego, KS, USA",
    "address_components": [ {
      "long_name": "Oswego",
      "short_name": "Oswego",
      "types": [ "locality", "political" ]
    }, {
      "long_name": "Labette",
      "short_name": "Labette",
      "types": [ "administrative_area_level_2", "political" ]
    }, {
      "long_name": "Kansas",
      "short_name": "KS",
      "types": [ "administrative_area_level_1", "political" ]
    }, {
      "long_name": "United States",
      "short_name": "US",
      "types": [ "country", "political" ]
    } ],
    "geometry": {
      "location": {
        "lat": 37.1675652,
        "lng": -95.1099645
      },
      "location_type": "APPROXIMATE",
      "viewport": {
        "southwest": {
          "lat": 37.1586732,
          "lng": -95.1259719
        },
        "northeast": {
          "lat": 37.1764562,
          "lng": -95.0939571
        }
      },
      "bounds": {
        "southwest": {
          "lat": 37.1557369,
          "lng": -95.1360430
        },
        "northeast": {
          "lat": 37.1778539,
          "lng": -95.0936450
        }
      }
    }
  } ]
}
