{
  "status": "OK",
  "results": [ {
    "types": [ "locality", "political" ],
    "formatted_address": "Saint Marys, KS, USA",
    "address_components": [ {
      "long_name": "Saint Marys",
      "short_name": "Saint Marys",
      "types": [ "locality", "political" ]
    }, {
      "long_name": "Pottawatomie",
      "short_name": "Pottawatomie",
      "types": [ "administrative_area_level_2", "political" ]
    }, {
      "long_name": "Kansas",
      "short_name": "KS",
      "types": [ "administrative_area_level_1", "political" ]
    }, {
      "long_name": "United States",
      "short_name": "US",
      "types": [ "country", "political" ]
    } ],
    "geometry": {
      "location": {
        "lat": 39.1941640,
        "lng": -96.0711041
      },
      "location_type": "APPROXIMATE",
      "viewport": {
        "southwest": {
          "lat": 39.1249496,
          "lng": -96.1991635
        },
        "northeast": {
          "lat": 39.2633103,
          "lng": -95.9430447
        }
      },
      "bounds": {
        "southwest": {
          "lat": 39.1265270,
          "lng": -96.1750060
        },
        "northeast": {
          "lat": 39.3189262,
          "lng": -95.9886700
        }
      }
    }
  } ]
}
