{
  "status": "OK",
  "results": [ {
    "types": [ "locality", "political" ],
    "formatted_address": "Scott City, KS, USA",
    "address_components": [ {
      "long_name": "Scott City",
      "short_name": "Scott City",
      "types": [ "locality", "political" ]
    }, {
      "long_name": "Scott",
      "short_name": "Scott",
      "types": [ "administrative_area_level_2", "political" ]
    }, {
      "long_name": "Kansas",
      "short_name": "KS",
      "types": [ "administrative_area_level_1", "political" ]
    }, {
      "long_name": "United States",
      "short_name": "US",
      "types": [ "country", "political" ]
    } ],
    "geometry": {
      "location": {
        "lat": 38.4825192,
        "lng": -100.9070949
      },
      "location_type": "APPROXIMATE",
      "viewport": {
        "southwest": {
          "lat": 38.4650482,
          "lng": -100.9391097
        },
        "northeast": {
          "lat": 38.4999860,
          "lng": -100.8750801
        }
      },
      "bounds": {
        "southwest": {
          "lat": 38.4639800,
          "lng": -100.9253839
        },
        "northeast": {
          "lat": 38.4930899,
          "lng": -100.8701279
        }
      }
    }
  } ]
}
