{
  "status": "OK",
  "results": [ {
    "types": [ "locality", "political" ],
    "formatted_address": "Seneca, KS, USA",
    "address_components": [ {
      "long_name": "Seneca",
      "short_name": "Seneca",
      "types": [ "locality", "political" ]
    }, {
      "long_name": "Nemaha",
      "short_name": "Nemaha",
      "types": [ "administrative_area_level_2", "political" ]
    }, {
      "long_name": "Kansas",
      "short_name": "KS",
      "types": [ "administrative_area_level_1", "political" ]
    }, {
      "long_name": "United States",
      "short_name": "US",
      "types": [ "country", "political" ]
    } ],
    "geometry": {
      "location": {
        "lat": 39.8341650,
        "lng": -96.0641676
      },
      "location_type": "APPROXIMATE",
      "viewport": {
        "southwest": {
          "lat": 39.8255962,
          "lng": -96.0801750
        },
        "northeast": {
          "lat": 39.8427327,
          "lng": -96.0481602
        }
      },
      "bounds": {
        "southwest": {
          "lat": 39.8249859,
          "lng": -96.0896490
        },
        "northeast": {
          "lat": 39.8484569,
          "lng": -96.0513249
        }
      }
    }
  } ]
}
