{
  "status": "OK",
  "results": [ {
    "types": [ "locality", "political" ],
    "formatted_address": "Wamego, KS, USA",
    "address_components": [ {
      "long_name": "Wamego",
      "short_name": "Wamego",
      "types": [ "locality", "political" ]
    }, {
      "long_name": "Pottawatomie",
      "short_name": "Pottawatomie",
      "types": [ "administrative_area_level_2", "political" ]
    }, {
      "long_name": "Kansas",
      "short_name": "KS",
      "types": [ "administrative_area_level_1", "political" ]
    }, {
      "long_name": "United States",
      "short_name": "US",
      "types": [ "country", "political" ]
    } ],
    "geometry": {
      "location": {
        "lat": 39.2019412,
        "lng": -96.3049975
      },
      "location_type": "APPROXIMATE",
      "viewport": {
        "southwest": {
          "lat": 39.1846459,
          "lng": -96.3370123
        },
        "northeast": {
          "lat": 39.2192322,
          "lng": -96.2729827
        }
      },
      "bounds": {
        "southwest": {
          "lat": 39.1927440,
          "lng": -96.3338730
        },
        "northeast": {
          "lat": 39.2172629,
          "lng": -96.2812290
        }
      }
    }
  } ]
}
