{
  "status": "OK",
  "results": [ {
    "types": [ "locality", "political" ],
    "formatted_address": "Wellington, KS, USA",
    "address_components": [ {
      "long_name": "Wellington",
      "short_name": "Wellington",
      "types": [ "locality", "political" ]
    }, {
      "long_name": "Sumner",
      "short_name": "Sumner",
      "types": [ "administrative_area_level_2", "political" ]
    }, {
      "long_name": "Kansas",
      "short_name": "KS",
      "types": [ "administrative_area_level_1", "political" ]
    }, {
      "long_name": "United States",
      "short_name": "US",
      "types": [ "country", "political" ]
    } ],
    "geometry": {
      "location": {
        "lat": 37.2653004,
        "lng": -97.3717118
      },
      "location_type": "APPROXIMATE",
      "viewport": {
        "southwest": {
          "lat": 37.1942271,
          "lng": -97.4997712
        },
        "northeast": {
          "lat": 37.3363067,
          "lng": -97.2436524
        }
      },
      "bounds": {
        "southwest": {
          "lat": 37.2000070,
          "lng": -97.5352379
        },
        "northeast": {
          "lat": 37.3384269,
          "lng": -97.3643000
        }
      }
    }
  } ]
}
