{
  "status": "OK",
  "results": [ {
    "types": [ "locality", "political" ],
    "formatted_address": "Yates Center, KS, USA",
    "address_components": [ {
      "long_name": "Yates Center",
      "short_name": "Yates Center",
      "types": [ "locality", "political" ]
    }, {
      "long_name": "Woodson",
      "short_name": "Woodson",
      "types": [ "administrative_area_level_2", "political" ]
    }, {
      "long_name": "Kansas",
      "short_name": "KS",
      "types": [ "administrative_area_level_1", "political" ]
    }, {
      "long_name": "United States",
      "short_name": "US",
      "types": [ "country", "political" ]
    } ],
    "geometry": {
      "location": {
        "lat": 37.8811472,
        "lng": -95.7333175
      },
      "location_type": "APPROXIMATE",
      "viewport": {
        "southwest": {
          "lat": 37.8459114,
          "lng": -95.7973472
        },
        "northeast": {
          "lat": 37.9163662,
          "lng": -95.6692878
        }
      },
      "bounds": {
        "southwest": {
          "lat": 37.8281400,
          "lng": -95.8099309
        },
        "northeast": {
          "lat": 37.8938270,
          "lng": -95.7198279
        }
      }
    }
  } ]
}
