{
  "status": "OK",
  "results": [ {
    "types": [ "locality", "political" ],
    "formatted_address": "Delaware City, DE, USA",
    "address_components": [ {
      "long_name": "Delaware City",
      "short_name": "Delaware City",
      "types": [ "locality", "political" ]
    }, {
      "long_name": "New Castle",
      "short_name": "New Castle",
      "types": [ "administrative_area_level_2", "political" ]
    }, {
      "long_name": "Delaware",
      "short_name": "DE",
      "types": [ "administrative_area_level_1", "political" ]
    }, {
      "long_name": "United States",
      "short_name": "US",
      "types": [ "country", "political" ]
    } ],
    "geometry": {
      "location": {
        "lat": 39.5778901,
        "lng": -75.5888150
      },
      "location_type": "APPROXIMATE",
      "viewport": {
        "southwest": {
          "lat": 39.5606877,
          "lng": -75.6208298
        },
        "northeast": {
          "lat": 39.5950882,
          "lng": -75.5568002
        }
      },
      "bounds": {
        "southwest": {
          "lat": 39.5606529,
          "lng": -75.6153970
        },
        "northeast": {
          "lat": 39.5899840,
          "lng": -75.5858700
        }
      }
    }
  } ]
}
