{
  "status": "OK",
  "results": [ {
    "types": [ "locality", "political" ],
    "formatted_address": "Ellendale, DE, USA",
    "address_components": [ {
      "long_name": "Ellendale",
      "short_name": "Ellendale",
      "types": [ "locality", "political" ]
    }, {
      "long_name": "Sussex",
      "short_name": "Sussex",
      "types": [ "administrative_area_level_2", "political" ]
    }, {
      "long_name": "Delaware",
      "short_name": "DE",
      "types": [ "administrative_area_level_1", "political" ]
    }, {
      "long_name": "United States",
      "short_name": "US",
      "types": [ "country", "political" ]
    } ],
    "geometry": {
      "location": {
        "lat": 38.8070575,
        "lng": -75.4226970
      },
      "location_type": "APPROXIMATE",
      "viewport": {
        "southwest": {
          "lat": 38.7983620,
          "lng": -75.4387044
        },
        "northeast": {
          "lat": 38.8157520,
          "lng": -75.4066896
        }
      },
      "bounds": {
        "southwest": {
          "lat": 38.8036509,
          "lng": -75.4291109
        },
        "northeast": {
          "lat": 38.8104559,
          "lng": -75.4184810
        }
      }
    }
  } ]
}
