{
  "status": "OK",
  "results": [ {
    "types": [ "locality", "political" ],
    "formatted_address": "Fenwick Island, DE, USA",
    "address_components": [ {
      "long_name": "Fenwick Island",
      "short_name": "Fenwick Island",
      "types": [ "locality", "political" ]
    }, {
      "long_name": "Sussex",
      "short_name": "Sussex",
      "types": [ "administrative_area_level_2", "political" ]
    }, {
      "long_name": "Delaware",
      "short_name": "DE",
      "types": [ "administrative_area_level_1", "political" ]
    }, {
      "long_name": "United States",
      "short_name": "US",
      "types": [ "country", "political" ]
    } ],
    "geometry": {
      "location": {
        "lat": 38.4623346,
        "lng": -75.0512922
      },
      "location_type": "APPROXIMATE",
      "viewport": {
        "southwest": {
          "lat": 38.4535972,
          "lng": -75.0672996
        },
        "northeast": {
          "lat": 38.4710710,
          "lng": -75.0352848
        }
      },
      "bounds": {
        "southwest": {
          "lat": 38.4527940,
          "lng": -75.0603010
        },
        "northeast": {
          "lat": 38.4674890,
          "lng": -75.0484130
        }
      }
    }
  } ]
}
