{
  "status": "OK",
  "results": [ {
    "types": [ "locality", "political" ],
    "formatted_address": "Middletown, DE, USA",
    "address_components": [ {
      "long_name": "Middletown",
      "short_name": "Middletown",
      "types": [ "locality", "political" ]
    }, {
      "long_name": "New Castle",
      "short_name": "New Castle",
      "types": [ "administrative_area_level_2", "political" ]
    }, {
      "long_name": "Delaware",
      "short_name": "DE",
      "types": [ "administrative_area_level_1", "political" ]
    }, {
      "long_name": "United States",
      "short_name": "US",
      "types": [ "country", "political" ]
    } ],
    "geometry": {
      "location": {
        "lat": 39.4495560,
        "lng": -75.7163207
      },
      "location_type": "APPROXIMATE",
      "viewport": {
        "southwest": {
          "lat": 39.4150834,
          "lng": -75.7803504
        },
        "northeast": {
          "lat": 39.4840116,
          "lng": -75.6522910
        }
      },
      "bounds": {
        "southwest": {
          "lat": 39.4075400,
          "lng": -75.7575179
        },
        "northeast": {
          "lat": 39.4775980,
          "lng": -75.6596850
        }
      }
    }
  } ]
}
