{
  "status": "OK",
  "results": [ {
    "types": [ "locality", "political" ],
    "formatted_address": "Big Stone Gap, VA, USA",
    "address_components": [ {
      "long_name": "Big Stone Gap",
      "short_name": "Big Stone Gap",
      "types": [ "locality", "political" ]
    }, {
      "long_name": "3",
      "short_name": "3",
      "types": [ "administrative_area_level_3", "political" ]
    }, {
      "long_name": "Wise",
      "short_name": "Wise",
      "types": [ "administrative_area_level_2", "political" ]
    }, {
      "long_name": "Virginia",
      "short_name": "VA",
      "types": [ "administrative_area_level_1", "political" ]
    }, {
      "long_name": "United States",
      "short_name": "US",
      "types": [ "country", "political" ]
    } ],
    "geometry": {
      "location": {
        "lat": 36.8600260,
        "lng": -82.7779170
      },
      "location_type": "APPROXIMATE",
      "viewport": {
        "southwest": {
          "lat": 36.8421688,
          "lng": -82.8099318
        },
        "northeast": {
          "lat": 36.8778790,
          "lng": -82.7459022
        }
      },
      "bounds": {
        "southwest": {
          "lat": 36.8330760,
          "lng": -82.8143900
        },
        "northeast": {
          "lat": 36.8879090,
          "lng": -82.7465490
        }
      }
    }
  } ]
}
