{
  "status": "OK",
  "results": [ {
    "types": [ "locality", "political" ],
    "formatted_address": "Blacksburg, VA, USA",
    "address_components": [ {
      "long_name": "Blacksburg",
      "short_name": "Blacksburg",
      "types": [ "locality", "political" ]
    }, {
      "long_name": "Montgomery",
      "short_name": "Montgomery",
      "types": [ "administrative_area_level_2", "political" ]
    }, {
      "long_name": "Virginia",
      "short_name": "VA",
      "types": [ "administrative_area_level_1", "political" ]
    }, {
      "long_name": "United States",
      "short_name": "US",
      "types": [ "country", "political" ]
    } ],
    "geometry": {
      "location": {
        "lat": 37.2295733,
        "lng": -80.4139393
      },
      "location_type": "APPROXIMATE",
      "viewport": {
        "southwest": {
          "lat": 37.1940282,
          "lng": -80.4779690
        },
        "northeast": {
          "lat": 37.2651017,
          "lng": -80.3499096
        }
      },
      "bounds": {
        "southwest": {
          "lat": 37.1839760,
          "lng": -80.4803879
        },
        "northeast": {
          "lat": 37.2769270,
          "lng": -80.3785219
        }
      }
    }
  } ]
}
