{
  "status": "OK",
  "results": [ {
    "types": [ "locality", "political" ],
    "formatted_address": "Bluefield, VA, USA",
    "address_components": [ {
      "long_name": "Bluefield",
      "short_name": "Bluefield",
      "types": [ "locality", "political" ]
    }, {
      "long_name": "Eastern",
      "short_name": "Eastern",
      "types": [ "administrative_area_level_3", "political" ]
    }, {
      "long_name": "Tazewell",
      "short_name": "Tazewell",
      "types": [ "administrative_area_level_2", "political" ]
    }, {
      "long_name": "Virginia",
      "short_name": "VA",
      "types": [ "administrative_area_level_1", "political" ]
    }, {
      "long_name": "United States",
      "short_name": "US",
      "types": [ "country", "political" ]
    } ],
    "geometry": {
      "location": {
        "lat": 37.2526170,
        "lng": -81.2712105
      },
      "location_type": "APPROXIMATE",
      "viewport": {
        "southwest": {
          "lat": 37.2170827,
          "lng": -81.3352402
        },
        "northeast": {
          "lat": 37.2881345,
          "lng": -81.2071808
        }
      },
      "bounds": {
        "southwest": {
          "lat": 37.2112670,
          "lng": -81.3305410
        },
        "northeast": {
          "lat": 37.2610160,
          "lng": -81.2251040
        }
      }
    }
  } ]
}
