{
  "status": "OK",
  "results": [ {
    "types": [ "locality", "political" ],
    "formatted_address": "Chase City, VA, USA",
    "address_components": [ {
      "long_name": "Chase City",
      "short_name": "Chase City",
      "types": [ "locality", "political" ]
    }, {
      "long_name": "Mecklenburg",
      "short_name": "Mecklenburg",
      "types": [ "administrative_area_level_2", "political" ]
    }, {
      "long_name": "Virginia",
      "short_name": "VA",
      "types": [ "administrative_area_level_1", "political" ]
    }, {
      "long_name": "United States",
      "short_name": "US",
      "types": [ "country", "political" ]
    } ],
    "geometry": {
      "location": {
        "lat": 36.7993087,
        "lng": -78.4583310
      },
      "location_type": "APPROXIMATE",
      "viewport": {
        "southwest": {
          "lat": 36.7903735,
          "lng": -78.4743384
        },
        "northeast": {
          "lat": 36.8082428,
          "lng": -78.4423236
        }
      },
      "bounds": {
        "southwest": {
          "lat": 36.7868780,
          "lng": -78.4754780
        },
        "northeast": {
          "lat": 36.8164219,
          "lng": -78.4427690
        }
      }
    }
  } ]
}
