{
  "status": "OK",
  "results": [ {
    "types": [ "locality", "political" ],
    "formatted_address": "Clintwood, VA, USA",
    "address_components": [ {
      "long_name": "Clintwood",
      "short_name": "Clintwood",
      "types": [ "locality", "political" ]
    }, {
      "long_name": "Dickenson",
      "short_name": "Dickenson",
      "types": [ "administrative_area_level_2", "political" ]
    }, {
      "long_name": "Virginia",
      "short_name": "VA",
      "types": [ "administrative_area_level_1", "political" ]
    }, {
      "long_name": "United States",
      "short_name": "US",
      "types": [ "country", "political" ]
    } ],
    "geometry": {
      "location": {
        "lat": 37.1501067,
        "lng": -82.4559845
      },
      "location_type": "APPROXIMATE",
      "viewport": {
        "southwest": {
          "lat": 37.1412126,
          "lng": -82.4719919
        },
        "northeast": {
          "lat": 37.1589997,
          "lng": -82.4399771
        }
      },
      "bounds": {
        "southwest": {
          "lat": 37.1428019,
          "lng": -82.4757839
        },
        "northeast": {
          "lat": 37.1637280,
          "lng": -82.4378629
        }
      }
    }
  } ]
}
