{
  "status": "OK",
  "results": [ {
    "types": [ "locality", "political" ],
    "formatted_address": "Dayton, VA, USA",
    "address_components": [ {
      "long_name": "Dayton",
      "short_name": "Dayton",
      "types": [ "locality", "political" ]
    }, {
      "long_name": "Ashby",
      "short_name": "Ashby",
      "types": [ "administrative_area_level_3", "political" ]
    }, {
      "long_name": "Rockingham",
      "short_name": "Rockingham",
      "types": [ "administrative_area_level_2", "political" ]
    }, {
      "long_name": "Virginia",
      "short_name": "VA",
      "types": [ "administrative_area_level_1", "political" ]
    }, {
      "long_name": "United States",
      "short_name": "US",
      "types": [ "country", "political" ]
    } ],
    "geometry": {
      "location": {
        "lat": 38.4148475,
        "lng": -78.9386397
      },
      "location_type": "APPROXIMATE",
      "viewport": {
        "southwest": {
          "lat": 38.4061043,
          "lng": -78.9546471
        },
        "northeast": {
          "lat": 38.4235896,
          "lng": -78.9226323
        }
      },
      "bounds": {
        "southwest": {
          "lat": 38.4076290,
          "lng": -78.9566840
        },
        "northeast": {
          "lat": 38.4291209,
          "lng": -78.9201509
        }
      }
    }
  } ]
}
