{
  "status": "OK",
  "results": [ {
    "types": [ "locality", "political" ],
    "formatted_address": "Hurt, VA, USA",
    "address_components": [ {
      "long_name": "Hurt",
      "short_name": "Hurt",
      "types": [ "locality", "political" ]
    }, {
      "long_name": "Pittsylvania",
      "short_name": "Pittsylvania",
      "types": [ "administrative_area_level_2", "political" ]
    }, {
      "long_name": "Virginia",
      "short_name": "VA",
      "types": [ "administrative_area_level_1", "political" ]
    }, {
      "long_name": "United States",
      "short_name": "US",
      "types": [ "country", "political" ]
    } ],
    "geometry": {
      "location": {
        "lat": 37.0926426,
        "lng": -79.2964125
      },
      "location_type": "APPROXIMATE",
      "viewport": {
        "southwest": {
          "lat": 37.0748399,
          "lng": -79.3284273
        },
        "northeast": {
          "lat": 37.1104411,
          "lng": -79.2643977
        }
      },
      "bounds": {
        "southwest": {
          "lat": 37.0772410,
          "lng": -79.3156010
        },
        "northeast": {
          "lat": 37.1123550,
          "lng": -79.2806210
        }
      }
    }
  } ]
}
