{
  "status": "OK",
  "results": [ {
    "types": [ "locality", "political" ],
    "formatted_address": "Jonesville, VA, USA",
    "address_components": [ {
      "long_name": "Jonesville",
      "short_name": "Jonesville",
      "types": [ "locality", "political" ]
    }, {
      "long_name": "2",
      "short_name": "2",
      "types": [ "administrative_area_level_3", "political" ]
    }, {
      "long_name": "Lee",
      "short_name": "Lee",
      "types": [ "administrative_area_level_2", "political" ]
    }, {
      "long_name": "Virginia",
      "short_name": "VA",
      "types": [ "administrative_area_level_1", "political" ]
    }, {
      "long_name": "United States",
      "short_name": "US",
      "types": [ "country", "political" ]
    } ],
    "geometry": {
      "location": {
        "lat": 36.6889777,
        "lng": -83.1110047
      },
      "location_type": "APPROXIMATE",
      "viewport": {
        "southwest": {
          "lat": 36.6800297,
          "lng": -83.1270121
        },
        "northeast": {
          "lat": 36.6979247,
          "lng": -83.0949973
        }
      },
      "bounds": {
        "southwest": {
          "lat": 36.6790270,
          "lng": -83.1312950
        },
        "northeast": {
          "lat": 36.6963579,
          "lng": -83.0961330
        }
      }
    }
  } ]
}
