{
  "status": "OK",
  "results": [ {
    "types": [ "locality", "political" ],
    "formatted_address": "Kenbridge, VA, USA",
    "address_components": [ {
      "long_name": "Kenbridge",
      "short_name": "Kenbridge",
      "types": [ "locality", "political" ]
    }, {
      "long_name": "Lunenburg",
      "short_name": "Lunenburg",
      "types": [ "administrative_area_level_2", "political" ]
    }, {
      "long_name": "Virginia",
      "short_name": "VA",
      "types": [ "administrative_area_level_1", "political" ]
    }, {
      "long_name": "United States",
      "short_name": "US",
      "types": [ "country", "political" ]
    } ],
    "geometry": {
      "location": {
        "lat": 36.9620944,
        "lng": -78.1250000
      },
      "location_type": "APPROXIMATE",
      "viewport": {
        "southwest": {
          "lat": 36.9442611,
          "lng": -78.1570148
        },
        "northeast": {
          "lat": 36.9799235,
          "lng": -78.0929852
        }
      },
      "bounds": {
        "southwest": {
          "lat": 36.9429809,
          "lng": -78.1599739
        },
        "northeast": {
          "lat": 36.9752290,
          "lng": -78.0931559
        }
      }
    }
  } ]
}
