{
  "status": "OK",
  "results": [ {
    "types": [ "locality", "political" ],
    "formatted_address": "Luray, VA, USA",
    "address_components": [ {
      "long_name": "Luray",
      "short_name": "Luray",
      "types": [ "locality", "political" ]
    }, {
      "long_name": "Page",
      "short_name": "Page",
      "types": [ "administrative_area_level_2", "political" ]
    }, {
      "long_name": "Virginia",
      "short_name": "VA",
      "types": [ "administrative_area_level_1", "political" ]
    }, {
      "long_name": "United States",
      "short_name": "US",
      "types": [ "country", "political" ]
    } ],
    "geometry": {
      "location": {
        "lat": 38.6653970,
        "lng": -78.4594522
      },
      "location_type": "APPROXIMATE",
      "viewport": {
        "southwest": {
          "lat": 38.6479704,
          "lng": -78.4914670
        },
        "northeast": {
          "lat": 38.6828194,
          "lng": -78.4274374
        }
      },
      "bounds": {
        "southwest": {
          "lat": 38.6493339,
          "lng": -78.5026889
        },
        "northeast": {
          "lat": 38.6780810,
          "lng": -78.4180870
        }
      }
    }
  } ]
}
