{
  "status": "OK",
  "results": [ {
    "types": [ "locality", "political" ],
    "formatted_address": "Rich Creek, VA, USA",
    "address_components": [ {
      "long_name": "Rich Creek",
      "short_name": "Rich Creek",
      "types": [ "locality", "political" ]
    }, {
      "long_name": "Giles",
      "short_name": "Giles",
      "types": [ "administrative_area_level_2", "political" ]
    }, {
      "long_name": "Virginia",
      "short_name": "VA",
      "types": [ "administrative_area_level_1", "political" ]
    }, {
      "long_name": "United States",
      "short_name": "US",
      "types": [ "country", "political" ]
    } ],
    "geometry": {
      "location": {
        "lat": 37.3823434,
        "lng": -80.8225774
      },
      "location_type": "APPROXIMATE",
      "viewport": {
        "southwest": {
          "lat": 37.3734767,
          "lng": -80.8385848
        },
        "northeast": {
          "lat": 37.3912090,
          "lng": -80.8065700
        }
      },
      "bounds": {
        "southwest": {
          "lat": 37.3712830,
          "lng": -80.8341330
        },
        "northeast": {
          "lat": 37.3930900,
          "lng": -80.8104740
        }
      }
    }
  } ]
}
