{
  "status": "OK",
  "results": [ {
    "types": [ "locality", "political" ],
    "formatted_address": "Rocky Mt, VA, USA",
    "address_components": [ {
      "long_name": "Rocky Mt",
      "short_name": "Rocky Mt",
      "types": [ "locality", "political" ]
    }, {
      "long_name": "Franklin",
      "short_name": "Franklin",
      "types": [ "administrative_area_level_2", "political" ]
    }, {
      "long_name": "Virginia",
      "short_name": "VA",
      "types": [ "administrative_area_level_1", "political" ]
    }, {
      "long_name": "United States",
      "short_name": "US",
      "types": [ "country", "political" ]
    } ],
    "geometry": {
      "location": {
        "lat": 36.9976403,
        "lng": -79.8919774
      },
      "location_type": "APPROXIMATE",
      "viewport": {
        "southwest": {
          "lat": 36.9798153,
          "lng": -79.9239922
        },
        "northeast": {
          "lat": 37.0154611,
          "lng": -79.8599626
        }
      },
      "bounds": {
        "southwest": {
          "lat": 36.9692490,
          "lng": -79.9089120
        },
        "northeast": {
          "lat": 37.0322570,
          "lng": -79.8548260
        }
      }
    }
  } ]
}
