{
  "status": "OK",
  "results": [ {
    "types": [ "locality", "political" ],
    "formatted_address": "Saint Paul, VA, USA",
    "address_components": [ {
      "long_name": "Saint Paul",
      "short_name": "Saint Paul",
      "types": [ "locality", "political" ]
    }, {
      "long_name": "Wise",
      "short_name": "Wise",
      "types": [ "administrative_area_level_2", "political" ]
    }, {
      "long_name": "Virginia",
      "short_name": "VA",
      "types": [ "administrative_area_level_1", "political" ]
    }, {
      "long_name": "United States",
      "short_name": "US",
      "types": [ "country", "political" ]
    } ],
    "geometry": {
      "location": {
        "lat": 36.9053822,
        "lng": -82.3109761
      },
      "location_type": "APPROXIMATE",
      "viewport": {
        "southwest": {
          "lat": 36.8696849,
          "lng": -82.3750058
        },
        "northeast": {
          "lat": 36.9410628,
          "lng": -82.2469464
        }
      },
      "bounds": {
        "southwest": {
          "lat": 36.8896989,
          "lng": -82.3654761
        },
        "northeast": {
          "lat": 36.9436341,
          "lng": -82.2748629
        }
      }
    }
  } ]
}
