{
  "status": "OK",
  "results": [ {
    "types": [ "locality", "political" ],
    "formatted_address": "Shenandoah, VA, USA",
    "address_components": [ {
      "long_name": "Shenandoah",
      "short_name": "Shenandoah",
      "types": [ "locality", "political" ]
    }, {
      "long_name": "5, Shenandoah",
      "short_name": "5, Shenandoah",
      "types": [ "administrative_area_level_3", "political" ]
    }, {
      "long_name": "Page",
      "short_name": "Page",
      "types": [ "administrative_area_level_2", "political" ]
    }, {
      "long_name": "Virginia",
      "short_name": "VA",
      "types": [ "administrative_area_level_1", "political" ]
    }, {
      "long_name": "United States",
      "short_name": "US",
      "types": [ "country", "political" ]
    } ],
    "geometry": {
      "location": {
        "lat": 38.4851245,
        "lng": -78.6250160
      },
      "location_type": "APPROXIMATE",
      "viewport": {
        "southwest": {
          "lat": 38.4763898,
          "lng": -78.6410234
        },
        "northeast": {
          "lat": 38.4938581,
          "lng": -78.6090086
        }
      },
      "bounds": {
        "southwest": {
          "lat": 38.4711900,
          "lng": -78.6328769
        },
        "northeast": {
          "lat": 38.5013680,
          "lng": -78.6112019
        }
      }
    }
  } ]
}
