{
  "status": "OK",
  "results": [ {
    "types": [ "locality", "political" ],
    "formatted_address": "South Hill, VA, USA",
    "address_components": [ {
      "long_name": "South Hill",
      "short_name": "South Hill",
      "types": [ "locality", "political" ]
    }, {
      "long_name": "Mecklenburg",
      "short_name": "Mecklenburg",
      "types": [ "administrative_area_level_2", "political" ]
    }, {
      "long_name": "Virginia",
      "short_name": "VA",
      "types": [ "administrative_area_level_1", "political" ]
    }, {
      "long_name": "United States",
      "short_name": "US",
      "types": [ "country", "political" ]
    } ],
    "geometry": {
      "location": {
        "lat": 36.7265320,
        "lng": -78.1288857
      },
      "location_type": "APPROXIMATE",
      "viewport": {
        "southwest": {
          "lat": 36.6907512,
          "lng": -78.1929154
        },
        "northeast": {
          "lat": 36.7622961,
          "lng": -78.0648560
        }
      },
      "bounds": {
        "southwest": {
          "lat": 36.7005060,
          "lng": -78.1715280
        },
        "northeast": {
          "lat": 36.7573129,
          "lng": -78.0865680
        }
      }
    }
  } ]
}
