{
  "status": "OK",
  "results": [ {
    "types": [ "locality", "political" ],
    "formatted_address": "Stephens City, VA, USA",
    "address_components": [ {
      "long_name": "Stephens City",
      "short_name": "Stephens City",
      "types": [ "locality", "political" ]
    }, {
      "long_name": "Frederick",
      "short_name": "Frederick",
      "types": [ "administrative_area_level_2", "political" ]
    }, {
      "long_name": "Virginia",
      "short_name": "VA",
      "types": [ "administrative_area_level_1", "political" ]
    }, {
      "long_name": "United States",
      "short_name": "US",
      "types": [ "country", "political" ]
    } ],
    "geometry": {
      "location": {
        "lat": 39.0834398,
        "lng": -78.2180567
      },
      "location_type": "APPROXIMATE",
      "viewport": {
        "southwest": {
          "lat": 39.0661154,
          "lng": -78.2500715
        },
        "northeast": {
          "lat": 39.1007600,
          "lng": -78.1860419
        }
      },
      "bounds": {
        "southwest": {
          "lat": 39.0782520,
          "lng": -78.2414490
        },
        "northeast": {
          "lat": 39.1045430,
          "lng": -78.2053670
        }
      }
    }
  } ]
}
