{
  "status": "OK",
  "results": [ {
    "types": [ "locality", "political" ],
    "formatted_address": "Vienna, VA, USA",
    "address_components": [ {
      "long_name": "Vienna",
      "short_name": "Vienna",
      "types": [ "locality", "political" ]
    }, {
      "long_name": "Fairfax",
      "short_name": "Fairfax",
      "types": [ "administrative_area_level_2", "political" ]
    }, {
      "long_name": "Virginia",
      "short_name": "VA",
      "types": [ "administrative_area_level_1", "political" ]
    }, {
      "long_name": "United States",
      "short_name": "US",
      "types": [ "country", "political" ]
    } ],
    "geometry": {
      "location": {
        "lat": 38.9012225,
        "lng": -77.2652604
      },
      "location_type": "APPROXIMATE",
      "viewport": {
        "southwest": {
          "lat": 38.8838534,
          "lng": -77.2972752
        },
        "northeast": {
          "lat": 38.9185873,
          "lng": -77.2332456
        }
      },
      "bounds": {
        "southwest": {
          "lat": 38.8784939,
          "lng": -77.2847630
        },
        "northeast": {
          "lat": 38.9218240,
          "lng": -77.2412650
        }
      }
    }
  } ]
}
