{
  "status": "OK",
  "results": [ {
    "types": [ "locality", "political" ],
    "formatted_address": "Adams, MA, USA",
    "address_components": [ {
      "long_name": "Adams",
      "short_name": "Adams",
      "types": [ "locality", "political" ]
    }, {
      "long_name": "Berkshire",
      "short_name": "Berkshire",
      "types": [ "administrative_area_level_2", "political" ]
    }, {
      "long_name": "Massachusetts",
      "short_name": "MA",
      "types": [ "administrative_area_level_1", "political" ]
    }, {
      "long_name": "United States",
      "short_name": "US",
      "types": [ "country", "political" ]
    } ],
    "geometry": {
      "location": {
        "lat": 42.6242495,
        "lng": -73.1176030
      },
      "location_type": "APPROXIMATE",
      "viewport": {
        "southwest": {
          "lat": 42.6078270,
          "lng": -73.1496178
        },
        "northeast": {
          "lat": 42.6406677,
          "lng": -73.0855882
        }
      },
      "bounds": {
        "southwest": {
          "lat": 42.6139120,
          "lng": -73.1367949
        },
        "northeast": {
          "lat": 42.6450360,
          "lng": -73.1020880
        }
      }
    }
  } ]
}
