{
  "status": "OK",
  "results": [ {
    "types": [ "locality", "political" ],
    "formatted_address": "Andover, MA, USA",
    "address_components": [ {
      "long_name": "Andover",
      "short_name": "Andover",
      "types": [ "locality", "political" ]
    }, {
      "long_name": "Essex",
      "short_name": "Essex",
      "types": [ "administrative_area_level_2", "political" ]
    }, {
      "long_name": "Massachusetts",
      "short_name": "MA",
      "types": [ "administrative_area_level_1", "political" ]
    }, {
      "long_name": "United States",
      "short_name": "US",
      "types": [ "country", "political" ]
    } ],
    "geometry": {
      "location": {
        "lat": 42.6584254,
        "lng": -71.1370012
      },
      "location_type": "APPROXIMATE",
      "viewport": {
        "southwest": {
          "lat": 42.6420119,
          "lng": -71.1690160
        },
        "northeast": {
          "lat": 42.6748345,
          "lng": -71.1049864
        }
      },
      "bounds": {
        "southwest": {
          "lat": 42.6332940,
          "lng": -71.1664790
        },
        "northeast": {
          "lat": 42.6734000,
          "lng": -71.1188399
        }
      }
    }
  } ]
}
