{
  "status": "OK",
  "results": [ {
    "types": [ "locality", "political" ],
    "formatted_address": "Attleboro, MA, USA",
    "address_components": [ {
      "long_name": "Attleboro",
      "short_name": "Attleboro",
      "types": [ "locality", "political" ]
    }, {
      "long_name": "Bristol",
      "short_name": "Bristol",
      "types": [ "administrative_area_level_2", "political" ]
    }, {
      "long_name": "Massachusetts",
      "short_name": "MA",
      "types": [ "administrative_area_level_1", "political" ]
    }, {
      "long_name": "United States",
      "short_name": "US",
      "types": [ "country", "political" ]
    } ],
    "geometry": {
      "location": {
        "lat": 41.9445441,
        "lng": -71.2856082
      },
      "location_type": "APPROXIMATE",
      "viewport": {
        "southwest": {
          "lat": 41.9113386,
          "lng": -71.3496379
        },
        "northeast": {
          "lat": 41.9777324,
          "lng": -71.2215785
        }
      },
      "bounds": {
        "southwest": {
          "lat": 41.8931989,
          "lng": -71.3817000
        },
        "northeast": {
          "lat": 41.9867069,
          "lng": -71.2068929
        }
      }
    }
  } ]
}
