{
  "status": "OK",
  "results": [ {
    "types": [ "locality", "political" ],
    "formatted_address": "Cambridge, MA, USA",
    "address_components": [ {
      "long_name": "Cambridge",
      "short_name": "Cambridge",
      "types": [ "locality", "political" ]
    }, {
      "long_name": "Middlesex",
      "short_name": "Middlesex",
      "types": [ "administrative_area_level_2", "political" ]
    }, {
      "long_name": "Massachusetts",
      "short_name": "MA",
      "types": [ "administrative_area_level_1", "political" ]
    }, {
      "long_name": "United States",
      "short_name": "US",
      "types": [ "country", "political" ]
    } ],
    "geometry": {
      "location": {
        "lat": 42.3750969,
        "lng": -71.1056079
      },
      "location_type": "APPROXIMATE",
      "viewport": {
        "southwest": {
          "lat": 42.3421165,
          "lng": -71.1696376
        },
        "northeast": {
          "lat": 42.4080600,
          "lng": -71.0415782
        }
      },
      "bounds": {
        "southwest": {
          "lat": 42.3523969,
          "lng": -71.1603320
        },
        "northeast": {
          "lat": 42.4043840,
          "lng": -71.0640950
        }
      }
    }
  } ]
}
