{
  "status": "OK",
  "results": [ {
    "types": [ "locality", "political" ],
    "formatted_address": "Chelsea, MA, USA",
    "address_components": [ {
      "long_name": "Chelsea",
      "short_name": "Chelsea",
      "types": [ "locality", "political" ]
    }, {
      "long_name": "Suffolk",
      "short_name": "Suffolk",
      "types": [ "administrative_area_level_2", "political" ]
    }, {
      "long_name": "Massachusetts",
      "short_name": "MA",
      "types": [ "administrative_area_level_1", "political" ]
    }, {
      "long_name": "United States",
      "short_name": "US",
      "types": [ "country", "political" ]
    } ],
    "geometry": {
      "location": {
        "lat": 42.3917638,
        "lng": -71.0328284
      },
      "location_type": "APPROXIMATE",
      "viewport": {
        "southwest": {
          "lat": 42.3752801,
          "lng": -71.0648432
        },
        "northeast": {
          "lat": 42.4082432,
          "lng": -71.0008136
        }
      },
      "bounds": {
        "southwest": {
          "lat": 42.3832090,
          "lng": -71.0552950
        },
        "northeast": {
          "lat": 42.4147729,
          "lng": -71.0093770
        }
      }
    }
  } ]
}
