{
  "status": "OK",
  "results": [ {
    "types": [ "locality", "political" ],
    "formatted_address": "Framingham, MA, USA",
    "address_components": [ {
      "long_name": "Framingham",
      "short_name": "Framingham",
      "types": [ "locality", "political" ]
    }, {
      "long_name": "Middlesex",
      "short_name": "Middlesex",
      "types": [ "administrative_area_level_2", "political" ]
    }, {
      "long_name": "Massachusetts",
      "short_name": "MA",
      "types": [ "administrative_area_level_1", "political" ]
    }, {
      "long_name": "United States",
      "short_name": "US",
      "types": [ "country", "political" ]
    } ],
    "geometry": {
      "location": {
        "lat": 42.2997950,
        "lng": -71.4266270
      },
      "location_type": "APPROXIMATE",
      "viewport": {
        "southwest": {
          "lat": 42.2667751,
          "lng": -71.4906567
        },
        "northeast": {
          "lat": 42.3327976,
          "lng": -71.3625973
        }
      },
      "bounds": {
        "southwest": {
          "lat": 42.2572970,
          "lng": -71.4968330
        },
        "northeast": {
          "lat": 42.3525570,
          "lng": -71.3769910
        }
      }
    }
  } ]
}
