{
  "status": "OK",
  "results": [ {
    "types": [ "locality", "political" ],
    "formatted_address": "Holyoke, MA, USA",
    "address_components": [ {
      "long_name": "Holyoke",
      "short_name": "Holyoke",
      "types": [ "locality", "political" ]
    }, {
      "long_name": "Hampden",
      "short_name": "Hampden",
      "types": [ "administrative_area_level_2", "political" ]
    }, {
      "long_name": "Massachusetts",
      "short_name": "MA",
      "types": [ "administrative_area_level_1", "political" ]
    }, {
      "long_name": "United States",
      "short_name": "US",
      "types": [ "country", "political" ]
    } ],
    "geometry": {
      "location": {
        "lat": 42.2042586,
        "lng": -72.6162009
      },
      "location_type": "APPROXIMATE",
      "viewport": {
        "southwest": {
          "lat": 42.1381013,
          "lng": -72.7442603
        },
        "northeast": {
          "lat": 42.2703467,
          "lng": -72.4881415
        }
      },
      "bounds": {
        "southwest": {
          "lat": 42.1619920,
          "lng": -72.6904570
        },
        "northeast": {
          "lat": 42.2861900,
          "lng": -72.5905329
        }
      }
    }
  } ]
}
