{
  "status": "OK",
  "results": [ {
    "types": [ "locality", "political" ],
    "formatted_address": "Ipswich, MA, USA",
    "address_components": [ {
      "long_name": "Ipswich",
      "short_name": "Ipswich",
      "types": [ "locality", "political" ]
    }, {
      "long_name": "Essex",
      "short_name": "Essex",
      "types": [ "administrative_area_level_2", "political" ]
    }, {
      "long_name": "Massachusetts",
      "short_name": "MA",
      "types": [ "administrative_area_level_1", "political" ]
    }, {
      "long_name": "United States",
      "short_name": "US",
      "types": [ "country", "political" ]
    } ],
    "geometry": {
      "location": {
        "lat": 42.6792602,
        "lng": -70.8411612
      },
      "location_type": "APPROXIMATE",
      "viewport": {
        "southwest": {
          "lat": 42.6628522,
          "lng": -70.8731760
        },
        "northeast": {
          "lat": 42.6956639,
          "lng": -70.8091464
        }
      },
      "bounds": {
        "southwest": {
          "lat": 42.6680470,
          "lng": -70.8515930
        },
        "northeast": {
          "lat": 42.6937190,
          "lng": -70.8100319
        }
      }
    }
  } ]
}
