{
  "status": "OK",
  "results": [ {
    "types": [ "locality", "political" ],
    "formatted_address": "Maynard, MA, USA",
    "address_components": [ {
      "long_name": "Maynard",
      "short_name": "Maynard",
      "types": [ "locality", "political" ]
    }, {
      "long_name": "Middlesex",
      "short_name": "Middlesex",
      "types": [ "administrative_area_level_2", "political" ]
    }, {
      "long_name": "Massachusetts",
      "short_name": "MA",
      "types": [ "administrative_area_level_1", "political" ]
    }, {
      "long_name": "United States",
      "short_name": "US",
      "types": [ "country", "political" ]
    } ],
    "geometry": {
      "location": {
        "lat": 42.4334269,
        "lng": -71.4495070
      },
      "location_type": "APPROXIMATE",
      "viewport": {
        "southwest": {
          "lat": 42.4169542,
          "lng": -71.4815218
        },
        "northeast": {
          "lat": 42.4498953,
          "lng": -71.4174922
        }
      },
      "bounds": {
        "southwest": {
          "lat": 42.4023020,
          "lng": -71.4785869
        },
        "northeast": {
          "lat": 42.4502729,
          "lng": -71.4302759
        }
      }
    }
  } ]
}
