{
  "status": "OK",
  "results": [ {
    "types": [ "locality", "political" ],
    "formatted_address": "Newburyport, MA, USA",
    "address_components": [ {
      "long_name": "Newburyport",
      "short_name": "Newburyport",
      "types": [ "locality", "political" ]
    }, {
      "long_name": "Essex",
      "short_name": "Essex",
      "types": [ "administrative_area_level_2", "political" ]
    }, {
      "long_name": "Massachusetts",
      "short_name": "MA",
      "types": [ "administrative_area_level_1", "political" ]
    }, {
      "long_name": "United States",
      "short_name": "US",
      "types": [ "country", "political" ]
    } ],
    "geometry": {
      "location": {
        "lat": 42.8125913,
        "lng": -70.8772751
      },
      "location_type": "APPROXIMATE",
      "viewport": {
        "southwest": {
          "lat": 42.7798415,
          "lng": -70.9413048
        },
        "northeast": {
          "lat": 42.8453238,
          "lng": -70.8132454
        }
      },
      "bounds": {
        "southwest": {
          "lat": 42.7870190,
          "lng": -70.9407990
        },
        "northeast": {
          "lat": 42.8412830,
          "lng": -70.8084229
        }
      }
    }
  } ]
}
