{
  "status": "OK",
  "results": [ {
    "types": [ "locality", "political" ],
    "formatted_address": "Northfield, MA, USA",
    "address_components": [ {
      "long_name": "Northfield",
      "short_name": "Northfield",
      "types": [ "locality", "political" ]
    }, {
      "long_name": "Franklin",
      "short_name": "Franklin",
      "types": [ "administrative_area_level_2", "political" ]
    }, {
      "long_name": "Massachusetts",
      "short_name": "MA",
      "types": [ "administrative_area_level_1", "political" ]
    }, {
      "long_name": "United States",
      "short_name": "US",
      "types": [ "country", "political" ]
    } ],
    "geometry": {
      "location": {
        "lat": 42.6959174,
        "lng": -72.4528653
      },
      "location_type": "APPROXIMATE",
      "viewport": {
        "southwest": {
          "lat": 42.6631059,
          "lng": -72.5168950
        },
        "northeast": {
          "lat": 42.7287116,
          "lng": -72.3888356
        }
      },
      "bounds": {
        "southwest": {
          "lat": 42.6828220,
          "lng": -72.4624510
        },
        "northeast": {
          "lat": 42.7259970,
          "lng": -72.4031689
        }
      }
    }
  } ]
}
