{
  "status": "OK",
  "results": [ {
    "types": [ "locality", "political" ],
    "formatted_address": "North Brookfield, MA, USA",
    "address_components": [ {
      "long_name": "North Brookfield",
      "short_name": "North Brookfield",
      "types": [ "locality", "political" ]
    }, {
      "long_name": "Worcester",
      "short_name": "Worcester",
      "types": [ "administrative_area_level_2", "political" ]
    }, {
      "long_name": "Massachusetts",
      "short_name": "MA",
      "types": [ "administrative_area_level_1", "political" ]
    }, {
      "long_name": "United States",
      "short_name": "US",
      "types": [ "country", "political" ]
    } ],
    "geometry": {
      "location": {
        "lat": 42.2667586,
        "lng": -72.0828545
      },
      "location_type": "APPROXIMATE",
      "viewport": {
        "southwest": {
          "lat": 42.2585009,
          "lng": -72.0988619
        },
        "northeast": {
          "lat": 42.2750152,
          "lng": -72.0668471
        }
      },
      "bounds": {
        "southwest": {
          "lat": 42.2601520,
          "lng": -72.0976270
        },
        "northeast": {
          "lat": 42.2856529,
          "lng": -72.0707570
        }
      }
    }
  } ]
}
