{
  "status": "OK",
  "results": [ {
    "types": [ "locality", "political" ],
    "formatted_address": "Palmer, MA, USA",
    "address_components": [ {
      "long_name": "Palmer",
      "short_name": "Palmer",
      "types": [ "locality", "political" ]
    }, {
      "long_name": "Hampden",
      "short_name": "Hampden",
      "types": [ "administrative_area_level_2", "political" ]
    }, {
      "long_name": "Massachusetts",
      "short_name": "MA",
      "types": [ "administrative_area_level_1", "political" ]
    }, {
      "long_name": "United States",
      "short_name": "US",
      "types": [ "country", "political" ]
    } ],
    "geometry": {
      "location": {
        "lat": 42.1584270,
        "lng": -72.3286928
      },
      "location_type": "APPROXIMATE",
      "viewport": {
        "southwest": {
          "lat": 42.1418822,
          "lng": -72.3607076
        },
        "northeast": {
          "lat": 42.1749675,
          "lng": -72.2966780
        }
      },
      "bounds": {
        "southwest": {
          "lat": 42.1431530,
          "lng": -72.3514359
        },
        "northeast": {
          "lat": 42.1772000,
          "lng": -72.2922160
        }
      }
    }
  } ]
}
