{
  "status": "OK",
  "results": [ {
    "types": [ "locality", "political" ],
    "formatted_address": "Peabody, MA, USA",
    "address_components": [ {
      "long_name": "Peabody",
      "short_name": "Peabody",
      "types": [ "locality", "political" ]
    }, {
      "long_name": "Essex",
      "short_name": "Essex",
      "types": [ "administrative_area_level_2", "political" ]
    }, {
      "long_name": "Massachusetts",
      "short_name": "MA",
      "types": [ "administrative_area_level_1", "political" ]
    }, {
      "long_name": "United States",
      "short_name": "US",
      "types": [ "country", "political" ]
    } ],
    "geometry": {
      "location": {
        "lat": 42.5278731,
        "lng": -70.9286609
      },
      "location_type": "APPROXIMATE",
      "viewport": {
        "southwest": {
          "lat": 42.4949730,
          "lng": -70.9926906
        },
        "northeast": {
          "lat": 42.5607559,
          "lng": -70.8646312
        }
      },
      "bounds": {
        "southwest": {
          "lat": 42.4950480,
          "lng": -71.0346189
        },
        "northeast": {
          "lat": 42.5702400,
          "lng": -70.9126950
        }
      }
    }
  } ]
}
