{
  "status": "OK",
  "results": [ {
    "types": [ "locality", "political" ],
    "formatted_address": "Pittsfield, MA, USA",
    "address_components": [ {
      "long_name": "Pittsfield",
      "short_name": "Pittsfield",
      "types": [ "locality", "political" ]
    }, {
      "long_name": "Berkshire",
      "short_name": "Berkshire",
      "types": [ "administrative_area_level_2", "political" ]
    }, {
      "long_name": "Massachusetts",
      "short_name": "MA",
      "types": [ "administrative_area_level_1", "political" ]
    }, {
      "long_name": "United States",
      "short_name": "US",
      "types": [ "country", "political" ]
    } ],
    "geometry": {
      "location": {
        "lat": 42.4500845,
        "lng": -73.2453824
      },
      "location_type": "APPROXIMATE",
      "viewport": {
        "southwest": {
          "lat": 42.4171435,
          "lng": -73.3094121
        },
        "northeast": {
          "lat": 42.4830082,
          "lng": -73.1813527
        }
      },
      "bounds": {
        "southwest": {
          "lat": 42.3981969,
          "lng": -73.3388090
        },
        "northeast": {
          "lat": 42.5033830,
          "lng": -73.1820470
        }
      }
    }
  } ]
}
