{
  "status": "OK",
  "results": [ {
    "types": [ "locality", "political" ],
    "formatted_address": "Salem, MA, USA",
    "address_components": [ {
      "long_name": "Salem",
      "short_name": "Salem",
      "types": [ "locality", "political" ]
    }, {
      "long_name": "Essex",
      "short_name": "Essex",
      "types": [ "administrative_area_level_2", "political" ]
    }, {
      "long_name": "Massachusetts",
      "short_name": "MA",
      "types": [ "administrative_area_level_1", "political" ]
    }, {
      "long_name": "United States",
      "short_name": "US",
      "types": [ "country", "political" ]
    } ],
    "geometry": {
      "location": {
        "lat": 42.5195400,
        "lng": -70.8967155
      },
      "location_type": "APPROXIMATE",
      "viewport": {
        "southwest": {
          "lat": 42.4866355,
          "lng": -70.9607452
        },
        "northeast": {
          "lat": 42.5524272,
          "lng": -70.8326858
        }
      },
      "bounds": {
        "southwest": {
          "lat": 42.4843550,
          "lng": -70.9509000
        },
        "northeast": {
          "lat": 42.5468360,
          "lng": -70.7435670
        }
      }
    }
  } ]
}
