{
  "status": "OK",
  "results": [ {
    "types": [ "locality", "political" ],
    "formatted_address": "Sandwich, MA, USA",
    "address_components": [ {
      "long_name": "Sandwich",
      "short_name": "Sandwich",
      "types": [ "locality", "political" ]
    }, {
      "long_name": "Barnstable",
      "short_name": "Barnstable",
      "types": [ "administrative_area_level_2", "political" ]
    }, {
      "long_name": "Massachusetts",
      "short_name": "MA",
      "types": [ "administrative_area_level_1", "political" ]
    }, {
      "long_name": "United States",
      "short_name": "US",
      "types": [ "country", "political" ]
    } ],
    "geometry": {
      "location": {
        "lat": 41.7589954,
        "lng": -70.4939163
      },
      "location_type": "APPROXIMATE",
      "viewport": {
        "southwest": {
          "lat": 41.7423466,
          "lng": -70.5259311
        },
        "northeast": {
          "lat": 41.7756399,
          "lng": -70.4619015
        }
      },
      "bounds": {
        "southwest": {
          "lat": 41.7391310,
          "lng": -70.5261180
        },
        "northeast": {
          "lat": 41.7766570,
          "lng": -70.4744829
        }
      }
    }
  } ]
}
