{
  "status": "OK",
  "results": [ {
    "types": [ "locality", "political" ],
    "formatted_address": "Stoneham, MA, USA",
    "address_components": [ {
      "long_name": "Stoneham",
      "short_name": "Stoneham",
      "types": [ "locality", "political" ]
    }, {
      "long_name": "Middlesex",
      "short_name": "Middlesex",
      "types": [ "administrative_area_level_2", "political" ]
    }, {
      "long_name": "Massachusetts",
      "short_name": "MA",
      "types": [ "administrative_area_level_1", "political" ]
    }, {
      "long_name": "United States",
      "short_name": "US",
      "types": [ "country", "political" ]
    } ],
    "geometry": {
      "location": {
        "lat": 42.4800954,
        "lng": -71.0994976
      },
      "location_type": "APPROXIMATE",
      "viewport": {
        "southwest": {
          "lat": 42.4636349,
          "lng": -71.1315124
        },
        "northeast": {
          "lat": 42.4965515,
          "lng": -71.0674828
        }
      },
      "bounds": {
        "southwest": {
          "lat": 42.4439960,
          "lng": -71.1215139
        },
        "northeast": {
          "lat": 42.5023170,
          "lng": -71.0749550
        }
      }
    }
  } ]
}
