{
  "status": "OK",
  "results": [ {
    "types": [ "locality", "political" ],
    "formatted_address": "Warren, MA, USA",
    "address_components": [ {
      "long_name": "Warren",
      "short_name": "Warren",
      "types": [ "locality", "political" ]
    }, {
      "long_name": "Worcester",
      "short_name": "Worcester",
      "types": [ "administrative_area_level_2", "political" ]
    }, {
      "long_name": "Massachusetts",
      "short_name": "MA",
      "types": [ "administrative_area_level_1", "political" ]
    }, {
      "long_name": "United States",
      "short_name": "US",
      "types": [ "country", "political" ]
    } ],
    "geometry": {
      "location": {
        "lat": 42.2125930,
        "lng": -72.1911897
      },
      "location_type": "APPROXIMATE",
      "viewport": {
        "southwest": {
          "lat": 42.2043282,
          "lng": -72.2071971
        },
        "northeast": {
          "lat": 42.2208567,
          "lng": -72.1751823
        }
      },
      "bounds": {
        "southwest": {
          "lat": 42.2012460,
          "lng": -72.2076259
        },
        "northeast": {
          "lat": 42.2275149,
          "lng": -72.1696290
        }
      }
    }
  } ]
}
