{
  "status": "OK",
  "results": [ {
    "types": [ "locality", "political" ],
    "formatted_address": "Westborough, MA, USA",
    "address_components": [ {
      "long_name": "Westborough",
      "short_name": "Westborough",
      "types": [ "locality", "political" ]
    }, {
      "long_name": "Worcester",
      "short_name": "Worcester",
      "types": [ "administrative_area_level_2", "political" ]
    }, {
      "long_name": "Massachusetts",
      "short_name": "MA",
      "types": [ "administrative_area_level_1", "political" ]
    }, {
      "long_name": "United States",
      "short_name": "US",
      "types": [ "country", "political" ]
    } ],
    "geometry": {
      "location": {
        "lat": 42.2695387,
        "lng": -71.6161777
      },
      "location_type": "APPROXIMATE",
      "viewport": {
        "southwest": {
          "lat": 42.2530230,
          "lng": -71.6481925
        },
        "northeast": {
          "lat": 42.2860501,
          "lng": -71.5841629
        }
      },
      "bounds": {
        "southwest": {
          "lat": 42.2514229,
          "lng": -71.6366429
        },
        "northeast": {
          "lat": 42.2781279,
          "lng": -71.5965750
        }
      }
    }
  } ]
}
