{
  "status": "OK",
  "results": [ {
    "types": [ "locality", "political" ],
    "formatted_address": "Winchendon, MA, USA",
    "address_components": [ {
      "long_name": "Winchendon",
      "short_name": "Winchendon",
      "types": [ "locality", "political" ]
    }, {
      "long_name": "Worcester",
      "short_name": "Worcester",
      "types": [ "administrative_area_level_2", "political" ]
    }, {
      "long_name": "Massachusetts",
      "short_name": "MA",
      "types": [ "administrative_area_level_1", "political" ]
    }, {
      "long_name": "United States",
      "short_name": "US",
      "types": [ "country", "political" ]
    } ],
    "geometry": {
      "location": {
        "lat": 42.6861973,
        "lng": -72.0439686
      },
      "location_type": "APPROXIMATE",
      "viewport": {
        "southwest": {
          "lat": 42.6697912,
          "lng": -72.0759834
        },
        "northeast": {
          "lat": 42.7025991,
          "lng": -72.0119538
        }
      },
      "bounds": {
        "southwest": {
          "lat": 42.6606520,
          "lng": -72.0677259
        },
        "northeast": {
          "lat": 42.6980889,
          "lng": -72.0193240
        }
      }
    }
  } ]
}
