{
  "status": "OK",
  "results": [ {
    "types": [ "locality", "political" ],
    "formatted_address": "Bristol, CT, USA",
    "address_components": [ {
      "long_name": "Bristol",
      "short_name": "Bristol",
      "types": [ "locality", "political" ]
    }, {
      "long_name": "Hartford",
      "short_name": "Hartford",
      "types": [ "administrative_area_level_2", "political" ]
    }, {
      "long_name": "Connecticut",
      "short_name": "CT",
      "types": [ "administrative_area_level_1", "political" ]
    }, {
      "long_name": "United States",
      "short_name": "US",
      "types": [ "country", "political" ]
    } ],
    "geometry": {
      "location": {
        "lat": 41.6717648,
        "lng": -72.9492703
      },
      "location_type": "APPROXIMATE",
      "viewport": {
        "southwest": {
          "lat": 41.6384176,
          "lng": -73.0133000
        },
        "northeast": {
          "lat": 41.7050947,
          "lng": -72.8852406
        }
      },
      "bounds": {
        "southwest": {
          "lat": 41.6395980,
          "lng": -72.9985500
        },
        "northeast": {
          "lat": 41.7235979,
          "lng": -72.8834040
        }
      }
    }
  } ]
}
