{
  "status": "OK",
  "results": [ {
    "types": [ "locality", "political" ],
    "formatted_address": "Darien, CT, USA",
    "address_components": [ {
      "long_name": "Darien",
      "short_name": "Darien",
      "types": [ "locality", "political" ]
    }, {
      "long_name": "Fairfield",
      "short_name": "Fairfield",
      "types": [ "administrative_area_level_2", "political" ]
    }, {
      "long_name": "Connecticut",
      "short_name": "CT",
      "types": [ "administrative_area_level_1", "political" ]
    }, {
      "long_name": "United States",
      "short_name": "US",
      "types": [ "country", "political" ]
    } ],
    "geometry": {
      "location": {
        "lat": 41.0787079,
        "lng": -73.4692873
      },
      "location_type": "APPROXIMATE",
      "viewport": {
        "southwest": {
          "lat": 41.0113856,
          "lng": -73.5973467
        },
        "northeast": {
          "lat": 41.1459613,
          "lng": -73.3412279
        }
      },
      "bounds": {
        "southwest": {
          "lat": 40.9754889,
          "lng": -73.5173660
        },
        "northeast": {
          "lat": 41.1146959,
          "lng": -73.4441000
        }
      }
    }
  } ]
}
