{
  "status": "OK",
  "results": [ {
    "types": [ "locality", "political" ],
    "formatted_address": "Derby, CT, USA",
    "address_components": [ {
      "long_name": "Derby",
      "short_name": "Derby",
      "types": [ "locality", "political" ]
    }, {
      "long_name": "New Haven",
      "short_name": "New Haven",
      "types": [ "administrative_area_level_2", "political" ]
    }, {
      "long_name": "Connecticut",
      "short_name": "CT",
      "types": [ "administrative_area_level_1", "political" ]
    }, {
      "long_name": "United States",
      "short_name": "US",
      "types": [ "country", "political" ]
    } ],
    "geometry": {
      "location": {
        "lat": 41.3206523,
        "lng": -73.0889973
      },
      "location_type": "APPROXIMATE",
      "viewport": {
        "southwest": {
          "lat": 41.2871239,
          "lng": -73.1530270
        },
        "northeast": {
          "lat": 41.3541635,
          "lng": -73.0249676
        }
      },
      "bounds": {
        "southwest": {
          "lat": 41.3009960,
          "lng": -73.1246539
        },
        "northeast": {
          "lat": 41.3528960,
          "lng": -73.0391410
        }
      }
    }
  } ]
}
