{
  "status": "OK",
  "results": [ {
    "types": [ "locality", "political" ],
    "formatted_address": "East Hampton, CT, USA",
    "address_components": [ {
      "long_name": "East Hampton",
      "short_name": "East Hampton",
      "types": [ "locality", "political" ]
    }, {
      "long_name": "Middlesex",
      "short_name": "Middlesex",
      "types": [ "administrative_area_level_2", "political" ]
    }, {
      "long_name": "Connecticut",
      "short_name": "CT",
      "types": [ "administrative_area_level_1", "political" ]
    }, {
      "long_name": "United States",
      "short_name": "US",
      "types": [ "country", "political" ]
    } ],
    "geometry": {
      "location": {
        "lat": 41.5759325,
        "lng": -72.5025877
      },
      "location_type": "APPROXIMATE",
      "viewport": {
        "southwest": {
          "lat": 41.5592363,
          "lng": -72.5346025
        },
        "northeast": {
          "lat": 41.5926244,
          "lng": -72.4705729
        }
      },
      "bounds": {
        "southwest": {
          "lat": 41.5641819,
          "lng": -72.5176020
        },
        "northeast": {
          "lat": 41.5849190,
          "lng": -72.4636599
        }
      }
    }
  } ]
}
