{
  "status": "OK",
  "results": [ {
    "types": [ "locality", "political" ],
    "formatted_address": "Groton, CT, USA",
    "address_components": [ {
      "long_name": "Groton",
      "short_name": "Groton",
      "types": [ "locality", "political" ]
    }, {
      "long_name": "New London",
      "short_name": "New London",
      "types": [ "administrative_area_level_2", "political" ]
    }, {
      "long_name": "Connecticut",
      "short_name": "CT",
      "types": [ "administrative_area_level_1", "political" ]
    }, {
      "long_name": "United States",
      "short_name": "US",
      "types": [ "country", "political" ]
    } ],
    "geometry": {
      "location": {
        "lat": 41.3500984,
        "lng": -72.0784092
      },
      "location_type": "APPROXIMATE",
      "viewport": {
        "southwest": {
          "lat": 41.3165852,
          "lng": -72.1424389
        },
        "northeast": {
          "lat": 41.3835944,
          "lng": -72.0143795
        }
      },
      "bounds": {
        "southwest": {
          "lat": 41.2779979,
          "lng": -72.0896200
        },
        "northeast": {
          "lat": 41.3675980,
          "lng": -72.0547189
        }
      }
    }
  } ]
}
