{
  "status": "OK",
  "results": [ {
    "types": [ "locality", "political" ],
    "formatted_address": "Central Manchester, CT, USA",
    "address_components": [ {
      "long_name": "Central Manchester",
      "short_name": "Central Manchester",
      "types": [ "locality", "political" ]
    }, {
      "long_name": "Hartford",
      "short_name": "Hartford",
      "types": [ "administrative_area_level_2", "political" ]
    }, {
      "long_name": "Connecticut",
      "short_name": "CT",
      "types": [ "administrative_area_level_1", "political" ]
    }, {
      "long_name": "United States",
      "short_name": "US",
      "types": [ "country", "political" ]
    } ],
    "geometry": {
      "location": {
        "lat": 41.7759324,
        "lng": -72.5214754
      },
      "location_type": "APPROXIMATE",
      "viewport": {
        "southwest": {
          "lat": 41.7592880,
          "lng": -72.5534902
        },
        "northeast": {
          "lat": 41.7925725,
          "lng": -72.4894606
        }
      },
      "bounds": {
        "southwest": {
          "lat": 41.7634989,
          "lng": -72.5617319
        },
        "northeast": {
          "lat": 41.7990980,
          "lng": -72.4710290
        }
      }
    }
  } ]
}
