{
  "status": "OK",
  "results": [ {
    "types": [ "locality", "political" ],
    "formatted_address": "Meriden, CT, USA",
    "address_components": [ {
      "long_name": "Meriden",
      "short_name": "Meriden",
      "types": [ "locality", "political" ]
    }, {
      "long_name": "New Haven",
      "short_name": "New Haven",
      "types": [ "administrative_area_level_2", "political" ]
    }, {
      "long_name": "Connecticut",
      "short_name": "CT",
      "types": [ "administrative_area_level_1", "political" ]
    }, {
      "long_name": "United States",
      "short_name": "US",
      "types": [ "country", "political" ]
    } ],
    "geometry": {
      "location": {
        "lat": 41.5381535,
        "lng": -72.8070435
      },
      "location_type": "APPROXIMATE",
      "viewport": {
        "southwest": {
          "lat": 41.5047372,
          "lng": -72.8710732
        },
        "northeast": {
          "lat": 41.5715525,
          "lng": -72.7430138
        }
      },
      "bounds": {
        "southwest": {
          "lat": 41.4954980,
          "lng": -72.8590170
        },
        "northeast": {
          "lat": 41.5788940,
          "lng": -72.7447420
        }
      }
    }
  } ]
}
