{
  "status": "OK",
  "results": [ {
    "types": [ "locality", "political" ],
    "formatted_address": "New Milford, CT, USA",
    "address_components": [ {
      "long_name": "New Milford",
      "short_name": "New Milford",
      "types": [ "locality", "political" ]
    }, {
      "long_name": "Litchfield",
      "short_name": "Litchfield",
      "types": [ "administrative_area_level_2", "political" ]
    }, {
      "long_name": "Connecticut",
      "short_name": "CT",
      "types": [ "administrative_area_level_1", "political" ]
    }, {
      "long_name": "United States",
      "short_name": "US",
      "types": [ "country", "political" ]
    } ],
    "geometry": {
      "location": {
        "lat": 41.5770391,
        "lng": -73.4084542
      },
      "location_type": "APPROXIMATE",
      "viewport": {
        "southwest": {
          "lat": 41.5436429,
          "lng": -73.4724839
        },
        "northeast": {
          "lat": 41.6104180,
          "lng": -73.3444245
        }
      },
      "bounds": {
        "southwest": {
          "lat": 41.5496939,
          "lng": -73.4231650
        },
        "northeast": {
          "lat": 41.6243980,
          "lng": -73.3885640
        }
      }
    }
  } ]
}
