{
  "status": "OK",
  "results": [ {
    "types": [ "locality", "political" ],
    "formatted_address": "Simsbury Center, CT, USA",
    "address_components": [ {
      "long_name": "Simsbury Center",
      "short_name": "Simsbury Center",
      "types": [ "locality", "political" ]
    }, {
      "long_name": "Hartford",
      "short_name": "Hartford",
      "types": [ "administrative_area_level_2", "political" ]
    }, {
      "long_name": "Connecticut",
      "short_name": "CT",
      "types": [ "administrative_area_level_1", "political" ]
    }, {
      "long_name": "United States",
      "short_name": "US",
      "types": [ "country", "political" ]
    } ],
    "geometry": {
      "location": {
        "lat": 41.8829500,
        "lng": -72.8113800
      },
      "location_type": "APPROXIMATE",
      "viewport": {
        "southwest": {
          "lat": 41.8663334,
          "lng": -72.8433948
        },
        "northeast": {
          "lat": 41.8995623,
          "lng": -72.7793652
        }
      },
      "bounds": {
        "southwest": {
          "lat": 41.8497980,
          "lng": -72.8322419
        },
        "northeast": {
          "lat": 41.9035970,
          "lng": -72.7869400
        }
      }
    }
  } ]
}
