{
  "status": "OK",
  "results": [ {
    "types": [ "locality", "political" ],
    "formatted_address": "Stratford, CT, USA",
    "address_components": [ {
      "long_name": "Stratford",
      "short_name": "Stratford",
      "types": [ "locality", "political" ]
    }, {
      "long_name": "Fairfield",
      "short_name": "Fairfield",
      "types": [ "administrative_area_level_2", "political" ]
    }, {
      "long_name": "Connecticut",
      "short_name": "CT",
      "types": [ "administrative_area_level_1", "political" ]
    }, {
      "long_name": "United States",
      "short_name": "US",
      "types": [ "country", "political" ]
    } ],
    "geometry": {
      "location": {
        "lat": 41.1845415,
        "lng": -73.1331651
      },
      "location_type": "APPROXIMATE",
      "viewport": {
        "southwest": {
          "lat": 41.1509432,
          "lng": -73.1971948
        },
        "northeast": {
          "lat": 41.2181226,
          "lng": -73.0691354
        }
      },
      "bounds": {
        "southwest": {
          "lat": 41.1462800,
          "lng": -73.1657549
        },
        "northeast": {
          "lat": 41.2684960,
          "lng": -73.0867519
        }
      }
    }
  } ]
}
