{
  "status": "OK",
  "results": [ {
    "types": [ "locality", "political" ],
    "formatted_address": "West Haven, CT, USA",
    "address_components": [ {
      "long_name": "West Haven",
      "short_name": "West Haven",
      "types": [ "locality", "political" ]
    }, {
      "long_name": "New Haven",
      "short_name": "New Haven",
      "types": [ "administrative_area_level_2", "political" ]
    }, {
      "long_name": "Connecticut",
      "short_name": "CT",
      "types": [ "administrative_area_level_1", "political" ]
    }, {
      "long_name": "United States",
      "short_name": "US",
      "types": [ "country", "political" ]
    } ],
    "geometry": {
      "location": {
        "lat": 41.2706527,
        "lng": -72.9470471
      },
      "location_type": "APPROXIMATE",
      "viewport": {
        "southwest": {
          "lat": 41.2370986,
          "lng": -73.0110768
        },
        "northeast": {
          "lat": 41.3041896,
          "lng": -72.8830174
        }
      },
      "bounds": {
        "southwest": {
          "lat": 41.2326969,
          "lng": -72.9945980
        },
        "northeast": {
          "lat": 41.3132970,
          "lng": -72.9202459
        }
      }
    }
  } ]
}
