{
  "status": "OK",
  "results": [ {
    "types": [ "locality", "political" ],
    "formatted_address": "Wethersfield, CT, USA",
    "address_components": [ {
      "long_name": "Wethersfield",
      "short_name": "Wethersfield",
      "types": [ "locality", "political" ]
    }, {
      "long_name": "Hartford",
      "short_name": "Hartford",
      "types": [ "administrative_area_level_2", "political" ]
    }, {
      "long_name": "Connecticut",
      "short_name": "CT",
      "types": [ "administrative_area_level_1", "political" ]
    }, {
      "long_name": "United States",
      "short_name": "US",
      "types": [ "country", "political" ]
    } ],
    "geometry": {
      "location": {
        "lat": 41.7142665,
        "lng": -72.6525922
      },
      "location_type": "APPROXIMATE",
      "viewport": {
        "southwest": {
          "lat": 41.6809413,
          "lng": -72.7166219
        },
        "northeast": {
          "lat": 41.7475744,
          "lng": -72.5885625
        }
      },
      "bounds": {
        "southwest": {
          "lat": 41.6687990,
          "lng": -72.7079380
        },
        "northeast": {
          "lat": 41.7298989,
          "lng": -72.6157350
        }
      }
    }
  } ]
}
