{
  "status": "OK",
  "results": [ {
    "types": [ "locality", "political" ],
    "formatted_address": "Fairbanks, AK, USA",
    "address_components": [ {
      "long_name": "Fairbanks",
      "short_name": "Fairbanks",
      "types": [ "locality", "political" ]
    }, {
      "long_name": "Fairbanks North Star",
      "short_name": "Fairbanks North Star",
      "types": [ "administrative_area_level_2", "political" ]
    }, {
      "long_name": "Alaska",
      "short_name": "AK",
      "types": [ "administrative_area_level_1", "political" ]
    }, {
      "long_name": "United States",
      "short_name": "US",
      "types": [ "country", "political" ]
    } ],
    "geometry": {
      "location": {
        "lat": 64.8377778,
        "lng": -147.7163889
      },
      "location_type": "APPROXIMATE",
      "viewport": {
        "southwest": {
          "lat": 64.7997976,
          "lng": -147.8444483
        },
        "northeast": {
          "lat": 64.8757045,
          "lng": -147.5883295
        }
      },
      "bounds": {
        "southwest": {
          "lat": 64.7785100,
          "lng": -147.8138450
        },
        "northeast": {
          "lat": 64.8782190,
          "lng": -147.5241600
        }
      }
    }
  } ]
}
