{
  "status": "OK",
  "results": [ {
    "types": [ "locality", "political" ],
    "formatted_address": "Homer, AK, USA",
    "address_components": [ {
      "long_name": "Homer",
      "short_name": "Homer",
      "types": [ "locality", "political" ]
    }, {
      "long_name": "Kenai Peninsula",
      "short_name": "Kenai Peninsula",
      "types": [ "administrative_area_level_2", "political" ]
    }, {
      "long_name": "Alaska",
      "short_name": "AK",
      "types": [ "administrative_area_level_1", "political" ]
    }, {
      "long_name": "United States",
      "short_name": "US",
      "types": [ "country", "political" ]
    } ],
    "geometry": {
      "location": {
        "lat": 59.6425000,
        "lng": -151.5483333
      },
      "location_type": "APPROXIMATE",
      "viewport": {
        "southwest": {
          "lat": 59.5973562,
          "lng": -151.6763927
        },
        "northeast": {
          "lat": 59.6875831,
          "lng": -151.4202739
        }
      },
      "bounds": {
        "southwest": {
          "lat": 59.5982680,
          "lng": -151.6547910
        },
        "northeast": {
          "lat": 59.6805430,
          "lng": -151.4039950
        }
      }
    }
  } ]
}
