{
  "status": "OK",
  "results": [ {
    "types": [ "locality", "political" ],
    "formatted_address": "Houston, AK, USA",
    "address_components": [ {
      "long_name": "Houston",
      "short_name": "Houston",
      "types": [ "locality", "political" ]
    }, {
      "long_name": "Matanuska-Susitna",
      "short_name": "Matanuska-Susitna",
      "types": [ "administrative_area_level_2", "political" ]
    }, {
      "long_name": "Alaska",
      "short_name": "AK",
      "types": [ "administrative_area_level_1", "political" ]
    }, {
      "long_name": "United States",
      "short_name": "US",
      "types": [ "country", "political" ]
    } ],
    "geometry": {
      "location": {
        "lat": 61.6302778,
        "lng": -149.8180556
      },
      "location_type": "APPROXIMATE",
      "viewport": {
        "southwest": {
          "lat": 61.5878341,
          "lng": -149.9461150
        },
        "northeast": {
          "lat": 61.6726633,
          "lng": -149.6899962
        }
      },
      "bounds": {
        "southwest": {
          "lat": 61.5597410,
          "lng": -149.9034710
        },
        "northeast": {
          "lat": 61.6586520,
          "lng": -149.7206840
        }
      }
    }
  } ]
}
