{
  "status": "OK",
  "results": [ {
    "types": [ "locality", "political" ],
    "formatted_address": "Ketchikan, AK, USA",
    "address_components": [ {
      "long_name": "Ketchikan",
      "short_name": "Ketchikan",
      "types": [ "locality", "political" ]
    }, {
      "long_name": "Ketchikan Gateway",
      "short_name": "Ketchikan Gateway",
      "types": [ "administrative_area_level_2", "political" ]
    }, {
      "long_name": "Alaska",
      "short_name": "AK",
      "types": [ "administrative_area_level_1", "political" ]
    }, {
      "long_name": "United States",
      "short_name": "US",
      "types": [ "country", "political" ]
    } ],
    "geometry": {
      "location": {
        "lat": 55.3422222,
        "lng": -131.6461111
      },
      "location_type": "APPROXIMATE",
      "viewport": {
        "southwest": {
          "lat": 55.3168331,
          "lng": -131.7101408
        },
        "northeast": {
          "lat": 55.3675951,
          "lng": -131.5820814
        }
      },
      "bounds": {
        "southwest": {
          "lat": 55.3265270,
          "lng": -131.7073380
        },
        "northeast": {
          "lat": 55.3641230,
          "lng": -131.6149350
        }
      }
    }
  } ]
}
