{
  "status": "OK",
  "results": [ {
    "types": [ "locality", "political" ],
    "formatted_address": "Clearfield, UT, USA",
    "address_components": [ {
      "long_name": "Clearfield",
      "short_name": "Clearfield",
      "types": [ "locality", "political" ]
    }, {
      "long_name": "North Davis",
      "short_name": "North Davis",
      "types": [ "administrative_area_level_3", "political" ]
    }, {
      "long_name": "Davis",
      "short_name": "Davis",
      "types": [ "administrative_area_level_2", "political" ]
    }, {
      "long_name": "Utah",
      "short_name": "UT",
      "types": [ "administrative_area_level_1", "political" ]
    }, {
      "long_name": "United States",
      "short_name": "US",
      "types": [ "country", "political" ]
    } ],
    "geometry": {
      "location": {
        "lat": 41.1107771,
        "lng": -112.0260538
      },
      "location_type": "APPROXIMATE",
      "viewport": {
        "southwest": {
          "lat": 41.0939612,
          "lng": -112.0580686
        },
        "northeast": {
          "lat": 41.1275887,
          "lng": -111.9940390
        }
      },
      "bounds": {
        "southwest": {
          "lat": 41.0746649,
          "lng": -112.0556740
        },
        "northeast": {
          "lat": 41.1253339,
          "lng": -111.9865880
        }
      }
    }
  } ]
}
