{
  "status": "OK",
  "results": [ {
    "types": [ "locality", "political" ],
    "formatted_address": "Kanab, UT, USA",
    "address_components": [ {
      "long_name": "Kanab",
      "short_name": "Kanab",
      "types": [ "locality", "political" ]
    }, {
      "long_name": "Kane",
      "short_name": "Kane",
      "types": [ "administrative_area_level_2", "political" ]
    }, {
      "long_name": "Utah",
      "short_name": "UT",
      "types": [ "administrative_area_level_1", "political" ]
    }, {
      "long_name": "United States",
      "short_name": "US",
      "types": [ "country", "political" ]
    } ],
    "geometry": {
      "location": {
        "lat": 37.0474855,
        "lng": -112.5263145
      },
      "location_type": "APPROXIMATE",
      "viewport": {
        "southwest": {
          "lat": 37.0118547,
          "lng": -112.5903442
        },
        "northeast": {
          "lat": 37.0830995,
          "lng": -112.4622848
        }
      },
      "bounds": {
        "southwest": {
          "lat": 37.0008980,
          "lng": -112.5810880
        },
        "northeast": {
          "lat": 37.0597620,
          "lng": -112.4801010
        }
      }
    }
  } ]
}
