{
  "status": "OK",
  "results": [ {
    "types": [ "locality", "political" ],
    "formatted_address": "Kaysville, UT, USA",
    "address_components": [ {
      "long_name": "Kaysville",
      "short_name": "Kaysville",
      "types": [ "locality", "political" ]
    }, {
      "long_name": "Davis",
      "short_name": "Davis",
      "types": [ "administrative_area_level_2", "political" ]
    }, {
      "long_name": "Utah",
      "short_name": "UT",
      "types": [ "administrative_area_level_1", "political" ]
    }, {
      "long_name": "United States",
      "short_name": "US",
      "types": [ "country", "political" ]
    } ],
    "geometry": {
      "location": {
        "lat": 41.0352216,
        "lng": -111.9385521
      },
      "location_type": "APPROXIMATE",
      "viewport": {
        "southwest": {
          "lat": 41.0015468,
          "lng": -112.0025818
        },
        "northeast": {
          "lat": 41.0688792,
          "lng": -111.8745224
        }
      },
      "bounds": {
        "southwest": {
          "lat": 40.9960580,
          "lng": -111.9947400
        },
        "northeast": {
          "lat": 41.0584429,
          "lng": -111.8992080
        }
      }
    }
  } ]
}
