{
  "status": "OK",
  "results": [ {
    "types": [ "locality", "political" ],
    "formatted_address": "La Verkin, UT, USA",
    "address_components": [ {
      "long_name": "La Verkin",
      "short_name": "La Verkin",
      "types": [ "locality", "political" ]
    }, {
      "long_name": "Hurricane",
      "short_name": "Hurricane",
      "types": [ "administrative_area_level_3", "political" ]
    }, {
      "long_name": "Washington",
      "short_name": "Washington",
      "types": [ "administrative_area_level_2", "political" ]
    }, {
      "long_name": "Utah",
      "short_name": "UT",
      "types": [ "administrative_area_level_1", "political" ]
    }, {
      "long_name": "United States",
      "short_name": "US",
      "types": [ "country", "political" ]
    } ],
    "geometry": {
      "location": {
        "lat": 37.2136111,
        "lng": -113.2666667
      },
      "location_type": "APPROXIMATE",
      "viewport": {
        "southwest": {
          "lat": 37.1780584,
          "lng": -113.3306964
        },
        "northeast": {
          "lat": 37.2491470,
          "lng": -113.2026370
        }
      },
      "bounds": {
        "southwest": {
          "lat": 37.1886590,
          "lng": -113.2922110
        },
        "northeast": {
          "lat": 37.2686050,
          "lng": -113.2179680
        }
      }
    }
  } ]
}
