{
  "status": "OK",
  "results": [ {
    "types": [ "locality", "political" ],
    "formatted_address": "Leeds, UT, USA",
    "address_components": [ {
      "long_name": "Leeds",
      "short_name": "Leeds",
      "types": [ "locality", "political" ]
    }, {
      "long_name": "Washington",
      "short_name": "Washington",
      "types": [ "administrative_area_level_2", "political" ]
    }, {
      "long_name": "Utah",
      "short_name": "UT",
      "types": [ "administrative_area_level_1", "political" ]
    }, {
      "long_name": "United States",
      "short_name": "US",
      "types": [ "country", "political" ]
    } ],
    "geometry": {
      "location": {
        "lat": 37.2385931,
        "lng": -113.3591167
      },
      "location_type": "APPROXIMATE",
      "viewport": {
        "southwest": {
          "lat": 37.2208248,
          "lng": -113.3911315
        },
        "northeast": {
          "lat": 37.2563573,
          "lng": -113.3271019
        }
      },
      "bounds": {
        "southwest": {
          "lat": 37.2199120,
          "lng": -113.3766860
        },
        "northeast": {
          "lat": 37.2732130,
          "lng": -113.3319430
        }
      }
    }
  } ]
}
