{
  "status": "OK",
  "results": [ {
    "types": [ "locality", "political" ],
    "formatted_address": "Moab, UT, USA",
    "address_components": [ {
      "long_name": "Moab",
      "short_name": "Moab",
      "types": [ "locality", "political" ]
    }, {
      "long_name": "Grand",
      "short_name": "Grand",
      "types": [ "administrative_area_level_2", "political" ]
    }, {
      "long_name": "Utah",
      "short_name": "UT",
      "types": [ "administrative_area_level_1", "political" ]
    }, {
      "long_name": "United States",
      "short_name": "US",
      "types": [ "country", "political" ]
    } ],
    "geometry": {
      "location": {
        "lat": 38.5733155,
        "lng": -109.5498395
      },
      "location_type": "APPROXIMATE",
      "viewport": {
        "southwest": {
          "lat": 38.5558665,
          "lng": -109.5818543
        },
        "northeast": {
          "lat": 38.5907603,
          "lng": -109.5178247
        }
      },
      "bounds": {
        "southwest": {
          "lat": 38.5556760,
          "lng": -109.5811950
        },
        "northeast": {
          "lat": 38.5931200,
          "lng": -109.5216420
        }
      }
    }
  } ]
}
