{
  "status": "OK",
  "results": [ {
    "types": [ "locality", "political" ],
    "formatted_address": "Parowan, UT, USA",
    "address_components": [ {
      "long_name": "Parowan",
      "short_name": "Parowan",
      "types": [ "locality", "political" ]
    }, {
      "long_name": "Iron",
      "short_name": "Iron",
      "types": [ "administrative_area_level_2", "political" ]
    }, {
      "long_name": "Utah",
      "short_name": "UT",
      "types": [ "administrative_area_level_1", "political" ]
    }, {
      "long_name": "United States",
      "short_name": "US",
      "types": [ "country", "political" ]
    } ],
    "geometry": {
      "location": {
        "lat": 37.8421975,
        "lng": -112.8279996
      },
      "location_type": "APPROXIMATE",
      "viewport": {
        "southwest": {
          "lat": 37.8069431,
          "lng": -112.8920293
        },
        "northeast": {
          "lat": 37.8774351,
          "lng": -112.7639699
        }
      },
      "bounds": {
        "southwest": {
          "lat": 37.7926250,
          "lng": -112.8808170
        },
        "northeast": {
          "lat": 37.8675570,
          "lng": -112.8040290
        }
      }
    }
  } ]
}
