{
  "status": "OK",
  "results": [ {
    "types": [ "locality", "political" ],
    "formatted_address": "Richfield, UT, USA",
    "address_components": [ {
      "long_name": "Richfield",
      "short_name": "Richfield",
      "types": [ "locality", "political" ]
    }, {
      "long_name": "Sevier",
      "short_name": "Sevier",
      "types": [ "administrative_area_level_2", "political" ]
    }, {
      "long_name": "Utah",
      "short_name": "UT",
      "types": [ "administrative_area_level_1", "political" ]
    }, {
      "long_name": "United States",
      "short_name": "US",
      "types": [ "country", "political" ]
    } ],
    "geometry": {
      "location": {
        "lat": 38.7724673,
        "lng": -112.0840943
      },
      "location_type": "APPROXIMATE",
      "viewport": {
        "southwest": {
          "lat": 38.7376620,
          "lng": -112.1481240
        },
        "northeast": {
          "lat": 38.8072556,
          "lng": -112.0200646
        }
      },
      "bounds": {
        "southwest": {
          "lat": 38.7250600,
          "lng": -112.1245210
        },
        "northeast": {
          "lat": 38.7958239,
          "lng": -112.0666920
        }
      }
    }
  } ]
}
