{
  "status": "OK",
  "results": [ {
    "types": [ "locality", "political" ],
    "formatted_address": "Roy, UT, USA",
    "address_components": [ {
      "long_name": "Roy",
      "short_name": "Roy",
      "types": [ "locality", "political" ]
    }, {
      "long_name": "Ogden",
      "short_name": "Ogden",
      "types": [ "administrative_area_level_3", "political" ]
    }, {
      "long_name": "Weber",
      "short_name": "Weber",
      "types": [ "administrative_area_level_2", "political" ]
    }, {
      "long_name": "Utah",
      "short_name": "UT",
      "types": [ "administrative_area_level_1", "political" ]
    }, {
      "long_name": "United States",
      "short_name": "US",
      "types": [ "country", "political" ]
    } ],
    "geometry": {
      "location": {
        "lat": 41.1616108,
        "lng": -112.0263313
      },
      "location_type": "APPROXIMATE",
      "viewport": {
        "southwest": {
          "lat": 41.1280007,
          "lng": -112.0903610
        },
        "northeast": {
          "lat": 41.1952036,
          "lng": -111.9623016
        }
      },
      "bounds": {
        "southwest": {
          "lat": 41.1522430,
          "lng": -112.0881110
        },
        "northeast": {
          "lat": 41.2052569,
          "lng": -112.0141750
        }
      }
    }
  } ]
}
