{
  "status": "OK",
  "results": [ {
    "types": [ "locality", "political" ],
    "formatted_address": "Sandy, UT, USA",
    "address_components": [ {
      "long_name": "Sandy",
      "short_name": "Sandy",
      "types": [ "locality", "political" ]
    }, {
      "long_name": "Salt Lake",
      "short_name": "Salt Lake",
      "types": [ "administrative_area_level_2", "political" ]
    }, {
      "long_name": "Utah",
      "short_name": "UT",
      "types": [ "administrative_area_level_1", "political" ]
    }, {
      "long_name": "United States",
      "short_name": "US",
      "types": [ "country", "political" ]
    } ],
    "geometry": {
      "location": {
        "lat": 40.5724150,
        "lng": -111.8596100
      },
      "location_type": "APPROXIMATE",
      "viewport": {
        "southwest": {
          "lat": 40.5385047,
          "lng": -111.9236397
        },
        "northeast": {
          "lat": 40.6063082,
          "lng": -111.7955803
        }
      },
      "bounds": {
        "southwest": {
          "lat": 40.5276620,
          "lng": -111.9212680
        },
        "northeast": {
          "lat": 40.6171469,
          "lng": -111.7768200
        }
      }
    }
  } ]
}
