{
  "status": "OK",
  "results": [ {
    "types": [ "locality", "political" ],
    "formatted_address": "South Jordan, UT, USA",
    "address_components": [ {
      "long_name": "South Jordan",
      "short_name": "South Jordan",
      "types": [ "locality", "political" ]
    }, {
      "long_name": "Salt Lake",
      "short_name": "Salt Lake",
      "types": [ "administrative_area_level_2", "political" ]
    }, {
      "long_name": "Utah",
      "short_name": "UT",
      "types": [ "administrative_area_level_1", "political" ]
    }, {
      "long_name": "United States",
      "short_name": "US",
      "types": [ "country", "political" ]
    } ],
    "geometry": {
      "location": {
        "lat": 40.5621704,
        "lng": -111.9296580
      },
      "location_type": "APPROXIMATE",
      "viewport": {
        "southwest": {
          "lat": 40.5282549,
          "lng": -111.9936877
        },
        "northeast": {
          "lat": 40.5960687,
          "lng": -111.8656283
        }
      },
      "bounds": {
        "southwest": {
          "lat": 40.5368470,
          "lng": -112.0703720
        },
        "northeast": {
          "lat": 40.5828319,
          "lng": -111.8950670
        }
      }
    }
  } ]
}
