{
  "status": "OK",
  "results": [ {
    "types": [ "locality", "political" ],
    "formatted_address": "Sunset, UT, USA",
    "address_components": [ {
      "long_name": "Sunset",
      "short_name": "Sunset",
      "types": [ "locality", "political" ]
    }, {
      "long_name": "North Davis",
      "short_name": "North Davis",
      "types": [ "administrative_area_level_3", "political" ]
    }, {
      "long_name": "Davis",
      "short_name": "Davis",
      "types": [ "administrative_area_level_2", "political" ]
    }, {
      "long_name": "Utah",
      "short_name": "UT",
      "types": [ "administrative_area_level_1", "political" ]
    }, {
      "long_name": "United States",
      "short_name": "US",
      "types": [ "country", "political" ]
    } ],
    "geometry": {
      "location": {
        "lat": 41.1405440,
        "lng": -112.0296650
      },
      "location_type": "APPROXIMATE",
      "viewport": {
        "southwest": {
          "lat": 41.1321404,
          "lng": -112.0456724
        },
        "northeast": {
          "lat": 41.1489465,
          "lng": -112.0136576
        }
      },
      "bounds": {
        "southwest": {
          "lat": 41.1251369,
          "lng": -112.0368750
        },
        "northeast": {
          "lat": 41.1526439,
          "lng": -112.0207840
        }
      }
    }
  } ]
}
