{
  "status": "OK",
  "results": [ {
    "types": [ "locality", "political" ],
    "formatted_address": "Syracuse, UT, USA",
    "address_components": [ {
      "long_name": "Syracuse",
      "short_name": "Syracuse",
      "types": [ "locality", "political" ]
    }, {
      "long_name": "North Davis",
      "short_name": "North Davis",
      "types": [ "administrative_area_level_3", "political" ]
    }, {
      "long_name": "Davis",
      "short_name": "Davis",
      "types": [ "administrative_area_level_2", "political" ]
    }, {
      "long_name": "Utah",
      "short_name": "UT",
      "types": [ "administrative_area_level_1", "political" ]
    }, {
      "long_name": "United States",
      "short_name": "US",
      "types": [ "country", "political" ]
    } ],
    "geometry": {
      "location": {
        "lat": 41.0893878,
        "lng": -112.0646657
      },
      "location_type": "APPROXIMATE",
      "viewport": {
        "southwest": {
          "lat": 41.0557407,
          "lng": -112.1286954
        },
        "northeast": {
          "lat": 41.1230176,
          "lng": -112.0006360
        }
      },
      "bounds": {
        "southwest": {
          "lat": 41.0556259,
          "lng": -112.1171350
        },
        "northeast": {
          "lat": 41.1110470,
          "lng": -112.0355750
        }
      }
    }
  } ]
}
