{
  "status": "OK",
  "results": [ {
    "types": [ "locality", "political" ],
    "formatted_address": "Tooele, UT, USA",
    "address_components": [ {
      "long_name": "Tooele",
      "short_name": "Tooele",
      "types": [ "locality", "political" ]
    }, {
      "long_name": "Tooele-Grantsville",
      "short_name": "Tooele-Grantsville",
      "types": [ "administrative_area_level_3", "political" ]
    }, {
      "long_name": "Tooele",
      "short_name": "Tooele",
      "types": [ "administrative_area_level_2", "political" ]
    }, {
      "long_name": "Utah",
      "short_name": "UT",
      "types": [ "administrative_area_level_1", "political" ]
    }, {
      "long_name": "United States",
      "short_name": "US",
      "types": [ "country", "political" ]
    } ],
    "geometry": {
      "location": {
        "lat": 40.5307776,
        "lng": -112.2982800
      },
      "location_type": "APPROXIMATE",
      "viewport": {
        "southwest": {
          "lat": 40.4968462,
          "lng": -112.3623097
        },
        "northeast": {
          "lat": 40.5646918,
          "lng": -112.2342503
        }
      },
      "bounds": {
        "southwest": {
          "lat": 40.4922679,
          "lng": -112.3625960
        },
        "northeast": {
          "lat": 40.5907610,
          "lng": -112.2644100
        }
      }
    }
  } ]
}
