{
  "status": "OK",
  "results": [ {
    "types": [ "locality", "political" ],
    "formatted_address": "Vernal, UT, USA",
    "address_components": [ {
      "long_name": "Vernal",
      "short_name": "Vernal",
      "types": [ "locality", "political" ]
    }, {
      "long_name": "Uintah",
      "short_name": "Uintah",
      "types": [ "administrative_area_level_2", "political" ]
    }, {
      "long_name": "Utah",
      "short_name": "UT",
      "types": [ "administrative_area_level_1", "political" ]
    }, {
      "long_name": "United States",
      "short_name": "US",
      "types": [ "country", "political" ]
    } ],
    "geometry": {
      "location": {
        "lat": 40.4555157,
        "lng": -109.5287479
      },
      "location_type": "APPROXIMATE",
      "viewport": {
        "southwest": {
          "lat": 40.4385331,
          "lng": -109.5607627
        },
        "northeast": {
          "lat": 40.4724940,
          "lng": -109.4967331
        }
      },
      "bounds": {
        "southwest": {
          "lat": 40.4334069,
          "lng": -109.5714620
        },
        "northeast": {
          "lat": 40.4751459,
          "lng": -109.4998210
        }
      }
    }
  } ]
}
